timestamp,voltage_v,voltage_filtered_v,current_a,current_filtered_a,average_current_a,discharged_mah,remaining,scale,temperature,cell_count,voltage_cell_v[0],voltage_cell_v[1],voltage_cell_v[2],voltage_cell_v[3],max_cell_voltage_delta,capacity,cycle_count,run_time_to_empty,average_time_to_empty,serial_number,connected,system_source,priority,is_powering_off,warning
25956073,16.1378,16.2619,92.588,92.5591,0.0,595.693,0.793102,1.03308,0.0,4,0.0,0.0,0.0,0.0,0.0,0,0,0,0,0,1,1,0,0,0
25968069,16.4442,16.2637,92.5587,92.5591,0.0,596.002,0.793802,1.03296,0.0,4,0.0,0.0,0.0,0.0,0.0,0,0,0,0,0,1,1,0,0,0
25980063,16.1378,16.2624,92.588,92.5597,0.0,596.31,0.793317,1.03304,0.0,4,0.0,0.0,0.0,0.0,0.0,0,0,0,0,0,1,1,0,0,0
25992059,16.0612,16.2604,92.588,92.5603,0.0,596.619,0.792543,1.03317,0.0,4,0.0,0.0,0.0,0.0,0.0,0,0,0,0,0,1,1,0,0,0
26004062,16.2272,16.2601,92.588,92.5608,0.0,596.927,0.792415,1.03319,0.0,4,0.0,0.0,0.0,0.0,0.0,0,0,0,0,0,1,1,0,0,0
26016061,16.291,16.2604,92.5587,92.5608,0.0,597.236,0.792532,1.03317,0.0,4,0.0,0.0,0.0,0.0,0.0,0,0,0,0,0,1,1,0,0,0
26028072,16.2272,16.2601,92.5294,92.5602,0.0,597.544,0.792404,1.03319,0.0,4,0.0,0.0,0.0,0.0,0.0,0,0,0,0,0,1,1,0,0,0
26040060,16.1889,16.2594,92.588,92.5607,0.0,597.853,0.79213,1.03324,0.0,4,0.0,0.0,0.0,0.0,0.0,0,0,0,0,0,1,1,0,0,0
26052058,16.2016,16.2588,92.588,92.5613,0.0,598.161,0.791907,1.03328,0.0,4,0.0,0.0,0.0,0.0,0.0,0,0,0,0,0,1,1,0,0,0
26064062,16.3676,16.2599,92.5294,92.5606,0.0,598.47,0.792325,1.03321,0.0,4,0.0,0.0,0.0,0.0,0.0,0,0,0,0,0,1,1,0,0,0
26076078,16.1889,16.2592,92.588,92.5612,0.0,598.779,0.792052,1.03325,0.0,4,0.0,0.0,0.0,0.0,0.0,0,0,0,0,0,1,1,0,0,0
26088070,16.3676,16.2603,92.5587,92.5611,0.0,599.087,0.792469,1.03318,0.0,4,0.0,0.0,0.0,0.0,0.0,0,0,0,0,0,1,1,0,0,0
26100066,15.9846,16.2575,92.5294,92.5605,0.0,599.396,0.791408,1.03336,0.0,4,0.0,0.0,0.0,0.0,0.0,0,0,0,0,0,1,1,0,0,0
26112070,16.4059,16.259,92.5587,92.5605,0.0,599.704,0.791978,1.03326,0.0,4,0.0,0.0,0.0,0.0,0.0,0,0,0,0,0,1,1,0,0,0
26124866,16.125,16.2576,92.588,92.561,0.0,600.033,0.791463,1.03335,0.0,4,0.0,0.0,0.0,0.0,0.0,0,0,0,0,0,1,1,0,0,0
26136881,16.2016,16.2571,92.5587,92.561,0.0,600.342,0.791246,1.03339,0.0,4,0.0,0.0,0.0,0.0,0.0,0,0,0,0,0,1,1,0,0,0
26148864,16.1378,16.2559,92.588,92.5615,0.0,600.65,0.790787,1.03346,0.0,4,0.0,0.0,0.0,0.0,0.0,0,0,0,0,0,1,1,0,0,0
27028065,16.0357,16.2303,92.5294,92.5634,0.0,623.257,0.780929,1.03509,0.0,4,0.0,0.0,0.0,0.0,0.0,0,0,0,0,0,1,1,0,0,0
27040071,16.4187,16.2322,92.5001,92.5621,0.0,623.565,0.781653,1.03497,0.0,4,0.0,0.0,0.0,0.0,0.0,0,0,0,0,0,1,1,0,0,0
27052057,16.074,16.2306,92.588,92.5626,0.0,623.874,0.781044,1.03507,0.0,4,0.0,0.0,0.0,0.0,0.0,0,0,0,0,0,1,1,0,0,0
27064070,16.2527,16.2309,92.5587,92.5625,0.0,624.183,0.781129,1.03506,0.0,4,0.0,0.0,0.0,0.0,0.0,0,0,0,0,0,1,1,0,0,0
27076059,15.9591,16.2281,92.5294,92.5619,0.0,624.491,0.780084,1.03523,0.0,4,0.0,0.0,0.0,0.0,0.0,0,0,0,0,0,1,1,0,0,0
27088060,16.4187,16.2301,92.6173,92.563,0.0,624.8,0.780816,1.03511,0.0,4,0.0,0.0,0.0,0.0,0.0,0,0,0,0,0,1,1,0,0,0
27100060,16.2272,16.23,92.588,92.5635,0.0,625.108,0.780805,1.03511,0.0,4,0.0,0.0,0.0,0.0,0.0,0,0,0,0,0,1,1,0,0,0
27112062,16.0995,16.2287,92.588,92.564,0.0,625.417,0.780303,1.0352,0.0,4,0.0,0.0,0.0,0.0,0.0,0,0,0,0,0,1,1,0,0,0
27124065,16.1761,16.2282,92.588,92.5645,0.0,625.726,0.780099,1.03523,0.0,4,0.0,0.0,0.0,0.0,0.0,0,0,0,0,0,1,1,0,0,0
27136082,16.2144,16.2281,92.5294,92.5638,0.0,626.034,0.780047,1.03524,0.0,4,0.0,0.0,0.0,0.0,0.0,0,0,0,0,0,1,1,0,0,0
27148085,16.3931,16.2297,92.588,92.5642,0.0,626.343,0.780682,1.03513,0.0,4,0.0,0.0,0.0,0.0,0.0,0,0,0,0,0,1,1,0,0,0
27160064,16.3804,16.2312,92.5587,92.5641,0.0,626.651,0.781261,1.03504,0.0,4,0.0,0.0,0.0,0.0,0.0,0,0,0,0,0,1,1,0,0,0
27172061,16.3931,16.2328,92.5294,92.5634,0.0,626.959,0.781884,1.03494,0.0,4,0.0,0.0,0.0,0.0,0.0,0,0,0,0,0,1,1,0,0,0
27184064,16.3421,16.2339,92.588,92.5639,0.0,627.268,0.782304,1.03487,0.0,4,0.0,0.0,0.0,0.0,0.0,0,0,0,0,0,1,1,0,0,0
27196060,16.1889,16.2335,92.5587,92.5638,0.0,627.577,0.78213,1.03489,0.0,4,0.0,0.0,0.0,0.0,0.0,0,0,0,0,0,1,1,0,0,0
27208060,16.2527,16.2337,92.5294,92.5631,0.0,627.885,0.782204,1.03488,0.0,4,0.0,0.0,0.0,0.0,0.0,0,0,0,0,0,1,1,0,0,0
27268877,16.1889,16.2348,92.588,92.5655,0.0,629.449,0.782645,1.03481,0.0,4,0.0,0.0,0.0,0.0,0.0,0,0,0,0,0,1,1,0,0,0
27280883,15.9974,16.2324,92.5587,92.5654,0.0,629.758,0.781732,1.03496,0.0,4,0.0,0.0,0.0,0.0,0.0,0,0,0,0,0,1,1,0,0,0
27292858,16.1378,16.2315,92.5294,92.5647,0.0,630.066,0.781368,1.03502,0.0,4,0.0,0.0,0.0,0.0,0.0,0,0,0,0,0,1,1,0,0,0
27304857,16.2144,16.2313,92.5587,92.5646,0.0,630.374,0.781301,1.03503,0.0,4,0.0,0.0,0.0,0.0,0.0,0,0,0,0,0,1,1,0,0,0
27316858,16.1506,16.2305,92.5587,92.5645,0.0,630.683,0.780991,1.03508,0.0,4,0.0,0.0,0.0,0.0,0.0,0,0,0,0,0,1,1,0,0,0
27328858,16.3931,16.2321,92.5294,92.5638,0.0,630.991,0.781617,1.03498,0.0,4,0.0,0.0,0.0,0.0,0.0,0,0,0,0,0,1,1,0,0,0
27340865,16.4187,16.234,92.5587,92.5637,0.0,631.3,0.782334,1.03486,0.0,4,0.0,0.0,0.0,0.0,0.0,0,0,0,0,0,1,1,0,0,0
27352858,16.4442,16.2361,92.5001,92.5624,0.0,631.608,0.783142,1.03473,0.0,4,0.0,0.0,0.0,0.0,0.0,0,0,0,0,0,1,1,0,0,0
27364861,16.3548,16.2373,92.588,92.5629,0.0,631.917,0.783599,1.03465,0.0,4,0.0,0.0,0.0,0.0,0.0,0,0,0,0,0,1,1,0,0,0
27376865,15.9591,16.2345,92.6173,92.564,0.0,632.225,0.782528,1.03483,0.0,4,0.0,0.0,0.0,0.0,0.0,0,0,0,0,0,1,1,0,0,0
27388879,16.3804,16.236,92.5294,92.5633,0.0,632.534,0.783089,1.03474,0.0,4,0.0,0.0,0.0,0.0,0.0,0,0,0,0,0,1,1,0,0,0
27400881,16.3421,16.237,92.5294,92.5626,0.0,632.843,0.783497,1.03467,0.0,4,0.0,0.0,0.0,0.0,0.0,0,0,0,0,0,1,1,0,0,0
27412869,16.2272,16.2369,92.6173,92.5637,0.0,633.151,0.783459,1.03467,0.0,4,0.0,0.0,0.0,0.0,0.0,0,0,0,0,0,1,1,0,0,0
27424869,16.3548,16.2381,92.5294,92.563,0.0,633.46,0.783912,1.0346,0.0,4,0.0,0.0,0.0,0.0,0.0,0,0,0,0,0,1,1,0,0,0
27437664,16.4314,16.2401,92.5587,92.563,0.0,633.789,0.784655,1.03448,0.0,4,0.0,0.0,0.0,0.0,0.0,0,0,0,0,0,1,1,0,0,0
27509716,16.3165,16.2447,92.5587,92.5609,0.0,635.641,0.78643,1.03418,0.0,4,0.0,0.0,0.0,0.0,0.0,0,0,0,0,0,1,1,0,0,0
27521669,16.1506,16.2437,92.5294,92.5602,0.0,635.948,0.786068,1.03424,0.0,4,0.0,0.0,0.0,0.0,0.0,0,0,0,0,0,1,1,0,0,0
27533746,16.1123,16.2424,92.5294,92.5596,0.0,636.258,0.785563,1.03433,0.0,4,0.0,0.0,0.0,0.0,0.0,0,0,0,0,0,1,1,0,0,0
27545675,16.1633,16.2416,92.6173,92.5608,0.0,636.565,0.785258,1.03438,0.0,4,0.0,0.0,0.0,0.0,0.0,0,0,0,0,0,1,1,0,0,0
27557680,16.0229,16.2394,92.588,92.5613,0.0,636.874,0.784417,1.03452,0.0,4,0.0,0.0,0.0,0.0,0.0,0,0,0,0,0,1,1,0,0,0
27569660,16.2272,16.2393,92.6173,92.5624,0.0,637.182,0.784369,1.03452,0.0,4,0.0,0.0,0.0,0.0,0.0,0,0,0,0,0,1,1,0,0,0
27581657,16.1889,16.2388,92.5294,92.5618,0.0,637.491,0.784175,1.03456,0.0,4,0.0,0.0,0.0,0.0,0.0,0,0,0,0,0,1,1,0,0,0
27593667,16.4187,16.2406,92.5294,92.5611,0.0,637.799,0.784867,1.03444,0.0,4,0.0,0.0,0.0,0.0,0.0,0,0,0,0,0,1,1,0,0,0
27605680,16.4059,16.2423,92.588,92.5617,0.0,638.108,0.785503,1.03434,0.0,4,0.0,0.0,0.0,0.0,0.0,0,0,0,0,0,1,1,0,0,0
27617689,16.2272,16.2421,92.5294,92.561,0.0,638.417,0.785445,1.03435,0.0,4,0.0,0.0,0.0,0.0,0.0,0,0,0,0,0,1,1,0,0,0
27629740,16.2655,16.2423,92.5294,92.5604,0.0,638.727,0.785535,1.03433,0.0,4,0.0,0.0,0.0,0.0,0.0,0,0,0,0,0,1,1,0,0,0
27641727,16.3548,16.2435,92.5294,92.5598,0.0,639.035,0.785968,1.03426,0.0,4,0.0,0.0,0.0,0.0,0.0,0,0,0,0,0,1,1,0,0,0
27653667,16.1761,16.2428,92.5587,92.5598,0.0,639.342,0.785708,1.0343,0.0,4,0.0,0.0,0.0,0.0,0.0,0,0,0,0,0,1,1,0,0,0
27666472,16.2399,16.2428,92.5587,92.5597,0.0,639.671,0.785697,1.0343,0.0,4,0.0,0.0,0.0,0.0,0.0,0,0,0,0,0,1,1,0,0,0
27678460,16.2016,16.2424,92.5001,92.5585,0.0,639.979,0.785539,1.03433,0.0,4,0.0,0.0,0.0,0.0,0.0,0,0,0,0,0,1,1,0,0,0
27690462,16.4187,16.2441,92.5294,92.558,0.0,640.288,0.786216,1.03422,0.0,4,0.0,0.0,0.0,0.0,0.0,0,0,0,0,0,1,1,0,0,0
27702465,16.2016,16.2437,92.5587,92.558,0.0,640.596,0.786053,1.03424,0.0,4,0.0,0.0,0.0,0.0,0.0,0,0,0,0,0,1,1,0,0,0
27738457,16.3421,16.2444,92.588,92.5586,0.0,641.522,0.786305,1.0342,0.0,4,0.0,0.0,0.0,0.0,0.0,0,0,0,0,0,1,1,0,0,0
27750460,16.3804,16.2457,92.5001,92.5574,0.0,641.83,0.786828,1.03412,0.0,4,0.0,0.0,0.0,0.0,0.0,0,0,0,0,0,1,1,0,0,0
27762457,16.3931,16.2472,92.588,92.5581,0.0,642.139,0.787395,1.03402,0.0,4,0.0,0.0,0.0,0.0,0.0,0,0,0,0,0,1,1,0,0,0
27774468,16.1889,16.2466,92.5001,92.5569,0.0,642.447,0.787171,1.03406,0.0,4,0.0,0.0,0.0,0.0,0.0,0,0,0,0,0,1,1,0,0,0
27786474,16.1889,16.246,92.5294,92.5563,0.0,642.756,0.786948,1.0341,0.0,4,0.0,0.0,0.0,0.0,0.0,0,0,0,0,0,1,1,0,0,0
27798481,16.1761,16.2453,92.5587,92.5564,0.0,643.065,0.786678,1.03414,0.0,4,0.0,0.0,0.0,0.0,0.0,0,0,0,0,0,1,1,0,0,0
27810465,16.0357,16.2432,92.5001,92.5553,0.0,643.372,0.785872,1.03427,0.0,4,0.0,0.0,0.0,0.0,0.0,0,0,0,0,0,1,1,0,0,0
27822465,16.1889,16.2427,92.5587,92.5553,0.0,643.681,0.785663,1.03431,0.0,4,0.0,0.0,0.0,0.0,0.0,0,0,0,0,0,1,1,0,0,0
27834461,16.2144,16.2424,92.5294,92.5548,0.0,643.989,0.785554,1.03433,0.0,4,0.0,0.0,0.0,0.0,0.0,0,0,0,0,0,1,1,0,0,0
27846451,16.4187,16.2442,92.5294,92.5543,0.0,644.298,0.786232,1.03422,0.0,4,0.0,0.0,0.0,0.0,0.0,0,0,0,0,0,1,1,0,0,0
27858460,16.2655,16.2444,92.588,92.555,0.0,644.606,0.786314,1.0342,0.0,4,0.0,0.0,0.0,0.0,0.0,0,0,0,0,0,1,1,0,0,0
27871271,16.2655,16.2446,92.5587,92.5551,0.0,644.936,0.786395,1.03419,0.0,4,0.0,0.0,0.0,0.0,0.0,0,0,0,0,0,1,1,0,0,0
27883301,16.0995,16.2431,92.588,92.5557,0.0,645.245,0.785837,1.03428,0.0,4,0.0,0.0,0.0,0.0,0.0,0,0,0,0,0,1,1,0,0,0
27895283,16.1123,16.2418,92.588,92.5564,0.0,645.553,0.785334,1.03436,0.0,4,0.0,0.0,0.0,0.0,0.0,0,0,0,0,0,1,1,0,0,0
27907267,16.1378,16.2408,92.588,92.557,0.0,645.862,0.784933,1.03443,0.0,4,0.0,0.0,0.0,0.0,0.0,0,0,0,0,0,1,1,0,0,0
27967282,16.0995,16.2388,92.5294,92.5555,0.0,647.404,0.784182,1.03455,0.0,4,0.0,0.0,0.0,0.0,0.0,0,0,0,0,0,1,1,0,0,0
27979259,16.2527,16.239,92.5294,92.555,0.0,647.712,0.784235,1.03455,0.0,4,0.0,0.0,0.0,0.0,0.0,0,0,0,0,0,1,1,0,0,0
27991267,16.4059,16.2406,92.588,92.5556,0.0,648.021,0.784877,1.03444,0.0,4,0.0,0.0,0.0,0.0,0.0,0,0,0,0,0,1,1,0,0,0
28003273,16.2272,16.2405,92.588,92.5563,0.0,648.33,0.784825,1.03445,0.0,4,0.0,0.0,0.0,0.0,0.0,0,0,0,0,0,1,1,0,0,0
28015279,16.3804,16.2419,92.588,92.5569,0.0,648.639,0.785362,1.03436,0.0,4,0.0,0.0,0.0,0.0,0.0,0,0,0,0,0,1,1,0,0,0
28027272,16.1633,16.2411,92.588,92.5575,0.0,648.947,0.78506,1.03441,0.0,4,0.0,0.0,0.0,0.0,0.0,0,0,0,0,0,1,1,0,0,0
28039268,16.2144,16.2409,92.588,92.5581,0.0,649.256,0.784957,1.03443,0.0,4,0.0,0.0,0.0,0.0,0.0,0,0,0,0,0,1,1,0,0,0
28051294,16.1889,16.2403,92.5294,92.5576,0.0,649.565,0.784757,1.03446,0.0,4,0.0,0.0,0.0,0.0,0.0,0,0,0,0,0,1,1,0,0,0
28063278,16.125,16.2392,92.588,92.5582,0.0,649.873,0.784313,1.03453,0.0,4,0.0,0.0,0.0,0.0,0.0,0,0,0,0,0,1,1,0,0,0
28075261,16.5974,16.2428,92.5587,92.5582,0.0,650.181,0.785691,1.0343,0.0,4,0.0,0.0,0.0,0.0,0.0,0,0,0,0,0,1,1,0,0,0
28087258,16.1123,16.2415,92.5587,92.5582,0.0,650.489,0.785189,1.03439,0.0,4,0.0,0.0,0.0,0.0,0.0,0,0,0,0,0,1,1,0,0,0
28100071,16.0867,16.2399,92.5587,92.5582,0.0,650.819,0.784595,1.03449,0.0,4,0.0,0.0,0.0,0.0,0.0,0,0,0,0,0,1,1,0,0,0
28112072,16.3676,16.2412,92.5587,92.5582,0.0,651.127,0.785086,1.0344,0.0,4,0.0,0.0,0.0,0.0,0.0,0,0,0,0,0,1,1,0,0,0
28124066,16.4059,16.2428,92.5294,92.5577,0.0,651.436,0.785719,1.0343,0.0,4,0.0,0.0,0.0,0.0,0.0,0,0,0,0,0,1,1,0,0,0
28136068,16.2144,16.2426,92.5294,92.5571,0.0,651.744,0.78561,1.03432,0.0,4,0.0,0.0,0.0,0.0,0.0,0,0,0,0,0,1,1,0,0,0
28148078,15.9718,16.2398,92.5587,92.5571,0.0,652.053,0.784569,1.03449,0.0,4,0.0,0.0,0.0,0.0,0.0,0,0,0,0,0,1,1,0,0,0
28160063,16.1761,16.2392,92.5587,92.5572,0.0,652.361,0.784324,1.03453,0.0,4,0.0,0.0,0.0,0.0,0.0,0,0,0,0,0,1,1,0,0,0
28172065,16.3804,16.2406,92.5587,92.5572,0.0,652.67,0.784866,1.03444,0.0,4,0.0,0.0,0.0,0.0,0.0,0,0,0,0,0,1,1,0,0,0
28208066,16.3038,16.242,92.5294,92.5555,0.0,653.595,0.785392,1.03435,0.0,4,0.0,0.0,0.0,0.0,0.0,0,0,0,0,0,1,1,0,0,0
28220062,16.1378,16.2409,92.5001,92.5544,0.0,653.903,0.784991,1.03442,0.0,4,0.0,0.0,0.0,0.0,0.0,0,0,0,0,0,1,1,0,0,0
28232079,16.0995,16.2395,92.588,92.5551,0.0,654.212,0.784447,1.03451,0.0,4,0.0,0.0,0.0,0.0,0.0,0,0,0,0,0,1,1,0,0,0
28244070,16.3931,16.2411,92.5587,92.5552,0.0,654.521,0.785038,1.03441,0.0,4,0.0,0.0,0.0,0.0,0.0,0,0,0,0,0,1,1,0,0,0
28256064,16.3548,16.2422,92.5294,92.5547,0.0,654.829,0.785475,1.03434,0.0,4,0.0,0.0,0.0,0.0,0.0,0,0,0,0,0,1,1,0,0,0
28268071,16.4059,16.2438,92.588,92.5554,0.0,655.138,0.786105,1.03424,0.0,4,0.0,0.0,0.0,0.0,0.0,0,0,0,0,0,1,1,0,0,0
28280061,16.4187,16.2456,92.5587,92.5554,0.0,655.446,0.786777,1.03412,0.0,4,0.0,0.0,0.0,0.0,0.0,0,0,0,0,0,1,1,0,0,0
28292065,16.0484,16.2436,92.5294,92.5549,0.0,655.754,0.786018,1.03425,0.0,4,0.0,0.0,0.0,0.0,0.0,0,0,0,0,0,1,1,0,0,0
28304858,16.1889,16.2431,92.588,92.5556,0.0,656.083,0.785808,1.03429,0.0,4,0.0,0.0,0.0,0.0,0.0,0,0,0,0,0,1,1,0,0,0
28316872,15.9335,16.24,92.588,92.5562,0.0,656.392,0.784617,1.03448,0.0,4,0.0,0.0,0.0,0.0,0.0,0,0,0,0,0,1,1,0,0,0
28328862,16.2144,16.2397,92.5294,92.5557,0.0,656.701,0.784519,1.0345,0.0,4,0.0,0.0,0.0,0.0,0.0,0,0,0,0,0,1,1,0,0,0
28340867,16.2272,16.2396,92.5587,92.5557,0.0,657.009,0.784471,1.03451,0.0,4,0.0,0.0,0.0,0.0,0.0,0,0,0,0,0,1,1,0,0,0
28352875,16.3931,16.2411,92.588,92.5564,0.0,657.318,0.785061,1.03441,0.0,4,0.0,0.0,0.0,0.0,0.0,0,0,0,0,0,1,1,0,0,0
28364877,16.1633,16.2404,92.5587,92.5564,0.0,657.627,0.784761,1.03446,0.0,4,0.0,0.0,0.0,0.0,0.0,0,0,0,0,0,1,1,0,0,0
28376873,16.2144,16.2401,92.5587,92.5565,0.0,657.935,0.784661,1.03448,0.0,4,0.0,0.0,0.0,0.0,0.0,0,0,0,0,0,1,1,0,0,0
28436860,16.3165,16.2398,92.588,92.5578,0.0,659.478,0.784565,1.03449,0.0,4,0.0,0.0,0.0,0.0,0.0,0,0,0,0,0,1,1,0,0,0
28448864,16.2782,16.2402,92.588,92.5584,0.0,659.786,0.784712,1.03447,0.0,4,0.0,0.0,0.0,0.0,0.0,0,0,0,0,0,1,1,0,0,0
28460882,16.2782,16.2406,92.5587,92.5584,0.0,660.095,0.784858,1.03444,0.0,4,0.0,0.0,0.0,0.0,0.0,0,0,0,0,0,1,1,0,0,0
28472870,16.2144,16.2403,92.588,92.559,0.0,660.404,0.784757,1.03446,0.0,4,0.0,0.0,0.0,0.0,0.0,0,0,0,0,0,1,1,0,0,0
28484874,16.1633,16.2396,92.588,92.5596,0.0,660.712,0.784461,1.03451,0.0,4,0.0,0.0,0.0,0.0,0.0,0,0,0,0,0,1,1,0,0,0
28496878,16.2016,16.2392,92.5587,92.5596,0.0,661.021,0.784315,1.03453,0.0,4,0.0,0.0,0.0,0.0,0.0,0,0,0,0,0,1,1,0,0,0
28508864,16.1889,16.2387,92.5587,92.5596,0.0,661.329,0.784121,1.03456,0.0,4,0.0,0.0,0.0,0.0,0.0,0,0,0,0,0,1,1,0,0,0
28520869,16.2399,16.2387,92.588,92.5602,0.0,661.638,0.784126,1.03456,0.0,4,0.0,0.0,0.0,0.0,0.0,0,0,0,0,0,1,1,0,0,0
28532862,16.2144,16.2385,92.5294,92.5596,0.0,661.946,0.784033,1.03458,0.0,4,0.0,0.0,0.0,0.0,0.0,0,0,0,0,0,1,1,0,0,0
28545662,16.1633,16.2377,92.6173,92.5607,0.0,662.276,0.783744,1.03463,0.0,4,0.0,0.0,0.0,0.0,0.0,0,0,0,0,0,1,1,0,0,0
28557664,15.9846,16.2352,92.5294,92.5601,0.0,662.584,0.782771,1.03479,0.0,4,0.0,0.0,0.0,0.0,0.0,0,0,0,0,0,1,1,0,0,0
28569661,16.3931,16.2368,92.588,92.5606,0.0,662.893,0.783378,1.03469,0.0,4,0.0,0.0,0.0,0.0,0.0,0,0,0,0,0,1,1,0,0,0
28581724,16.1889,16.2363,92.588,92.5612,0.0,663.203,0.783193,1.03472,0.0,4,0.0,0.0,0.0,0.0,0.0,0,0,0,0,0,1,1,0,0,0
28593748,16.1889,16.2358,92.5294,92.5606,0.0,663.512,0.78301,1.03475,0.0,4,0.0,0.0,0.0,0.0,0.0,0,0,0,0,0,1,1,0,0,0
28605674,16.1633,16.2351,92.5294,92.5599,0.0,663.818,0.782732,1.03479,0.0,4,0.0,0.0,0.0,0.0,0.0,0,0,0,0,0,1,1,0,0,0
28617676,16.0484,16.2332,92.5587,92.5599,0.0,664.127,0.782013,1.03491,0.0,4,0.0,0.0,0.0,0.0,0.0,0,0,0,0,0,1,1,0,0,0
28629665,16.0357,16.2312,92.5294,92.5593,0.0,664.435,0.781253,1.03504,0.0,4,0.0,0.0,0.0,0.0,0.0,0,0,0,0,0,1,1,0,0,0
28641658,16.125,16.2302,92.5587,92.5593,0.0,664.743,0.780845,1.03511,0.0,4,0.0,0.0,0.0,0.0,0.0,0,0,0,0,0,1,1,0,0,0
28677693,16.074,16.2272,92.588,92.5598,0.0,665.67,0.779687,1.0353,0.0,4,0.0,0.0,0.0,0.0,0.0,0,0,0,0,0,1,1,0,0,0
28689686,16.3293,16.2282,92.588,92.5604,0.0,665.978,0.78008,1.03523,0.0,4,0.0,0.0,0.0,0.0,0.0,0,0,0,0,0,1,1,0,0,0
28701672,16.1123,16.227,92.5294,92.5598,0.0,666.286,0.779634,1.03531,0.0,4,0.0,0.0,0.0,0.0,0.0,0,0,0,0,0,1,1,0,0,0
28713752,16.2016,16.2268,92.588,92.5604,0.0,666.597,0.779536,1.03532,0.0,4,0.0,0.0,0.0,0.0,0.0,0,0,0,0,0,1,1,0,0,0
28725672,16.1633,16.2261,92.588,92.5609,0.0,666.904,0.779292,1.03537,0.0,4,0.0,0.0,0.0,0.0,0.0,0,0,0,0,0,1,1,0,0,0
28737669,16.2016,16.2259,92.5587,92.5609,0.0,667.212,0.779198,1.03538,0.0,4,0.0,0.0,0.0,0.0,0.0,0,0,0,0,0,1,1,0,0,0
28749650,16.3931,16.2276,92.5294,92.5602,0.0,667.52,0.779841,1.03527,0.0,4,0.0,0.0,0.0,0.0,0.0,0,0,0,0,0,1,1,0,0,0
28762454,16.3548,16.2288,92.5294,92.5596,0.0,667.849,0.780331,1.03519,0.0,4,0.0,0.0,0.0,0.0,0.0,0,0,0,0,0,1,1,0,0,0
28774458,16.3293,16.2298,92.588,92.5602,0.0,668.158,0.780717,1.03513,0.0,4,0.0,0.0,0.0,0.0,0.0,0,0,0,0,0,1,1,0,0,0
28786463,16.4442,16.232,92.5587,92.5602,0.0,668.467,0.781542,1.03499,0.0,4,0.0,0.0,0.0,0.0,0.0,0,0,0,0,0,1,1,0,0,0
28798461,16.3804,16.2335,92.5001,92.559,0.0,668.775,0.782113,1.0349,0.0,4,0.0,0.0,0.0,0.0,0.0,0,0,0,0,0,1,1,0,0,0
28810458,16.2144,16.2333,92.588,92.5595,0.0,669.083,0.782039,1.03491,0.0,4,0.0,0.0,0.0,0.0,0.0,0,0,0,0,0,1,1,0,0,0
28822457,16.4442,16.2354,92.588,92.5601,0.0,669.392,0.782851,1.03478,0.0,4,0.0,0.0,0.0,0.0,0.0,0,0,0,0,0,1,1,0,0,0
28834461,16.1889,16.2349,92.588,92.5607,0.0,669.701,0.782671,1.0348,0.0,4,0.0,0.0,0.0,0.0,0.0,0,0,0,0,0,1,1,0,0,0
28846459,16.1889,16.2345,92.5587,92.5606,0.0,670.009,0.782494,1.03483,0.0,4,0.0,0.0,0.0,0.0,0.0,0,0,0,0,0,1,1,0,0,0
28930460,16.2272,16.2366,92.5587,92.5598,0.0,672.169,0.783329,1.0347,0.0,4,0.0,0.0,0.0,0.0,0.0,0,0,0,0,0,1,1,0,0,0
28942461,16.2016,16.2363,92.5294,92.5592,0.0,672.477,0.783195,1.03472,0.0,4,0.0,0.0,0.0,0.0,0.0,0,0,0,0,0,1,1,0,0,0
28954470,16.3931,16.2379,92.588,92.5598,0.0,672.786,0.783798,1.03462,0.0,4,0.0,0.0,0.0,0.0,0.0,0,0,0,0,0,1,1,0,0,0
28966469,16.3676,16.2392,92.588,92.5604,0.0,673.095,0.784297,1.03454,0.0,4,0.0,0.0,0.0,0.0,0.0,0,0,0,0,0,1,1,0,0,0
28979280,16.1123,16.2379,92.5294,92.5598,0.0,673.424,0.783809,1.03462,0.0,4,0.0,0.0,0.0,0.0,0.0,0,0,0,0,0,1,1,0,0,0
28991271,16.2144,16.2377,92.5294,92.5592,0.0,673.732,0.783719,1.03463,0.0,4,0.0,0.0,0.0,0.0,0.0,0,0,0,0,0,1,1,0,0,0
29003287,16.0357,16.2356,92.588,92.5597,0.0,674.041,0.782941,1.03476,0.0,4,0.0,0.0,0.0,0.0,0.0,0,0,0,0,0,1,1,0,0,0
29015261,16.0995,16.2343,92.588,92.5603,0.0,674.349,0.782418,1.03485,0.0,4,0.0,0.0,0.0,0.0,0.0,0,0,0,0,0,1,1,0,0,0
29027258,16.2016,16.2339,92.588,92.5609,0.0,674.658,0.782292,1.03487,0.0,4,0.0,0.0,0.0,0.0,0.0,0,0,0,0,0,1,1,0,0,0
29039268,16.2527,16.2341,92.588,92.5614,0.0,674.967,0.782364,1.03486,0.0,4,0.0,0.0,0.0,0.0,0.0,0,0,0,0,0,1,1,0,0,0
29051262,16.2016,16.2338,92.5587,92.5613,0.0,675.275,0.782239,1.03488,0.0,4,0.0,0.0,0.0,0.0,0.0,0,0,0,0,0,1,1,0,0,0
29063262,16.1761,16.2332,92.588,92.5619,0.0,675.584,0.782017,1.03491,0.0,4,0.0,0.0,0.0,0.0,0.0,0,0,0,0,0,1,1,0,0,0
29075262,16.1761,16.2327,92.5294,92.5612,0.0,675.892,0.781798,1.03495,0.0,4,0.0,0.0,0.0,0.0,0.0,0,0,0,0,0,1,1,0,0,0
29087286,16.2144,16.2325,92.5294,92.5606,0.0,676.201,0.781727,1.03496,0.0,4,0.0,0.0,0.0,0.0,0.0,0,0,0,0,0,1,1,0,0,0
29099271,16.3676,16.2338,92.588,92.5611,0.0,676.509,0.782248,1.03488,0.0,4,0.0,0.0,0.0,0.0,0.0,0,0,0,0,0,1,1,0,0,0
29111276,16.2016,16.2335,92.588,92.5617,0.0,676.818,0.782124,1.0349,0.0,4,0.0,0.0,0.0,0.0,0.0,0,0,0,0,0,1,1,0,0,0
29123284,16.4187,16.2354,92.5294,92.561,0.0,677.127,0.782836,1.03478,0.0,4,0.0,0.0,0.0,0.0,0.0,0,0,0,0,0,1,1,0,0,0
29147265,16.2655,16.2361,92.588,92.5627,0.0,677.744,0.783115,1.03473,0.0,4,0.0,0.0,0.0,0.0,0.0,0,0,0,0,0,1,1,0,0,0
29159263,16.2016,16.2357,92.5587,92.5626,0.0,678.052,0.782982,1.03475,0.0,4,0.0,0.0,0.0,0.0,0.0,0,0,0,0,0,1,1,0,0,0
29171282,16.2016,16.2354,92.5294,92.562,0.0,678.361,0.782851,1.03478,0.0,4,0.0,0.0,0.0,0.0,0.0,0,0,0,0,0,1,1,0,0,0
29183259,16.2144,16.2352,92.588,92.5625,0.0,678.669,0.78277,1.03479,0.0,4,0.0,0.0,0.0,0.0,0.0,0,0,0,0,0,1,1,0,0,0
29196062,16.2016,16.2349,92.5294,92.5618,0.0,678.998,0.782641,1.03481,0.0,4,0.0,0.0,0.0,0.0,0.0,0,0,0,0,0,1,1,0,0,0
29208060,16.4059,16.2366,92.5294,92.5612,0.0,679.306,0.783299,1.0347,0.0,4,0.0,0.0,0.0,0.0,0.0,0,0,0,0,0,1,1,0,0,0
29220078,16.2399,16.2366,92.5001,92.56,0.0,679.615,0.783312,1.0347,0.0,4,0.0,0.0,0.0,0.0,0.0,0,0,0,0,0,1,1,0,0,0
29232071,16.3676,16.2379,92.5587,92.5599,0.0,679.924,0.783816,1.03462,0.0,4,0.0,0.0,0.0,0.0,0.0,0,0,0,0,0,1,1,0,0,0
29244069,16.0995,16.2365,92.5294,92.5593,0.0,680.232,0.783283,1.0347,0.0,4,0.0,0.0,0.0,0.0,0.0,0,0,0,0,0,1,1,0,0,0
29256068,16.3038,16.2372,92.5294,92.5587,0.0,680.54,0.783542,1.03466,0.0,4,0.0,0.0,0.0,0.0,0.0,0,0,0,0,0,1,1,0,0,0
29268069,16.1889,16.2367,92.588,92.5593,0.0,680.849,0.783357,1.03469,0.0,4,0.0,0.0,0.0,0.0,0.0,0,0,0,0,0,1,1,0,0,0
29280066,16.3676,16.238,92.588,92.5599,0.0,681.158,0.78386,1.03461,0.0,4,0.0,0.0,0.0,0.0,0.0,0,0,0,0,0,1,1,0,0,0
29292062,16.2144,16.2378,92.588,92.5604,0.0,681.466,0.783769,1.03462,0.0,4,0.0,0.0,0.0,0.0,0.0,0,0,0,0,0,1,1,0,0,0
29304071,16.2399,16.2378,92.5587,92.5604,0.0,681.775,0.783777,1.03462,0.0,4,0.0,0.0,0.0,0.0,0.0,0,0,0,0,0,1,1,0,0,0
29316077,16.4314,16.2397,92.5294,92.5598,0.0,682.083,0.784522,1.0345,0.0,4,0.0,0.0,0.0,0.0,0.0,0,0,0,0,0,1,1,0,0,0
29412866,16.2016,16.2429,92.4708,92.5547,0.0,684.571,0.785744,1.0343,0.0,4,0.0,0.0,0.0,0.0,0.0,0,0,0,0,0,1,1,0,0,0
29424860,16.4697,16.2452,92.5294,92.5542,0.0,684.879,0.786616,1.03415,0.0,4,0.0,0.0,0.0,0.0,0.0,0,0,0,0,0,1,1,0,0,0
29436868,16.2016,16.2448,92.5294,92.5537,0.0,685.188,0.786449,1.03418,0.0,4,0.0,0.0,0.0,0.0,0.0,0,0,0,0,0,1,1,0,0,0
29448873,16.3421,16.2457,92.5587,92.5538,0.0,685.497,0.786823,1.03412,0.0,4,0.0,0.0,0.0,0.0,0.0,0,0,0,0,0,1,1,0,0,0
29460884,16.1761,16.245,92.588,92.5545,0.0,685.805,0.786555,1.03416,0.0,4,0.0,0.0,0.0,0.0,0.0,0,0,0,0,0,1,1,0,0,0
29472872,16.2272,16.2449,92.5587,92.5546,0.0,686.114,0.786486,1.03417,0.0,4,0.0,0.0,0.0,0.0,0.0,0,0,0,0,0,1,1,0,0,0
29484867,16.3293,16.2457,92.5294,92.5541,0.0,686.422,0.786811,1.03412,0.0,4,0.0,0.0,0.0,0.0,0.0,0,0,0,0,0,1,1,0,0,0
29496873,16.125,16.2445,92.588,92.5548,0.0,686.731,0.786347,1.0342,0.0,4,0.0,0.0,0.0,0.0,0.0,0,0,0,0,0,1,1,0,0,0
29508874,16.1889,16.2439,92.5294,92.5543,0.0,687.039,0.786133,1.03423,0.0,4,0.0,0.0,0.0,0.0,0.0,0,0,0,0,0,1,1,0,0,0
29520862,16.2399,16.2439,92.5294,92.5538,0.0,687.347,0.786117,1.03423,0.0,4,0.0,0.0,0.0,0.0,0.0,0,0,0,0,0,1,1,0,0,0
29532878,16.0612,16.2421,92.5294,92.5533,0.0,687.656,0.785415,1.03435,0.0,4,0.0,0.0,0.0,0.0,0.0,0,0,0,0,0,1,1,0,0,0
29544861,16.2655,16.2423,92.5294,92.5528,0.0,687.964,0.785505,1.03434,0.0,4,0.0,0.0,0.0,0.0,0.0,0,0,0,0,0,1,1,0,0,0
29556860,16.1889,16.2418,92.5587,92.5529,0.0,688.273,0.785299,1.03437,0.0,4,0.0,0.0,0.0,0.0,0.0,0,0,0,0,0,1,1,0,0,0
29568863,16.3804,16.2432,92.588,92.5536,0.0,688.581,0.785832,1.03428,0.0,4,0.0,0.0,0.0,0.0,0.0,0,0,0,0,0,1,1,0,0,0
29580858,16.3165,16.2439,92.5294,92.5531,0.0,688.89,0.786115,1.03423,0.0,4,0.0,0.0,0.0,0.0,0.0,0,0,0,0,0,1,1,0,0,0
29592864,16.2527,16.244,92.5587,92.5533,0.0,689.198,0.786149,1.03423,0.0,4,0.0,0.0,0.0,0.0,0.0,0,0,0,0,0,1,1,0,0,0
29604869,16.1761,16.2433,92.6173,92.5545,0.0,689.507,0.785887,1.03427,0.0,4,0.0,0.0,0.0,0.0,0.0,0,0,0,0,0,1,1,0,0,0
29641674,16.5336,16.2455,92.5587,92.5554,0.0,690.454,0.786736,1.03413,0.0,4,0.0,0.0,0.0,0.0,0.0,0,0,0,0,0,1,1,0,0,0
29653666,16.3804,16.2469,92.5294,92.5548,0.0,690.762,0.787255,1.03405,0.0,4,0.0,0.0,0.0,0.0,0.0,0,0,0,0,0,1,1,0,0,0
29665706,16.4187,16.2486,92.5587,92.5549,0.0,691.071,0.787916,1.03394,0.0,4,0.0,0.0,0.0,0.0,0.0,0,0,0,0,0,1,1,0,0,0
29677660,16.2399,16.2485,92.5294,92.5544,0.0,691.379,0.787883,1.03394,0.0,4,0.0,0.0,0.0,0.0,0.0,0,0,0,0,0,1,1,0,0,0
29689672,16.2144,16.2481,92.588,92.5551,0.0,691.688,0.787752,1.03396,0.0,4,0.0,0.0,0.0,0.0,0.0,0,0,0,0,0,1,1,0,0,0
29701658,16.2016,16.2477,92.5587,92.5552,0.0,691.996,0.787573,1.03399,0.0,4,0.0,0.0,0.0,0.0,0.0,0,0,0,0,0,1,1,0,0,0
29713667,16.074,16.2459,92.588,92.5558,0.0,692.305,0.786904,1.0341,0.0,4,0.0,0.0,0.0,0.0,0.0,0,0,0,0,0,1,1,0,0,0
29725690,16.2527,16.246,92.5294,92.5553,0.0,692.614,0.78693,1.0341,0.0,4,0.0,0.0,0.0,0.0,0.0,0,0,0,0,0,1,1,0,0,0
29737671,16.3931,16.2475,92.5001,92.5542,0.0,692.922,0.787496,1.03401,0.0,4,0.0,0.0,0.0,0.0,0.0,0,0,0,0,0,1,1,0,0,0
29749669,16.4187,16.2492,92.5001,92.5531,0.0,693.23,0.788155,1.0339,0.0,4,0.0,0.0,0.0,0.0,0.0,0,0,0,0,0,1,1,0,0,0
29761671,16.2272,16.249,92.5587,92.5532,0.0,693.538,0.78807,1.03391,0.0,4,0.0,0.0,0.0,0.0,0.0,0,0,0,0,0,1,1,0,0,0
29773764,16.3676,16.2502,92.588,92.5539,0.0,693.849,0.788527,1.03384,0.0,4,0.0,0.0,0.0,0.0,0.0,0,0,0,0,0,1,1,0,0,0
29785660,16.074,16.2484,92.588,92.5546,0.0,694.155,0.787848,1.03395,0.0,4,0.0,0.0,0.0,0.0,0.0,0,0,0,0,0,1,1,0,0,0
29797723,16.3676,16.2496,92.588,92.5553,0.0,694.466,0.788307,1.03387,0.0,4,0.0,0.0,0.0,0.0,0.0,0,0,0,0,0,1,1,0,0,0
29809661,16.3804,16.2509,92.5001,92.5542,0.0,694.772,0.78881,1.03379,0.0,4,0.0,0.0,0.0,0.0,0.0,0,0,0,0,0,1,1,0,0,0
29894461,16.3804,16.2545,92.5294,92.5542,0.0,696.953,0.790204,1.03356,0.0,4,0.0,0.0,0.0,0.0,0.0,0,0,0,0,0,1,1,0,0,0
29906467,16.2782,16.2548,92.5587,92.5543,0.0,697.261,0.790294,1.03354,0.0,4,0.0,0.0,0.0,0.0,0.0,0,0,0,0,0,1,1,0,0,0
29918460,16.2016,16.2542,92.588,92.555,0.0,697.57,0.79009,1.03358,0.0,4,0.0,0.0,0.0,0.0,0.0,0,0,0,0,0,1,1,0,0,0
29930462,16.4187,16.2559,92.588,92.5557,0.0,697.878,0.790722,1.03347,0.0,4,0.0,0.0,0.0,0.0,0.0,0,0,0,0,0,1,1,0,0,0
29942462,16.0357,16.2537,92.5587,92.5557,0.0,698.187,0.789876,1.03361,0.0,4,0.0,0.0,0.0,0.0,0.0,0,0,0,0,0,1,1,0,0,0
29954461,16.0484,16.2516,92.5294,92.5552,0.0,698.495,0.789086,1.03374,0.0,4,0.0,0.0,0.0,0.0,0.0,0,0,0,0,0,1,1,0,0,0
29966457,16.3804,16.2529,92.5587,92.5553,0.0,698.804,0.789581,1.03366,0.0,4,0.0,0.0,0.0,0.0,0.0,0,0,0,0,0,1,1,0,0,0
29978459,16.3676,16.2541,92.5294,92.5547,0.0,699.112,0.790022,1.03359,0.0,4,0.0,0.0,0.0,0.0,0.0,0,0,0,0,0,1,1,0,0,0
29990483,16.457,16.2561,92.5294,92.5542,0.0,699.421,0.790803,1.03346,0.0,4,0.0,0.0,0.0,0.0,0.0,0,0,0,0,0,1,1,0,0,0
30002471,16.3804,16.2573,92.5294,92.5537,0.0,699.729,0.791281,1.03338,0.0,4,0.0,0.0,0.0,0.0,0.0,0,0,0,0,0,1,1,0,0,0
30014468,16.2272,16.257,92.4708,92.5521,0.0,700.037,0.791165,1.0334,0.0,4,0.0,0.0,0.0,0.0,0.0,0,0,0,0,0,1,1,0,0,0
30026463,16.291,16.2574,92.588,92.5528,0.0,700.346,0.791296,1.03338,0.0,4,0.0,0.0,0.0,0.0,0.0,0,0,0,0,0,1,1,0,0,0
30038460,16.1633,16.2564,92.5294,92.5523,0.0,700.654,0.790934,1.03344,0.0,4,0.0,0.0,0.0,0.0,0.0,0,0,0,0,0,1,1,0,0,0
30050461,16.1761,16.2556,92.5294,92.5519,0.0,700.963,0.790625,1.03349,0.0,4,0.0,0.0,0.0,0.0,0.0,0,0,0,0,0,1,1,0,0,0
30062461,15.9335,16.2524,92.5587,92.552,0.0,701.271,0.789386,1.03369,0.0,4,0.0,0.0,0.0,0.0,0.0,0,0,0,0,0,1,1,0,0,0
30075278,16.1889,16.2518,92.5587,92.5522,0.0,701.601,0.789142,1.03373,0.0,4,0.0,0.0,0.0,0.0,0.0,0,0,0,0,0,1,1,0,0,0
30087271,16.2527,16.2518,92.588,92.5529,0.0,701.909,0.789145,1.03373,0.0,4,0.0,0.0,0.0,0.0,0.0,0,0,0,0,0,1,1,0,0,0
30111274,16.2144,16.2524,92.5294,92.5508,0.0,702.526,0.789394,1.03369,0.0,4,0.0,0.0,0.0,0.0,0.0,0,0,0,0,0,1,1,0,0,0
30123280,16.2655,16.2525,92.588,92.5516,0.0,702.835,0.789444,1.03368,0.0,4,0.0,0.0,0.0,0.0,0.0,0,0,0,0,0,1,1,0,0,0
30135272,16.1761,16.2518,92.5294,92.5511,0.0,703.143,0.78915,1.03373,0.0,4,0.0,0.0,0.0,0.0,0.0,0,0,0,0,0,1,1,0,0,0
30147260,16.1889,16.2512,92.5294,92.5507,0.0,703.451,0.788908,1.03377,0.0,4,0.0,0.0,0.0,0.0,0.0,0,0,0,0,0,1,1,0,0,0
30159276,16.2016,16.2507,92.588,92.5514,0.0,703.76,0.788717,1.0338,0.0,4,0.0,0.0,0.0,0.0,0.0,0,0,0,0,0,1,1,0,0,0
30171269,16.0101,16.2483,92.5587,92.5516,0.0,704.068,0.787792,1.03396,0.0,4,0.0,0.0,0.0,0.0,0.0,0,0,0,0,0,1,1,0,0,0
30183267,16.2527,16.2483,92.588,92.5523,0.0,704.377,0.787809,1.03395,0.0,4,0.0,0.0,0.0,0.0,0.0,0,0,0,0,0,1,1,0,0,0
30195257,16.2144,16.248,92.5587,92.5524,0.0,704.685,0.787678,1.03398,0.0,4,0.0,0.0,0.0,0.0,0.0,0,0,0,0,0,1,1,0,0,0
30207298,16.3804,16.2493,92.5587,92.5526,0.0,704.995,0.788188,1.03389,0.0,4,0.0,0.0,0.0,0.0,0.0,0,0,0,0,0,1,1,0,0,0
30219274,16.4314,16.2511,92.5294,92.5521,0.0,705.303,0.788888,1.03378,0.0,4,0.0,0.0,0.0,0.0,0.0,0,0,0,0,0,1,1,0,0,0
30231272,16.0357,16.2489,92.588,92.5528,0.0,705.611,0.78806,1.03391,0.0,4,0.0,0.0,0.0,0.0,0.0,0,0,0,0,0,1,1,0,0,0
30243279,16.3293,16.2498,92.588,92.5535,0.0,705.92,0.788369,1.03386,0.0,4,0.0,0.0,0.0,0.0,0.0,0,0,0,0,0,1,1,0,0,0
30255270,16.2782,16.25,92.588,92.5542,0.0,706.228,0.788478,1.03384,0.0,4,0.0,0.0,0.0,0.0,0.0,0,0,0,0,0,1,1,0,0,0
30267273,16.3421,16.251,92.5587,92.5543,0.0,706.537,0.788832,1.03378,0.0,4,0.0,0.0,0.0,0.0,0.0,0,0,0,0,0,1,1,0,0,0
30279273,16.2655,16.2511,92.588,92.555,0.0,706.846,0.788888,1.03378,0.0,4,0.0,0.0,0.0,0.0,0.0,0,0,0,0,0,1,1,0,0,0
30364070,16.3931,16.2534,92.5294,92.5522,0.0,709.025,0.789757,1.03363,0.0,4,0.0,0.0,0.0,0.0,0.0,0,0,0,0,0,1,1,0,0,0
30376082,16.1889,16.2527,92.588,92.5529,0.0,709.334,0.789509,1.03367,0.0,4,0.0,0.0,0.0,0.0,0.0,0,0,0,0,0,1,1,0,0,0
30388068,16.1123,16.2513,92.5587,92.553,0.0,709.642,0.788969,1.03376,0.0,4,0.0,0.0,0.0,0.0,0.0,0,0,0,0,0,1,1,0,0,0
30400072,15.908,16.2479,92.5001,92.5519,0.0,709.951,0.787648,1.03398,0.0,4,0.0,0.0,0.0,0.0,0.0,0,0,0,0,0,1,1,0,0,0
30412061,16.291,16.2483,92.5587,92.5521,0.0,710.259,0.787814,1.03395,0.0,4,0.0,0.0,0.0,0.0,0.0,0,0,0,0,0,1,1,0,0,0
30424072,16.1378,16.2472,92.5294,92.5516,0.0,710.568,0.787389,1.03402,0.0,4,0.0,0.0,0.0,0.0,0.0,0,0,0,0,0,1,1,0,0,0
30436061,16.1378,16.2461,92.588,92.5524,0.0,710.876,0.786968,1.03409,0.0,4,0.0,0.0,0.0,0.0,0.0,0,0,0,0,0,1,1,0,0,0
30448062,16.3548,16.2472,92.588,92.5531,0.0,711.185,0.787386,1.03402,0.0,4,0.0,0.0,0.0,0.0,0.0,0,0,0,0,0,1,1,0,0,0
30460058,16.1123,16.2459,92.5001,92.552,0.0,711.493,0.786868,1.03411,0.0,4,0.0,0.0,0.0,0.0,0.0,0,0,0,0,0,1,1,0,0,0
30472057,16.0995,16.2444,92.588,92.5527,0.0,711.802,0.786305,1.0342,0.0,4,0.0,0.0,0.0,0.0,0.0,0,0,0,0,0,1,1,0,0,0
30484069,16.3804,16.2457,92.5587,92.5529,0.0,712.11,0.786828,1.03412,0.0,4,0.0,0.0,0.0,0.0,0.0,0,0,0,0,0,1,1,0,0,0
30496061,16.1506,16.2448,92.5294,92.5524,0.0,712.419,0.786462,1.03418,0.0,4,0.0,0.0,0.0,0.0,0.0,0,0,0,0,0,1,1,0,0,0
30508074,16.2144,16.2445,92.588,92.5531,0.0,712.728,0.786345,1.0342,0.0,4,0.0,0.0,0.0,0.0,0.0,0,0,0,0,0,1,1,0,0,0
30520875,16.3421,16.2455,92.588,92.5538,0.0,713.057,0.786721,1.03413,0.0,4,0.0,0.0,0.0,0.0,0.0,0,0,0,0,0,1,1,0,0,0
30532874,16.2144,16.2452,92.5587,92.5539,0.0,713.365,0.786602,1.03415,0.0,4,0.0,0.0,0.0,0.0,0.0,0,0,0,0,0,1,1,0,0,0
30544892,16.1633,16.2443,92.588,92.5546,0.0,713.674,0.786287,1.03421,0.0,4,0.0,0.0,0.0,0.0,0.0,0,0,0,0,0,1,1,0,0,0
30556878,16.2144,16.244,92.588,92.5553,0.0,713.983,0.786171,1.03423,0.0,4,0.0,0.0,0.0,0.0,0.0,0,0,0,0,0,1,1,0,0,0
30592860,16.5463,16.2464,92.588,92.5566,0.0,714.908,0.787061,1.03408,0.0,4,0.0,0.0,0.0,0.0,0.0,0,0,0,0,0,1,1,0,0,0
30604859,16.1633,16.2455,92.5294,92.5561,0.0,715.216,0.786742,1.03413,0.0,4,0.0,0.0,0.0,0.0,0.0,0,0,0,0,0,1,1,0,0,0
30616861,16.2144,16.2452,92.5294,92.5555,0.0,715.525,0.786623,1.03415,0.0,4,0.0,0.0,0.0,0.0,0.0,0,0,0,0,0,1,1,0,0,0
30628878,16.2399,16.2452,92.5001,92.5544,0.0,715.834,0.786602,1.03415,0.0,4,0.0,0.0,0.0,0.0,0.0,0,0,0,0,0,1,1,0,0,0
30640883,16.0484,16.2432,92.6173,92.5557,0.0,716.143,0.785846,1.03428,0.0,4,0.0,0.0,0.0,0.0,0.0,0,0,0,0,0,1,1,0,0,0
30652874,16.1378,16.2421,92.5587,92.5558,0.0,716.451,0.78544,1.03435,0.0,4,0.0,0.0,0.0,0.0,0.0,0,0,0,0,0,1,1,0,0,0
30664868,16.1633,16.2414,92.5587,92.5558,0.0,716.759,0.785137,1.0344,0.0,4,0.0,0.0,0.0,0.0,0.0,0,0,0,0,0,1,1,0,0,0
30676862,16.3165,16.2421,92.5587,92.5559,0.0,717.068,0.785426,1.03435,0.0,4,0.0,0.0,0.0,0.0,0.0,0,0,0,0,0,1,1,0,0,0
30688864,16.3931,16.2436,92.5587,92.5559,0.0,717.376,0.786007,1.03425,0.0,4,0.0,0.0,0.0,0.0,0.0,0,0,0,0,0,1,1,0,0,0
30700863,16.3804,16.245,92.588,92.5566,0.0,717.685,0.786533,1.03417,0.0,4,0.0,0.0,0.0,0.0,0.0,0,0,0,0,0,1,1,0,0,0
30712862,16.2144,16.2447,92.5587,92.5566,0.0,717.993,0.786416,1.03418,0.0,4,0.0,0.0,0.0,0.0,0.0,0,0,0,0,0,1,1,0,0,0
30724860,16.0357,16.2426,92.5001,92.5555,0.0,718.302,0.785612,1.03432,0.0,4,0.0,0.0,0.0,0.0,0.0,0,0,0,0,0,1,1,0,0,0
30737696,16.2144,16.2423,92.588,92.5562,0.0,718.632,0.785503,1.03434,0.0,4,0.0,0.0,0.0,0.0,0.0,0,0,0,0,0,1,1,0,0,0
30749705,16.291,16.2428,92.5587,92.5562,0.0,718.94,0.78569,1.0343,0.0,4,0.0,0.0,0.0,0.0,0.0,0,0,0,0,0,1,1,0,0,0
30761740,16.2144,16.2425,92.5587,92.5563,0.0,719.25,0.785581,1.03432,0.0,4,0.0,0.0,0.0,0.0,0.0,0,0,0,0,0,1,1,0,0,0
30833667,16.2272,16.2456,92.5587,92.5555,0.0,721.099,0.786768,1.03413,0.0,4,0.0,0.0,0.0,0.0,0.0,0,0,0,0,0,1,1,0,0,0
30845660,16.1761,16.2449,92.5587,92.5555,0.0,721.407,0.786501,1.03417,0.0,4,0.0,0.0,0.0,0.0,0.0,0,0,0,0,0,1,1,0,0,0
30857700,16.3931,16.2464,92.5294,92.555,0.0,721.717,0.787071,1.03408,0.0,4,0.0,0.0,0.0,0.0,0.0,0,0,0,0,0,1,1,0,0,0
30869698,15.9718,16.2436,92.5587,92.5551,0.0,722.025,0.786016,1.03425,0.0,4,0.0,0.0,0.0,0.0,0.0,0,0,0,0,0,1,1,0,0,0
30881670,16.2782,16.244,92.5294,92.5546,0.0,722.333,0.786148,1.03423,0.0,4,0.0,0.0,0.0,0.0,0.0,0,0,0,0,0,1,1,0,0,0
30893754,16.1889,16.2434,92.5587,92.5546,0.0,722.644,0.785936,1.03426,0.0,4,0.0,0.0,0.0,0.0,0.0,0,0,0,0,0,1,1,0,0,0
30905717,16.1506,16.2425,92.588,92.5553,0.0,722.951,0.785579,1.03432,0.0,4,0.0,0.0,0.0,0.0,0.0,0,0,0,0,0,1,1,0,0,0
30917678,16.1633,16.2417,92.5294,92.5548,0.0,723.259,0.785274,1.03437,0.0,4,0.0,0.0,0.0,0.0,0.0,0,0,0,0,0,1,1,0,0,0
30929659,16.2144,16.2414,92.588,92.5555,0.0,723.567,0.785169,1.03439,0.0,4,0.0,0.0,0.0,0.0,0.0,0,0,0,0,0,1,1,0,0,0
30941705,16.3421,16.2424,92.5294,92.5549,0.0,723.877,0.785556,1.03433,0.0,4,0.0,0.0,0.0,0.0,0.0,0,0,0,0,0,1,1,0,0,0
30954460,16.3931,16.2439,92.588,92.5556,0.0,724.205,0.786136,1.03423,0.0,4,0.0,0.0,0.0,0.0,0.0,0,0,0,0,0,1,1,0,0,0
30966461,16.1633,16.2431,92.588,92.5563,0.0,724.513,0.785825,1.03428,0.0,4,0.0,0.0,0.0,0.0,0.0,0,0,0,0,0,1,1,0,0,0
30978459,16.2527,16.2432,92.588,92.5569,0.0,724.822,0.785862,1.03428,0.0,4,0.0,0.0,0.0,0.0,0.0,0,0,0,0,0,1,1,0,0,0
30990469,16.1506,16.2423,92.5294,92.5563,0.0,725.131,0.785505,1.03434,0.0,4,0.0,0.0,0.0,0.0,0.0,0,0,0,0,0,1,1,0,0,0
31002458,16.3804,16.2437,92.5294,92.5558,0.0,725.439,0.786036,1.03425,0.0,4,0.0,0.0,0.0,0.0,0.0,0,0,0,0,0,1,1,0,0,0
31014480,16.2655,16.2439,92.588,92.5565,0.0,725.748,0.78612,1.03423,0.0,4,0.0,0.0,0.0,0.0,0.0,0,0,0,0,0,1,1,0,0,0
31026475,16.2399,16.2439,92.5001,92.5553,0.0,726.056,0.786105,1.03424,0.0,4,0.0,0.0,0.0,0.0,0.0,0,0,0,0,0,1,1,0,0,0
31050464,16.4187,16.2446,92.5001,92.5543,0.0,726.673,0.786373,1.03419,0.0,4,0.0,0.0,0.0,0.0,0.0,0,0,0,0,0,1,1,0,0,0
31062469,16.0357,16.2425,92.588,92.555,0.0,726.982,0.78557,1.03432,0.0,4,0.0,0.0,0.0,0.0,0.0,0,0,0,0,0,1,1,0,0,0
31074458,16.4314,16.2444,92.5587,92.555,0.0,727.29,0.786297,1.0342,0.0,4,0.0,0.0,0.0,0.0,0.0,0,0,0,0,0,1,1,0,0,0
31086464,16.2272,16.2442,92.5294,92.5545,0.0,727.598,0.786231,1.03422,0.0,4,0.0,0.0,0.0,0.0,0.0,0,0,0,0,0,1,1,0,0,0
31098465,16.1633,16.2434,92.5587,92.5546,0.0,727.907,0.78592,1.03427,0.0,4,0.0,0.0,0.0,0.0,0.0,0,0,0,0,0,1,1,0,0,0
31110478,16.3293,16.2442,92.5294,92.5541,0.0,728.216,0.78625,1.03421,0.0,4,0.0,0.0,0.0,0.0,0.0,0,0,0,0,0,1,1,0,0,0
31122476,16.0612,16.2424,92.5294,92.5536,0.0,728.524,0.785546,1.03433,0.0,4,0.0,0.0,0.0,0.0,0.0,0,0,0,0,0,1,1,0,0,0
31134458,16.0995,16.241,92.5294,92.5531,0.0,728.832,0.784997,1.03442,0.0,4,0.0,0.0,0.0,0.0,0.0,0,0,0,0,0,1,1,0,0,0
31146460,16.1123,16.2397,92.588,92.5538,0.0,729.141,0.784501,1.0345,0.0,4,0.0,0.0,0.0,0.0,0.0,0,0,0,0,0,1,1,0,0,0
31158462,16.2144,16.2394,92.588,92.5545,0.0,729.449,0.784404,1.03452,0.0,4,0.0,0.0,0.0,0.0,0.0,0,0,0,0,0,1,1,0,0,0
31170468,16.2016,16.2391,92.5294,92.554,0.0,729.758,0.784258,1.03454,0.0,4,0.0,0.0,0.0,0.0,0.0,0,0,0,0,0,1,1,0,0,0
31183283,16.2016,16.2387,92.5294,92.5535,0.0,730.087,0.784114,1.03457,0.0,4,0.0,0.0,0.0,0.0,0.0,0,0,0,0,0,1,1,0,0,0
31195269,15.9974,16.2363,92.588,92.5542,0.0,730.396,0.783186,1.03472,0.0,4,0.0,0.0,0.0,0.0,0.0,0,0,0,0,0,1,1,0,0,0
31207268,16.125,16.2352,92.588,92.5549,0.0,730.704,0.782759,1.03479,0.0,4,0.0,0.0,0.0,0.0,0.0,0,0,0,0,0,1,1,0,0,0
31219287,16.3293,16.2361,92.588,92.5556,0.0,731.013,0.783121,1.03473,0.0,4,0.0,0.0,0.0,0.0,0.0,0,0,0,0,0,1,1,0,0,0
31291273,16.3804,16.2384,92.5587,92.5554,0.0,732.864,0.783988,1.03459,0.0,4,0.0,0.0,0.0,0.0,0.0,0,0,0,0,0,1,1,0,0,0
31303280,16.3421,16.2394,92.588,92.556,0.0,733.173,0.784387,1.03452,0.0,4,0.0,0.0,0.0,0.0,0.0,0,0,0,0,0,1,1,0,0,0
31315269,15.9846,16.2369,92.5587,92.5561,0.0,733.481,0.783407,1.03468,0.0,4,0.0,0.0,0.0,0.0,0.0,0,0,0,0,0,1,1,0,0,0
31327288,16.0995,16.2355,92.5587,92.5561,0.0,733.79,0.782878,1.03477,0.0,4,0.0,0.0,0.0,0.0,0.0,0,0,0,0,0,1,1,0,0,0
31339257,16.1761,16.2349,92.588,92.5568,0.0,734.098,0.78265,1.03481,0.0,4,0.0,0.0,0.0,0.0,0.0,0,0,0,0,0,1,1,0,0,0
31351257,16.1889,16.2344,92.5587,92.5568,0.0,734.406,0.782474,1.03484,0.0,4,0.0,0.0,0.0,0.0,0.0,0,0,0,0,0,1,1,0,0,0
31363261,16.1506,16.2336,92.5294,92.5563,0.0,734.715,0.782151,1.03489,0.0,4,0.0,0.0,0.0,0.0,0.0,0,0,0,0,0,1,1,0,0,0
31375259,16.1889,16.2331,92.5587,92.5563,0.0,735.023,0.781979,1.03492,0.0,4,0.0,0.0,0.0,0.0,0.0,0,0,0,0,0,1,1,0,0,0
31387261,16.2016,16.2328,92.588,92.557,0.0,735.332,0.781858,1.03494,0.0,4,0.0,0.0,0.0,0.0,0.0,0,0,0,0,0,1,1,0,0,0
31400079,16.2144,16.2326,92.588,92.5576,0.0,735.662,0.781787,1.03495,0.0,4,0.0,0.0,0.0,0.0,0.0,0,0,0,0,0,1,1,0,0,0
31412064,16.4187,16.2345,92.588,92.5582,0.0,735.97,0.782502,1.03483,0.0,4,0.0,0.0,0.0,0.0,0.0,0,0,0,0,0,1,1,0,0,0
31424071,16.2144,16.2343,92.5294,92.5576,0.0,736.279,0.782425,1.03485,0.0,4,0.0,0.0,0.0,0.0,0.0,0,0,0,0,0,1,1,0,0,0
31436085,16.2527,16.2345,92.588,92.5582,0.0,736.588,0.782496,1.03483,0.0,4,0.0,0.0,0.0,0.0,0.0,0,0,0,0,0,1,1,0,0,0
31448059,16.0995,16.2331,92.588,92.5588,0.0,736.896,0.781977,1.03492,0.0,4,0.0,0.0,0.0,0.0,0.0,0,0,0,0,0,1,1,0,0,0
31460072,16.1506,16.2323,92.5587,92.5588,0.0,737.204,0.781659,1.03497,0.0,4,0.0,0.0,0.0,0.0,0.0,0,0,0,0,0,1,1,0,0,0
31472058,16.2016,16.232,92.5294,92.5582,0.0,737.512,0.781541,1.03499,0.0,4,0.0,0.0,0.0,0.0,0.0,0,0,0,0,0,1,1,0,0,0
31484067,16.1761,16.2314,92.5294,92.5577,0.0,737.821,0.781326,1.03503,0.0,4,0.0,0.0,0.0,0.0,0.0,0,0,0,0,0,1,1,0,0,0
31508061,16.2272,16.2307,92.588,92.5589,0.0,738.438,0.78105,1.03507,0.0,4,0.0,0.0,0.0,0.0,0.0,0,0,0,0,0,1,1,0,0,0
31520063,16.1506,16.2299,92.588,92.5595,0.0,738.747,0.780742,1.03512,0.0,4,0.0,0.0,0.0,0.0,0.0,0,0,0,0,0,1,1,0,0,0
31532057,16.074,16.2284,92.5587,92.5594,0.0,739.055,0.780142,1.03522,0.0,4,0.0,0.0,0.0,0.0,0.0,0,0,0,0,0,1,1,0,0,0
31544075,16.1889,16.228,92.5587,92.5594,0.0,739.364,0.77999,1.03525,0.0,4,0.0,0.0,0.0,0.0,0.0,0,0,0,0,0,1,1,0,0,0
31556058,16.0867,16.2266,92.588,92.56,0.0,739.672,0.779448,1.03534,0.0,4,0.0,0.0,0.0,0.0,0.0,0,0,0,0,0,1,1,0,0,0
31568063,16.1633,16.2259,92.588,92.5606,0.0,739.981,0.779204,1.03538,0.0,4,0.0,0.0,0.0,0.0,0.0,0,0,0,0,0,1,1,0,0,0
31580062,16.1506,16.2252,92.588,92.5611,0.0,740.29,0.778915,1.03543,0.0,4,0.0,0.0,0.0,0.0,0.0,0,0,0,0,0,1,1,0,0,0
31592069,16.2016,16.2249,92.5294,92.5605,0.0,740.598,0.778825,1.03544,0.0,4,0.0,0.0,0.0,0.0,0.0,0,0,0,0,0,1,1,0,0,0
31604070,16.4059,16.2268,92.588,92.561,0.0,740.907,0.779521,1.03533,0.0,4,0.0,0.0,0.0,0.0,0.0,0,0,0,0,0,1,1,0,0,0
31616863,16.1761,16.2262,92.5587,92.561,0.0,741.236,0.779325,1.03536,0.0,4,0.0,0.0,0.0,0.0,0.0,0,0,0,0,0,1,1,0,0,0
31628861,16.3931,16.2279,92.5294,92.5603,0.0,741.544,0.779967,1.03525,0.0,4,0.0,0.0,0.0,0.0,0.0,0,0,0,0,0,1,1,0,0,0
31640875,16.2016,16.2276,92.5294,92.5597,0.0,741.853,0.779866,1.03527,0.0,4,0.0,0.0,0.0,0.0,0.0,0,0,0,0,0,1,1,0,0,0
31652875,16.0867,16.2262,92.5294,92.5591,0.0,742.161,0.779324,1.03536,0.0,4,0.0,0.0,0.0,0.0,0.0,0,0,0,0,0,1,1,0,0,0
31664860,16.3038,16.227,92.588,92.5597,0.0,742.47,0.779623,1.03531,0.0,4,0.0,0.0,0.0,0.0,0.0,0,0,0,0,0,1,1,0,0,0
31676864,16.2016,16.2268,92.4708,92.5579,0.0,742.778,0.779525,1.03533,0.0,4,0.0,0.0,0.0,0.0,0.0,0,0,0,0,0,1,1,0,0,0
31772867,16.3421,16.2322,92.588,92.5597,0.0,745.247,0.781625,1.03498,0.0,4,0.0,0.0,0.0,0.0,0.0,0,0,0,0,0,1,1,0,0,0
31784865,16.2527,16.2324,92.5294,92.5591,0.0,745.555,0.781704,1.03497,0.0,4,0.0,0.0,0.0,0.0,0.0,0,0,0,0,0,1,1,0,0,0
31796888,16.1889,16.232,92.588,92.5597,0.0,745.864,0.781537,1.03499,0.0,4,0.0,0.0,0.0,0.0,0.0,0,0,0,0,0,1,1,0,0,0
31808865,16.2144,16.2318,92.5294,92.5591,0.0,746.172,0.781469,1.035,0.0,4,0.0,0.0,0.0,0.0,0.0,0,0,0,0,0,1,1,0,0,0
31820875,16.1889,16.2314,92.588,92.5596,0.0,746.481,0.781304,1.03503,0.0,4,0.0,0.0,0.0,0.0,0.0,0,0,0,0,0,1,1,0,0,0
31832876,16.2144,16.2312,92.5587,92.5596,0.0,746.79,0.781239,1.03504,0.0,4,0.0,0.0,0.0,0.0,0.0,0,0,0,0,0,1,1,0,0,0
31845657,16.3548,16.2325,92.5587,92.5596,0.0,747.118,0.781714,1.03496,0.0,4,0.0,0.0,0.0,0.0,0.0,0,0,0,0,0,1,1,0,0,0
31857658,16.3804,16.2339,92.5587,92.5596,0.0,747.427,0.782283,1.03487,0.0,4,0.0,0.0,0.0,0.0,0.0,0,0,0,0,0,1,1,0,0,0
31869722,16.3165,16.2348,92.588,92.5602,0.0,747.737,0.782601,1.03482,0.0,4,0.0,0.0,0.0,0.0,0.0,0,0,0,0,0,1,1,0,0,0
31881700,16.3931,16.2363,92.5294,92.5596,0.0,748.045,0.78321,1.03472,0.0,4,0.0,0.0,0.0,0.0,0.0,0,0,0,0,0,1,1,0,0,0
31893741,16.0867,16.2348,92.588,92.5601,0.0,748.355,0.782635,1.03481,0.0,4,0.0,0.0,0.0,0.0,0.0,0,0,0,0,0,1,1,0,0,0
31905721,16.125,16.2337,92.5294,92.5595,0.0,748.662,0.782212,1.03488,0.0,4,0.0,0.0,0.0,0.0,0.0,0,0,0,0,0,1,1,0,0,0
31917682,16.2144,16.2336,92.6173,92.5607,0.0,748.97,0.782138,1.03489,0.0,4,0.0,0.0,0.0,0.0,0.0,0,0,0,0,0,1,1,0,0,0
31929678,16.0867,16.2321,92.5001,92.5595,0.0,749.278,0.781573,1.03499,0.0,4,0.0,0.0,0.0,0.0,0.0,0,0,0,0,0,1,1,0,0,0
31941656,16.1761,16.2315,92.588,92.56,0.0,749.586,0.781358,1.03502,0.0,4,0.0,0.0,0.0,0.0,0.0,0,0,0,0,0,1,1,0,0,0
31953790,16.3421,16.2326,92.588,92.5606,0.0,749.899,0.781784,1.03495,0.0,4,0.0,0.0,0.0,0.0,0.0,0,0,0,0,0,1,1,0,0,0
31965659,16.3804,16.2341,92.5001,92.5594,0.0,750.204,0.782352,1.03486,0.0,4,0.0,0.0,0.0,0.0,0.0,0,0,0,0,0,1,1,0,0,0
31989657,16.3676,16.2337,92.588,92.56,0.0,750.821,0.782207,1.03488,0.0,4,0.0,0.0,0.0,0.0,0.0,0,0,0,0,0,1,1,0,0,0
32001657,16.1633,16.233,92.588,92.5605,0.0,751.129,0.781937,1.03493,0.0,4,0.0,0.0,0.0,0.0,0.0,0,0,0,0,0,1,1,0,0,0
32013663,16.1889,16.2326,92.5294,92.5599,0.0,751.438,0.781766,1.03495,0.0,4,0.0,0.0,0.0,0.0,0.0,0,0,0,0,0,1,1,0,0,0
32025668,16.1378,16.2316,92.588,92.5605,0.0,751.747,0.781402,1.03502,0.0,4,0.0,0.0,0.0,0.0,0.0,0,0,0,0,0,1,1,0,0,0
32037691,16.3165,16.2325,92.5294,92.5598,0.0,752.056,0.781728,1.03496,0.0,4,0.0,0.0,0.0,0.0,0.0,0,0,0,0,0,1,1,0,0,0
32049678,16.0484,16.2306,92.5587,92.5598,0.0,752.364,0.78102,1.03508,0.0,4,0.0,0.0,0.0,0.0,0.0,0,0,0,0,0,1,1,0,0,0
32062460,16.0867,16.2292,92.588,92.5604,0.0,752.693,0.780467,1.03517,0.0,4,0.0,0.0,0.0,0.0,0.0,0,0,0,0,0,1,1,0,0,0
32074459,16.0357,16.2273,92.588,92.5609,0.0,753.001,0.779722,1.03529,0.0,4,0.0,0.0,0.0,0.0,0.0,0,0,0,0,0,1,1,0,0,0
32086458,16.1889,16.2269,92.588,92.5615,0.0,753.31,0.779574,1.03532,0.0,4,0.0,0.0,0.0,0.0,0.0,0,0,0,0,0,1,1,0,0,0
32098461,16.2144,16.2268,92.5294,92.5608,0.0,753.618,0.779527,1.03533,0.0,4,0.0,0.0,0.0,0.0,0.0,0,0,0,0,0,1,1,0,0,0
32110468,16.1123,16.2256,92.5294,92.5602,0.0,753.927,0.779087,1.0354,0.0,4,0.0,0.0,0.0,0.0,0.0,0,0,0,0,0,1,1,0,0,0
32122471,16.2016,16.2254,92.5587,92.5602,0.0,754.235,0.778994,1.03541,0.0,4,0.0,0.0,0.0,0.0,0.0,0,0,0,0,0,1,1,0,0,0
32134490,16.2144,16.2253,92.5294,92.5596,0.0,754.544,0.778952,1.03542,0.0,4,0.0,0.0,0.0,0.0,0.0,0,0,0,0,0,1,1,0,0,0
32146460,16.2016,16.225,92.588,92.5602,0.0,754.852,0.778861,1.03544,0.0,4,0.0,0.0,0.0,0.0,0.0,0,0,0,0,0,1,1,0,0,0
32158460,16.1761,16.2245,92.588,92.5607,0.0,755.161,0.778672,1.03547,0.0,4,0.0,0.0,0.0,0.0,0.0,0,0,0,0,0,1,1,0,0,0
32230500,16.4059,16.2296,92.5294,92.5594,0.0,757.013,0.780622,1.03514,0.0,4,0.0,0.0,0.0,0.0,0.0,0,0,0,0,0,1,1,0,0,0
32242466,16.2144,16.2295,92.5587,92.5593,0.0,757.321,0.780564,1.03515,0.0,4,0.0,0.0,0.0,0.0,0.0,0,0,0,0,0,1,1,0,0,0
32254469,16.2272,16.2294,92.588,92.5599,0.0,757.629,0.780555,1.03516,0.0,4,0.0,0.0,0.0,0.0,0.0,0,0,0,0,0,1,1,0,0,0
32266480,16.125,16.2284,92.5294,92.5593,0.0,757.938,0.780154,1.03522,0.0,4,0.0,0.0,0.0,0.0,0.0,0,0,0,0,0,1,1,0,0,0
32279281,16.2272,16.2284,92.6173,92.5605,0.0,758.267,0.780149,1.03522,0.0,4,0.0,0.0,0.0,0.0,0.0,0,0,0,0,0,1,1,0,0,0
32291260,16.1889,16.228,92.588,92.561,0.0,758.575,0.779998,1.03525,0.0,4,0.0,0.0,0.0,0.0,0.0,0,0,0,0,0,1,1,0,0,0
32303259,16.3038,16.2288,92.588,92.5616,0.0,758.884,0.780289,1.0352,0.0,4,0.0,0.0,0.0,0.0,0.0,0,0,0,0,0,1,1,0,0,0
32315260,16.2399,16.2289,92.588,92.5621,0.0,759.193,0.780332,1.03519,0.0,4,0.0,0.0,0.0,0.0,0.0,0,0,0,0,0,1,1,0,0,0
32327259,16.3676,16.2302,92.588,92.5626,0.0,759.501,0.780866,1.0351,0.0,4,0.0,0.0,0.0,0.0,0.0,0,0,0,0,0,1,1,0,0,0
32339262,16.3931,16.2319,92.588,92.5631,0.0,759.81,0.781492,1.035,0.0,4,0.0,0.0,0.0,0.0,0.0,0,0,0,0,0,1,1,0,0,0
32351264,16.3804,16.2334,92.588,92.5636,0.0,760.119,0.782063,1.03491,0.0,4,0.0,0.0,0.0,0.0,0.0,0,0,0,0,0,1,1,0,0,0
32363292,16.1123,16.2322,92.5294,92.5629,0.0,760.428,0.781598,1.03498,0.0,4,0.0,0.0,0.0,0.0,0.0,0,0,0,0,0,1,1,0,0,0
32375270,16.3548,16.2334,92.588,92.5634,0.0,760.736,0.782069,1.0349,0.0,4,0.0,0.0,0.0,0.0,0.0,0,0,0,0,0,1,1,0,0,0
32387270,16.2144,16.2332,92.588,92.5639,0.0,761.044,0.781997,1.03492,0.0,4,0.0,0.0,0.0,0.0,0.0,0,0,0,0,0,1,1,0,0,0
32399284,16.2655,16.2335,92.5587,92.5638,0.0,761.353,0.782121,1.0349,0.0,4,0.0,0.0,0.0,0.0,0.0,0,0,0,0,0,1,1,0,0,0
32411258,16.2144,16.2333,92.588,92.5643,0.0,761.661,0.782047,1.03491,0.0,4,0.0,0.0,0.0,0.0,0.0,0,0,0,0,0,1,1,0,0,0
32423260,16.3038,16.234,92.588,92.5648,0.0,761.97,0.782318,1.03486,0.0,4,0.0,0.0,0.0,0.0,0.0,0,0,0,0,0,1,1,0,0,0
32447284,16.4059,16.2353,92.588,92.5646,0.0,762.588,0.782807,1.03478,0.0,4,0.0,0.0,0.0,0.0,0.0,0,0,0,0,0,1,1,0,0,0
32459274,16.2655,16.2356,92.5587,92.5645,0.0,762.896,0.782923,1.03476,0.0,4,0.0,0.0,0.0,0.0,0.0,0,0,0,0,0,1,1,0,0,0
32471273,16.3804,16.237,92.5587,92.5643,0.0,763.205,0.78348,1.03467,0.0,4,0.0,0.0,0.0,0.0,0.0,0,0,0,0,0,1,1,0,0,0
32483288,16.2144,16.2368,92.5587,92.5642,0.0,763.513,0.783393,1.03469,0.0,4,0.0,0.0,0.0,0.0,0.0,0,0,0,0,0,1,1,0,0,0
32495271,16.0229,16.2347,92.588,92.5647,0.0,763.822,0.782569,1.03482,0.0,4,0.0,0.0,0.0,0.0,0.0,0,0,0,0,0,1,1,0,0,0
32508065,16.1123,16.2335,92.5294,92.564,0.0,764.15,0.782099,1.0349,0.0,4,0.0,0.0,0.0,0.0,0.0,0,0,0,0,0,1,1,0,0,0
32520058,16.3931,16.2351,92.5587,92.5639,0.0,764.459,0.782712,1.0348,0.0,4,0.0,0.0,0.0,0.0,0.0,0,0,0,0,0,1,1,0,0,0
32532058,16.2016,16.2347,92.5587,92.5638,0.0,764.767,0.782584,1.03482,0.0,4,0.0,0.0,0.0,0.0,0.0,0,0,0,0,0,1,1,0,0,0
32544056,16.2016,16.2344,92.5294,92.5631,0.0,765.076,0.782457,1.03484,0.0,4,0.0,0.0,0.0,0.0,0.0,0,0,0,0,0,1,1,0,0,0
32556106,16.1633,16.2337,92.588,92.5636,0.0,765.386,0.782185,1.03489,0.0,4,0.0,0.0,0.0,0.0,0.0,0,0,0,0,0,1,1,0,0,0
32568074,16.3548,16.2349,92.5587,92.5635,0.0,765.693,0.78265,1.03481,0.0,4,0.0,0.0,0.0,0.0,0.0,0,0,0,0,0,1,1,0,0,0
32580073,16.1889,16.2344,92.588,92.564,0.0,766.002,0.782474,1.03484,0.0,4,0.0,0.0,0.0,0.0,0.0,0,0,0,0,0,1,1,0,0,0
32592063,16.0484,16.2326,92.5294,92.5633,0.0,766.31,0.781758,1.03496,0.0,4,0.0,0.0,0.0,0.0,0.0,0,0,0,0,0,1,1,0,0,0
32604060,16.2655,16.2329,92.5294,92.5626,0.0,766.618,0.781885,1.03494,0.0,4,0.0,0.0,0.0,0.0,0.0,0,0,0,0,0,1,1,0,0,0
32616061,16.3421,16.234,92.588,92.5631,0.0,766.927,0.782305,1.03487,0.0,4,0.0,0.0,0.0,0.0,0.0,0,0,0,0,0,1,1,0,0,0
32700863,16.1889,16.2337,92.6173,92.5615,0.0,769.107,0.782207,1.03488,0.0,4,0.0,0.0,0.0,0.0,0.0,0,0,0,0,0,1,1,0,0,0
32712865,16.3804,16.2352,92.5587,92.5615,0.0,769.416,0.782771,1.03479,0.0,4,0.0,0.0,0.0,0.0,0.0,0,0,0,0,0,1,1,0,0,0
32724860,16.2016,16.2349,92.5587,92.5614,0.0,769.724,0.782641,1.03481,0.0,4,0.0,0.0,0.0,0.0,0.0,0,0,0,0,0,1,1,0,0,0
32736867,16.3676,16.2362,92.588,92.562,0.0,770.033,0.783152,1.03473,0.0,4,0.0,0.0,0.0,0.0,0.0,0,0,0,0,0,1,1,0,0,0
32748888,16.2399,16.2362,92.5587,92.5619,0.0,770.342,0.783167,1.03472,0.0,4,0.0,0.0,0.0,0.0,0.0,0,0,0,0,0,1,1,0,0,0
32760888,16.3804,16.2377,92.5294,92.5613,0.0,770.65,0.783721,1.03463,0.0,4,0.0,0.0,0.0,0.0,0.0,0,0,0,0,0,1,1,0,0,0
32772878,16.3931,16.2392,92.4708,92.5595,0.0,770.958,0.784319,1.03453,0.0,4,0.0,0.0,0.0,0.0,0.0,0,0,0,0,0,1,1,0,0,0
32784877,16.1633,16.2385,92.588,92.56,0.0,771.267,0.784027,1.03458,0.0,4,0.0,0.0,0.0,0.0,0.0,0,0,0,0,0,1,1,0,0,0
32796859,16.2399,16.2385,92.588,92.5606,0.0,771.575,0.784033,1.03458,0.0,4,0.0,0.0,0.0,0.0,0.0,0,0,0,0,0,1,1,0,0,0
32808866,16.2144,16.2382,92.5587,92.5606,0.0,771.884,0.783941,1.03459,0.0,4,0.0,0.0,0.0,0.0,0.0,0,0,0,0,0,1,1,0,0,0
32820856,16.2272,16.2381,92.588,92.5611,0.0,772.192,0.783898,1.0346,0.0,4,0.0,0.0,0.0,0.0,0.0,0,0,0,0,0,1,1,0,0,0
32832861,16.125,16.237,92.5294,92.5605,0.0,772.501,0.783463,1.03467,0.0,4,0.0,0.0,0.0,0.0,0.0,0,0,0,0,0,1,1,0,0,0
32844860,16.3293,16.2379,92.5294,92.5599,0.0,772.809,0.783818,1.03461,0.0,4,0.0,0.0,0.0,0.0,0.0,0,0,0,0,0,1,1,0,0,0
32856859,16.2016,16.2376,92.5587,92.5598,0.0,773.118,0.783679,1.03464,0.0,4,0.0,0.0,0.0,0.0,0.0,0,0,0,0,0,1,1,0,0,0
32868866,16.1123,16.2363,92.5294,92.5592,0.0,773.426,0.783197,1.03472,0.0,4,0.0,0.0,0.0,0.0,0.0,0,0,0,0,0,1,1,0,0,0
32880872,16.2144,16.2361,92.588,92.5598,0.0,773.735,0.783113,1.03473,0.0,4,0.0,0.0,0.0,0.0,0.0,0,0,0,0,0,1,1,0,0,0
32892862,16.2399,16.2361,92.5001,92.5586,0.0,774.043,0.783127,1.03473,0.0,4,0.0,0.0,0.0,0.0,0.0,0,0,0,0,0,1,1,0,0,0
32940868,16.125,16.2364,92.588,92.5592,0.0,775.278,0.783221,1.03471,0.0,4,0.0,0.0,0.0,0.0,0.0,0,0,0,0,0,1,1,0,0,0
32953659,16.3165,16.2372,92.588,92.5598,0.0,775.607,0.783529,1.03466,0.0,4,0.0,0.0,0.0,0.0,0.0,0,0,0,0,0,1,1,0,0,0
32965750,16.2016,16.2368,92.6173,92.561,0.0,775.918,0.783393,1.03469,0.0,4,0.0,0.0,0.0,0.0,0.0,0,0,0,0,0,1,1,0,0,0
32977661,16.3421,16.2379,92.588,92.5615,0.0,776.224,0.783798,1.03462,0.0,4,0.0,0.0,0.0,0.0,0.0,0,0,0,0,0,1,1,0,0,0
32989667,16.2144,16.2376,92.5587,92.5614,0.0,776.533,0.783708,1.03463,0.0,4,0.0,0.0,0.0,0.0,0.0,0,0,0,0,0,1,1,0,0,0
33001723,16.1889,16.2372,92.5587,92.5614,0.0,776.843,0.78352,1.03466,0.0,4,0.0,0.0,0.0,0.0,0.0,0,0,0,0,0,1,1,0,0,0
33013775,16.1378,16.2362,92.5294,92.5607,0.0,777.152,0.783137,1.03473,0.0,4,0.0,0.0,0.0,0.0,0.0,0,0,0,0,0,1,1,0,0,0
33025675,16.1889,16.2357,92.5587,92.5607,0.0,777.458,0.782956,1.03476,0.0,4,0.0,0.0,0.0,0.0,0.0,0,0,0,0,0,1,1,0,0,0
33037676,16.3421,16.2367,92.5294,92.5601,0.0,777.767,0.783365,1.03469,0.0,4,0.0,0.0,0.0,0.0,0.0,0,0,0,0,0,1,1,0,0,0
33049678,16.1889,16.2363,92.5587,92.5601,0.0,778.075,0.783181,1.03472,0.0,4,0.0,0.0,0.0,0.0,0.0,0,0,0,0,0,1,1,0,0,0
33061667,16.125,16.2352,92.5294,92.5594,0.0,778.383,0.782753,1.03479,0.0,4,0.0,0.0,0.0,0.0,0.0,0,0,0,0,0,1,1,0,0,0
33073758,16.3548,16.2364,92.588,92.56,0.0,778.694,0.783214,1.03471,0.0,4,0.0,0.0,0.0,0.0,0.0,0,0,0,0,0,1,1,0,0,0
33085660,16.2016,16.236,92.588,92.5606,0.0,779.001,0.78308,1.03474,0.0,4,0.0,0.0,0.0,0.0,0.0,0,0,0,0,0,1,1,0,0,0
33097713,16.3804,16.2375,92.5001,92.5594,0.0,779.31,0.783636,1.03465,0.0,4,0.0,0.0,0.0,0.0,0.0,0,0,0,0,0,1,1,0,0,0
33109659,16.2399,16.2375,92.5294,92.5588,0.0,779.617,0.783645,1.03464,0.0,4,0.0,0.0,0.0,0.0,0.0,0,0,0,0,0,1,1,0,0,0
33194473,16.1633,16.2392,92.6466,92.5594,0.0,781.798,0.784313,1.03453,0.0,4,0.0,0.0,0.0,0.0,0.0,0,0,0,0,0,1,1,0,0,0
33206468,16.3421,16.2402,92.5587,92.5594,0.0,782.106,0.784709,1.03447,0.0,4,0.0,0.0,0.0,0.0,0.0,0,0,0,0,0,1,1,0,0,0
33218458,16.3804,16.2416,92.588,92.56,0.0,782.415,0.785248,1.03438,0.0,4,0.0,0.0,0.0,0.0,0.0,0,0,0,0,0,1,1,0,0,0
33230462,16.2144,16.2414,92.5587,92.56,0.0,782.723,0.785143,1.0344,0.0,4,0.0,0.0,0.0,0.0,0.0,0,0,0,0,0,1,1,0,0,0
33242459,16.2782,16.2417,92.588,92.5605,0.0,783.032,0.785285,1.03437,0.0,4,0.0,0.0,0.0,0.0,0.0,0,0,0,0,0,1,1,0,0,0
33254461,16.1761,16.2411,92.588,92.5611,0.0,783.341,0.785032,1.03441,0.0,4,0.0,0.0,0.0,0.0,0.0,0,0,0,0,0,1,1,0,0,0
33266472,16.3931,16.2426,92.588,92.5616,0.0,783.65,0.785617,1.03432,0.0,4,0.0,0.0,0.0,0.0,0.0,0,0,0,0,0,1,1,0,0,0
33278462,16.4825,16.245,92.4708,92.5598,0.0,783.958,0.78654,1.03416,0.0,4,0.0,0.0,0.0,0.0,0.0,0,0,0,0,0,1,1,0,0,0
33290461,16.3548,16.2461,92.5294,92.5592,0.0,784.266,0.786963,1.03409,0.0,4,0.0,0.0,0.0,0.0,0.0,0,0,0,0,0,1,1,0,0,0
33302459,16.074,16.2444,92.5587,92.5592,0.0,784.574,0.786301,1.0342,0.0,4,0.0,0.0,0.0,0.0,0.0,0,0,0,0,0,1,1,0,0,0
33314476,16.1506,16.2434,92.5587,92.5592,0.0,784.883,0.78594,1.03426,0.0,4,0.0,0.0,0.0,0.0,0.0,0,0,0,0,0,1,1,0,0,0
33326471,16.2144,16.2432,92.5587,92.5592,0.0,785.192,0.785828,1.03428,0.0,4,0.0,0.0,0.0,0.0,0.0,0,0,0,0,0,1,1,0,0,0
33338470,16.2399,16.2431,92.6173,92.5603,0.0,785.5,0.785816,1.03428,0.0,4,0.0,0.0,0.0,0.0,0.0,0,0,0,0,0,1,1,0,0,0
33350459,16.7379,16.2481,92.5294,92.5597,0.0,785.809,0.787719,1.03397,0.0,4,0.0,0.0,0.0,0.0,0.0,0,0,0,0,0,1,1,0,0,0
33362461,16.1633,16.2472,92.588,92.5603,0.0,786.117,0.787393,1.03402,0.0,4,0.0,0.0,0.0,0.0,0.0,0,0,0,0,0,1,1,0,0,0
33374460,16.1761,16.2465,92.5587,92.5602,0.0,786.426,0.787119,1.03407,0.0,4,0.0,0.0,0.0,0.0,0.0,0,0,0,0,0,1,1,0,0,0
33387271,16.3931,16.248,92.5294,92.5596,0.0,786.755,0.787683,1.03397,0.0,4,0.0,0.0,0.0,0.0,0.0,0,0,0,0,0,1,1,0,0,0
33423266,16.3421,16.2471,92.5294,92.5596,0.0,787.681,0.787354,1.03403,0.0,4,0.0,0.0,0.0,0.0,0.0,0,0,0,0,0,1,1,0,0,0
33435279,16.0612,16.2453,92.588,92.5601,0.0,787.99,0.786638,1.03415,0.0,4,0.0,0.0,0.0,0.0,0.0,0,0,0,0,0,1,1,0,0,0
33447262,16.1633,16.2444,92.6173,92.5613,0.0,788.298,0.786324,1.0342,0.0,4,0.0,0.0,0.0,0.0,0.0,0,0,0,0,0,1,1,0,0,0
33459262,16.3676,16.2457,92.5294,92.5606,0.0,788.606,0.786798,1.03412,0.0,4,0.0,0.0,0.0,0.0,0.0,0,0,0,0,0,1,1,0,0,0
33471263,15.9974,16.2432,92.5587,92.5606,0.0,788.915,0.785842,1.03428,0.0,4,0.0,0.0,0.0,0.0,0.0,0,0,0,0,0,1,1,0,0,0
33483284,16.3548,16.2443,92.5587,92.5606,0.0,789.224,0.786271,1.03421,0.0,4,0.0,0.0,0.0,0.0,0.0,0,0,0,0,0,1,1,0,0,0
33495263,16.2016,16.2439,92.588,92.5611,0.0,789.532,0.786107,1.03424,0.0,4,0.0,0.0,0.0,0.0,0.0,0,0,0,0,0,1,1,0,0,0
33507261,16.0867,16.2423,92.5294,92.5605,0.0,789.84,0.785502,1.03434,0.0,4,0.0,0.0,0.0,0.0,0.0,0,0,0,0,0,1,1,0,0,0
33519271,16.0867,16.2407,92.588,92.561,0.0,790.149,0.784904,1.03444,0.0,4,0.0,0.0,0.0,0.0,0.0,0,0,0,0,0,1,1,0,0,0
33531289,16.1889,16.2402,92.5294,92.5604,0.0,790.458,0.784704,1.03447,0.0,4,0.0,0.0,0.0,0.0,0.0,0,0,0,0,0,1,1,0,0,0
33543270,16.2272,16.2401,92.5587,92.5604,0.0,790.766,0.784655,1.03448,0.0,4,0.0,0.0,0.0,0.0,0.0,0,0,0,0,0,1,1,0,0,0
33555266,16.2144,16.2398,92.588,92.5609,0.0,791.075,0.784555,1.03449,0.0,4,0.0,0.0,0.0,0.0,0.0,0,0,0,0,0,1,1,0,0,0
33567302,16.2144,16.2396,92.588,92.5615,0.0,791.384,0.784458,1.03451,0.0,4,0.0,0.0,0.0,0.0,0.0,0,0,0,0,0,1,1,0,0,0
33579281,16.2144,16.2393,92.5587,92.5614,0.0,791.692,0.784361,1.03452,0.0,4,0.0,0.0,0.0,0.0,0.0,0,0,0,0,0,1,1,0,0,0
33591267,16.1378,16.2383,92.5294,92.5608,0.0,792.0,0.783971,1.03459,0.0,4,0.0,0.0,0.0,0.0,0.0,0,0,0,0,0,1,1,0,0,0
33652064,16.3293,16.2389,92.5294,92.56,0.0,793.563,0.7842,1.03455,0.0,4,0.0,0.0,0.0,0.0,0.0,0,0,0,0,0,1,1,0,0,0
33664057,16.1633,16.2382,92.5587,92.56,0.0,793.872,0.783909,1.0346,0.0,4,0.0,0.0,0.0,0.0,0.0,0,0,0,0,0,1,1,0,0,0
33676064,16.0995,16.2368,92.5294,92.5594,0.0,794.18,0.783376,1.03469,0.0,4,0.0,0.0,0.0,0.0,0.0,0,0,0,0,0,1,1,0,0,0
33688062,16.3293,16.2377,92.5294,92.5588,0.0,794.489,0.783731,1.03463,0.0,4,0.0,0.0,0.0,0.0,0.0,0,0,0,0,0,1,1,0,0,0
33700082,16.3421,16.2387,92.5587,92.5588,0.0,794.798,0.784133,1.03456,0.0,4,0.0,0.0,0.0,0.0,0.0,0,0,0,0,0,1,1,0,0,0
33712076,16.1889,16.2382,92.588,92.5594,0.0,795.106,0.783941,1.03459,0.0,4,0.0,0.0,0.0,0.0,0.0,0,0,0,0,0,1,1,0,0,0
33724073,16.2144,16.238,92.588,92.5599,0.0,795.415,0.78385,1.03461,0.0,4,0.0,0.0,0.0,0.0,0.0,0,0,0,0,0,1,1,0,0,0
33736069,16.1889,16.2375,92.588,92.5605,0.0,795.723,0.78366,1.03464,0.0,4,0.0,0.0,0.0,0.0,0.0,0,0,0,0,0,1,1,0,0,0
33748063,16.0995,16.2361,92.5587,92.5605,0.0,796.031,0.783129,1.03473,0.0,4,0.0,0.0,0.0,0.0,0.0,0,0,0,0,0,1,1,0,0,0
33760059,16.2016,16.2358,92.5294,92.5598,0.0,796.34,0.782997,1.03475,0.0,4,0.0,0.0,0.0,0.0,0.0,0,0,0,0,0,1,1,0,0,0
33772066,16.3931,16.2374,92.5587,92.5598,0.0,796.649,0.783602,1.03465,0.0,4,0.0,0.0,0.0,0.0,0.0,0,0,0,0,0,1,1,0,0,0
33784126,16.3676,16.2387,92.588,92.5604,0.0,796.959,0.784103,1.03457,0.0,4,0.0,0.0,0.0,0.0,0.0,0,0,0,0,0,1,1,0,0,0
33796059,16.3676,16.24,92.588,92.5609,0.0,797.266,0.784599,1.03449,0.0,4,0.0,0.0,0.0,0.0,0.0,0,0,0,0,0,1,1,0,0,0
33808057,16.1633,16.2392,92.588,92.5615,0.0,797.574,0.784304,1.03453,0.0,4,0.0,0.0,0.0,0.0,0.0,0,0,0,0,0,1,1,0,0,0
33820866,16.1889,16.2387,92.588,92.562,0.0,797.904,0.78411,1.03457,0.0,4,0.0,0.0,0.0,0.0,0.0,0,0,0,0,0,1,1,0,0,0
33832871,16.3676,16.24,92.588,92.5625,0.0,798.212,0.784606,1.03448,0.0,4,0.0,0.0,0.0,0.0,0.0,0,0,0,0,0,1,1,0,0,0
33844876,16.3165,16.2407,92.5294,92.5619,0.0,798.521,0.7849,1.03444,0.0,4,0.0,0.0,0.0,0.0,0.0,0,0,0,0,0,1,1,0,0,0
33880857,16.2144,16.2363,92.5587,92.5622,0.0,799.446,0.783193,1.03472,0.0,4,0.0,0.0,0.0,0.0,0.0,0,0,0,0,0,1,1,0,0,0
33892869,16.3676,16.2376,92.5587,92.5622,0.0,799.755,0.783697,1.03463,0.0,4,0.0,0.0,0.0,0.0,0.0,0,0,0,0,0,1,1,0,0,0
33904858,16.4187,16.2394,92.5294,92.5615,0.0,800.063,0.784393,1.03452,0.0,4,0.0,0.0,0.0,0.0,0.0,0,0,0,0,0,1,1,0,0,0
33916863,16.1761,16.2388,92.5294,92.5609,0.0,800.372,0.78415,1.03456,0.0,4,0.0,0.0,0.0,0.0,0.0,0,0,0,0,0,1,1,0,0,0
33928865,16.2272,16.2387,92.5587,92.5608,0.0,800.68,0.784105,1.03457,0.0,4,0.0,0.0,0.0,0.0,0.0,0,0,0,0,0,1,1,0,0,0
33940871,16.0357,16.2366,92.5587,92.5608,0.0,800.989,0.783324,1.0347,0.0,4,0.0,0.0,0.0,0.0,0.0,0,0,0,0,0,1,1,0,0,0
33952869,16.0101,16.2344,92.588,92.5614,0.0,801.297,0.782453,1.03484,0.0,4,0.0,0.0,0.0,0.0,0.0,0,0,0,0,0,1,1,0,0,0
33964871,16.3038,16.2351,92.588,92.5619,0.0,801.606,0.78272,1.0348,0.0,4,0.0,0.0,0.0,0.0,0.0,0,0,0,0,0,1,1,0,0,0
33976883,16.0995,16.2337,92.5294,92.5612,0.0,801.915,0.782198,1.03488,0.0,4,0.0,0.0,0.0,0.0,0.0,0,0,0,0,0,1,1,0,0,0
33988873,16.0995,16.2324,92.5001,92.56,0.0,802.223,0.781682,1.03497,0.0,4,0.0,0.0,0.0,0.0,0.0,0,0,0,0,0,1,1,0,0,0
34000871,16.0484,16.2305,92.588,92.5606,0.0,802.532,0.780975,1.03509,0.0,4,0.0,0.0,0.0,0.0,0.0,0,0,0,0,0,1,1,0,0,0
34012860,16.0101,16.2283,92.5001,92.5594,0.0,802.84,0.780127,1.03523,0.0,4,0.0,0.0,0.0,0.0,0.0,0,0,0,0,0,1,1,0,0,0
34024860,16.2016,16.2281,92.5001,92.5582,0.0,803.148,0.780024,1.03524,0.0,4,0.0,0.0,0.0,0.0,0.0,0,0,0,0,0,1,1,0,0,0
34036860,16.2144,16.2279,92.588,92.5588,0.0,803.457,0.779971,1.03525,0.0,4,0.0,0.0,0.0,0.0,0.0,0,0,0,0,0,1,1,0,0,0
34049699,16.2016,16.2277,92.588,92.5594,0.0,803.787,0.77987,1.03527,0.0,4,0.0,0.0,0.0,0.0,0.0,0,0,0,0,0,1,1,0,0,0
34121717,16.1761,16.2243,92.5587,92.5581,0.0,805.638,0.778562,1.03549,0.0,4,0.0,0.0,0.0,0.0,0.0,0,0,0,0,0,1,1,0,0,0
34133661,16.4059,16.2261,92.5587,92.5582,0.0,805.945,0.77926,1.03537,0.0,4,0.0,0.0,0.0,0.0,0.0,0,0,0,0,0,1,1,0,0,0
34145652,16.1889,16.2257,92.5587,92.5582,0.0,806.254,0.779117,1.03539,0.0,4,0.0,0.0,0.0,0.0,0.0,0,0,0,0,0,1,1,0,0,0
34157661,16.3421,16.2269,92.5001,92.557,0.0,806.562,0.779565,1.03532,0.0,4,0.0,0.0,0.0,0.0,0.0,0,0,0,0,0,1,1,0,0,0
34169663,16.1506,16.2261,92.588,92.5576,0.0,806.871,0.779271,1.03537,0.0,4,0.0,0.0,0.0,0.0,0.0,0,0,0,0,0,1,1,0,0,0
34181660,16.1889,16.2257,92.5587,92.5576,0.0,807.179,0.779128,1.03539,0.0,4,0.0,0.0,0.0,0.0,0.0,0,0,0,0,0,1,1,0,0,0
34193772,16.1889,16.2254,92.6173,92.5588,0.0,807.491,0.778987,1.03542,0.0,4,0.0,0.0,0.0,0.0,0.0,0,0,0,0,0,1,1,0,0,0
34205671,16.291,16.226,92.5001,92.5577,0.0,807.797,0.779239,1.03537,0.0,4,0.0,0.0,0.0,0.0,0.0,0,0,0,0,0,1,1,0,0,0
34217667,16.2655,16.2264,92.588,92.5583,0.0,808.105,0.779391,1.03535,0.0,4,0.0,0.0,0.0,0.0,0.0,0,0,0,0,0,1,1,0,0,0
34229669,16.2399,16.2266,92.5587,92.5583,0.0,808.414,0.779443,1.03534,0.0,4,0.0,0.0,0.0,0.0,0.0,0,0,0,0,0,1,1,0,0,0
34241704,16.2144,16.2264,92.5294,92.5577,0.0,808.723,0.779396,1.03535,0.0,4,0.0,0.0,0.0,0.0,0.0,0,0,0,0,0,1,1,0,0,0
34253662,16.1889,16.2261,92.5294,92.5571,0.0,809.03,0.779252,1.03537,0.0,4,0.0,0.0,0.0,0.0,0.0,0,0,0,0,0,1,1,0,0,0
34265660,16.2016,16.2258,92.5294,92.5566,0.0,809.339,0.779158,1.03539,0.0,4,0.0,0.0,0.0,0.0,0.0,0,0,0,0,0,1,1,0,0,0
34278460,16.1889,16.2254,92.5587,92.5566,0.0,809.668,0.779016,1.03541,0.0,4,0.0,0.0,0.0,0.0,0.0,0,0,0,0,0,1,1,0,0,0
34290462,16.3931,16.2271,92.5587,92.5567,0.0,809.977,0.77966,1.0353,0.0,4,0.0,0.0,0.0,0.0,0.0,0,0,0,0,0,1,1,0,0,0
34302470,16.2272,16.2271,92.5294,92.5561,0.0,810.285,0.77966,1.0353,0.0,4,0.0,0.0,0.0,0.0,0.0,0,0,0,0,0,1,1,0,0,0
34314470,16.0867,16.2257,92.588,92.5568,0.0,810.594,0.77912,1.03539,0.0,4,0.0,0.0,0.0,0.0,0.0,0,0,0,0,0,1,1,0,0,0
34362471,16.2144,16.2279,92.588,92.5586,0.0,811.828,0.779964,1.03525,0.0,4,0.0,0.0,0.0,0.0,0.0,0,0,0,0,0,1,1,0,0,0
34374479,16.4442,16.2301,92.5587,92.5586,0.0,812.137,0.780797,1.03512,0.0,4,0.0,0.0,0.0,0.0,0.0,0,0,0,0,0,1,1,0,0,0
34386459,16.1633,16.2294,92.5294,92.558,0.0,812.445,0.78054,1.03516,0.0,4,0.0,0.0,0.0,0.0,0.0,0,0,0,0,0,1,1,0,0,0
