timestamp,voltage_v,voltage_filtered_v,current_a,current_filtered_a,average_current_a,discharged_mah,remaining,scale,temperature,cell_count,voltage_cell_v[0],voltage_cell_v[1],voltage_cell_v[2],voltage_cell_v[3],max_cell_voltage_delta,capacity,cycle_count,run_time_to_empty,average_time_to_empty,serial_number,connected,system_source,priority,is_powering_off,warning
19907462,16.0484,16.0549,92.5587,92.6117,0.0,440.568,0.725659,1.04434,0.0,4,0.0,0.0,0.0,0.0,0.0,0,0,0,0,0,1,1,0,0,0
19919457,16.0229,16.0546,92.588,92.6113,0.0,440.877,0.725414,1.04438,0.0,4,0.0,0.0,0.0,0.0,0.0,0,0,0,0,0,1,1,0,0,0
19931457,16.074,16.0548,92.6466,92.612,0.0,441.186,0.725368,1.04439,0.0,4,0.0,0.0,0.0,0.0,0.0,0,0,0,0,0,1,1,0,0,0
19943491,16.0229,16.0544,92.588,92.6115,0.0,441.495,0.725125,1.04443,0.0,4,0.0,0.0,0.0,0.0,0.0,0,0,0,0,0,1,1,0,0,0
19955477,16.1123,16.055,92.6173,92.6116,0.0,441.803,0.725228,1.04441,0.0,4,0.0,0.0,0.0,0.0,0.0,0,0,0,0,0,1,1,0,0,0
19967471,15.7803,16.0523,92.588,92.6111,0.0,442.112,0.724054,1.04461,0.0,4,0.0,0.0,0.0,0.0,0.0,0,0,0,0,0,1,1,0,0,0
19980268,16.0101,16.0518,92.5587,92.6101,0.0,442.441,0.723775,1.04466,0.0,4,0.0,0.0,0.0,0.0,0.0,0,0,0,0,0,1,1,0,0,0
19992252,16.1889,16.0532,92.588,92.6097,0.0,442.749,0.724187,1.04459,0.0,4,0.0,0.0,0.0,0.0,0.0,0,0,0,0,0,1,1,0,0,0
20004264,15.9846,16.0525,92.588,92.6092,0.0,443.058,0.723809,1.04465,0.0,4,0.0,0.0,0.0,0.0,0.0,0,0,0,0,0,1,1,0,0,0
20016276,15.9974,16.052,92.588,92.6088,0.0,443.367,0.723485,1.04471,0.0,4,0.0,0.0,0.0,0.0,0.0,0,0,0,0,0,1,1,0,0,0
20028266,16.0357,16.0518,92.588,92.6084,0.0,443.675,0.723309,1.04474,0.0,4,0.0,0.0,0.0,0.0,0.0,0,0,0,0,0,1,1,0,0,0
20040322,15.9974,16.0513,92.6759,92.6097,0.0,443.986,0.722989,1.04479,0.0,4,0.0,0.0,0.0,0.0,0.0,0,0,0,0,0,1,1,0,0,0
20052271,16.2144,16.0529,92.588,92.6093,0.0,444.293,0.723507,1.0447,0.0,4,0.0,0.0,0.0,0.0,0.0,0,0,0,0,0,1,1,0,0,0
20064268,16.1123,16.0535,92.6466,92.6101,0.0,444.602,0.723627,1.04468,0.0,4,0.0,0.0,0.0,0.0,0.0,0,0,0,0,0,1,1,0,0,0
20076275,16.0867,16.0538,92.6466,92.6108,0.0,444.911,0.723647,1.04468,0.0,4,0.0,0.0,0.0,0.0,0.0,0,0,0,0,0,1,1,0,0,0
20088278,16.0229,16.0535,92.588,92.6103,0.0,445.22,0.723422,1.04472,0.0,4,0.0,0.0,0.0,0.0,0.0,0,0,0,0,0,1,1,0,0,0
20196268,15.9591,16.0471,92.588,92.6093,0.0,447.997,0.720027,1.04529,0.0,4,0.0,0.0,0.0,0.0,0.0,0,0,0,0,0,1,1,0,0,0
20208320,15.9846,16.0464,92.6173,92.6094,0.0,448.307,0.719691,1.04535,0.0,4,0.0,0.0,0.0,0.0,0.0,0,0,0,0,0,1,1,0,0,0
20220286,15.9335,16.0453,92.6759,92.6108,0.0,448.616,0.719161,1.04544,0.0,4,0.0,0.0,0.0,0.0,0.0,0,0,0,0,0,1,1,0,0,0
20232260,16.074,16.0456,92.5587,92.6097,0.0,448.923,0.719177,1.04544,0.0,4,0.0,0.0,0.0,0.0,0.0,0,0,0,0,0,1,1,0,0,0
20244263,16.0229,16.0454,92.588,92.6093,0.0,449.232,0.718997,1.04547,0.0,4,0.0,0.0,0.0,0.0,0.0,0,0,0,0,0,1,1,0,0,0
20257060,16.2272,16.0472,92.588,92.6089,0.0,449.561,0.719604,1.04536,0.0,4,0.0,0.0,0.0,0.0,0.0,0,0,0,0,0,1,1,0,0,0
20269066,15.9846,16.0466,92.6173,92.609,0.0,449.87,0.719271,1.04542,0.0,4,0.0,0.0,0.0,0.0,0.0,0,0,0,0,0,1,1,0,0,0
20281066,16.2144,16.0482,92.6173,92.6092,0.0,450.179,0.719826,1.04533,0.0,4,0.0,0.0,0.0,0.0,0.0,0,0,0,0,0,1,1,0,0,0
20293067,15.9463,16.0472,92.588,92.6088,0.0,450.487,0.719345,1.04541,0.0,4,0.0,0.0,0.0,0.0,0.0,0,0,0,0,0,1,1,0,0,0
20305088,15.9335,16.0461,92.5587,92.6078,0.0,450.797,0.718819,1.0455,0.0,4,0.0,0.0,0.0,0.0,0.0,0,0,0,0,0,1,1,0,0,0
20317072,16.0357,16.046,92.5587,92.6068,0.0,451.105,0.71869,1.04552,0.0,4,0.0,0.0,0.0,0.0,0.0,0,0,0,0,0,1,1,0,0,0
20329070,16.0229,16.0457,92.6466,92.6076,0.0,451.413,0.718515,1.04555,0.0,4,0.0,0.0,0.0,0.0,0.0,0,0,0,0,0,1,1,0,0,0
20341065,15.9846,16.0451,92.6466,92.6084,0.0,451.722,0.718193,1.0456,0.0,4,0.0,0.0,0.0,0.0,0.0,0,0,0,0,0,1,1,0,0,0
20353062,16.2399,16.0471,92.588,92.608,0.0,452.031,0.718857,1.04549,0.0,4,0.0,0.0,0.0,0.0,0.0,0,0,0,0,0,1,1,0,0,0
20365055,16.0101,16.0467,92.588,92.6076,0.0,452.339,0.71863,1.04553,0.0,4,0.0,0.0,0.0,0.0,0.0,0,0,0,0,0,1,1,0,0,0
20377060,16.125,16.0475,92.5587,92.6066,0.0,452.648,0.718848,1.04549,0.0,4,0.0,0.0,0.0,0.0,0.0,0,0,0,0,0,1,1,0,0,0
20389063,15.8569,16.0456,92.588,92.6062,0.0,452.957,0.718032,1.04563,0.0,4,0.0,0.0,0.0,0.0,0.0,0,0,0,0,0,1,1,0,0,0
20413059,16.0101,16.0446,92.588,92.6055,0.0,453.574,0.7175,1.04572,0.0,4,0.0,0.0,0.0,0.0,0.0,0,0,0,0,0,1,1,0,0,0
20425082,15.9591,16.0438,92.6466,92.6063,0.0,453.883,0.717091,1.04579,0.0,4,0.0,0.0,0.0,0.0,0.0,0,0,0,0,0,1,1,0,0,0
20437076,15.7803,16.0411,92.588,92.606,0.0,454.192,0.715999,1.04597,0.0,4,0.0,0.0,0.0,0.0,0.0,0,0,0,0,0,1,1,0,0,0
20449071,15.7931,16.0387,92.588,92.6056,0.0,454.5,0.714966,1.04615,0.0,4,0.0,0.0,0.0,0.0,0.0,0,0,0,0,0,1,1,0,0,0
20461856,15.8569,16.0368,92.5587,92.6047,0.0,454.829,0.714189,1.04628,0.0,4,0.0,0.0,0.0,0.0,0.0,0,0,0,0,0,1,1,0,0,0
20473857,15.7931,16.0344,92.6173,92.6049,0.0,455.138,0.713174,1.04645,0.0,4,0.0,0.0,0.0,0.0,0.0,0,0,0,0,0,1,1,0,0,0
20485860,16.0101,16.0342,92.6466,92.6058,0.0,455.446,0.713005,1.04648,0.0,4,0.0,0.0,0.0,0.0,0.0,0,0,0,0,0,1,1,0,0,0
20497864,15.9846,16.0337,92.6466,92.6066,0.0,455.755,0.712739,1.04653,0.0,4,0.0,0.0,0.0,0.0,0.0,0,0,0,0,0,1,1,0,0,0
20509869,15.9335,16.0327,92.6466,92.6074,0.0,456.064,0.712279,1.0466,0.0,4,0.0,0.0,0.0,0.0,0.0,0,0,0,0,0,1,1,0,0,0
20521882,16.0101,16.0324,92.6466,92.6082,0.0,456.373,0.712118,1.04663,0.0,4,0.0,0.0,0.0,0.0,0.0,0,0,0,0,0,1,1,0,0,0
20533871,15.9974,16.0321,92.5587,92.6072,0.0,456.682,0.71191,1.04667,0.0,4,0.0,0.0,0.0,0.0,0.0,0,0,0,0,0,1,1,0,0,0
20545866,16.2527,16.0343,92.6173,92.6074,0.0,456.99,0.712686,1.04653,0.0,4,0.0,0.0,0.0,0.0,0.0,0,0,0,0,0,1,1,0,0,0
20557861,16.2016,16.036,92.5587,92.6064,0.0,457.299,0.713257,1.04644,0.0,4,0.0,0.0,0.0,0.0,0.0,0,0,0,0,0,1,1,0,0,0
20569856,16.1889,16.0375,92.6466,92.6072,0.0,457.607,0.713774,1.04635,0.0,4,0.0,0.0,0.0,0.0,0.0,0,0,0,0,0,1,1,0,0,0
20581869,16.0357,16.0375,92.588,92.6068,0.0,457.916,0.713696,1.04636,0.0,4,0.0,0.0,0.0,0.0,0.0,0,0,0,0,0,1,1,0,0,0
20593872,16.2144,16.0392,92.588,92.6065,0.0,458.225,0.714308,1.04626,0.0,4,0.0,0.0,0.0,0.0,0.0,0,0,0,0,0,1,1,0,0,0
20653877,16.1889,16.0375,92.6466,92.6065,0.0,459.769,0.713285,1.04643,0.0,4,0.0,0.0,0.0,0.0,0.0,0,0,0,0,0,1,1,0,0,0
20665869,16.2144,16.0392,92.588,92.6061,0.0,460.077,0.7139,1.04633,0.0,4,0.0,0.0,0.0,0.0,0.0,0,0,0,0,0,1,1,0,0,0
20677867,15.9974,16.0388,92.6173,92.6063,0.0,460.386,0.713674,1.04637,0.0,4,0.0,0.0,0.0,0.0,0.0,0,0,0,0,0,1,1,0,0,0
20689856,16.0101,16.0385,92.6173,92.6066,0.0,460.694,0.7135,1.0464,0.0,4,0.0,0.0,0.0,0.0,0.0,0,0,0,0,0,1,1,0,0,0
20701873,15.8058,16.0362,92.588,92.6062,0.0,461.003,0.712541,1.04656,0.0,4,0.0,0.0,0.0,0.0,0.0,0,0,0,0,0,1,1,0,0,0
20713857,16.0484,16.0363,92.6173,92.6064,0.0,461.312,0.712524,1.04656,0.0,4,0.0,0.0,0.0,0.0,0.0,0,0,0,0,0,1,1,0,0,0
20725857,16.0229,16.0362,92.6173,92.6066,0.0,461.62,0.71241,1.04658,0.0,4,0.0,0.0,0.0,0.0,0.0,0,0,0,0,0,1,1,0,0,0
20737878,16.0101,16.0359,92.6173,92.6069,0.0,461.93,0.712248,1.04661,0.0,4,0.0,0.0,0.0,0.0,0.0,0,0,0,0,0,1,1,0,0,0
20749874,16.0612,16.0362,92.6173,92.6071,0.0,462.238,0.712284,1.0466,0.0,4,0.0,0.0,0.0,0.0,0.0,0,0,0,0,0,1,1,0,0,0
20761860,15.9591,16.0354,92.6173,92.6073,0.0,462.546,0.711927,1.04666,0.0,4,0.0,0.0,0.0,0.0,0.0,0,0,0,0,0,1,1,0,0,0
20774716,16.125,16.0363,92.6466,92.6081,0.0,462.877,0.712212,1.04661,0.0,4,0.0,0.0,0.0,0.0,0.0,0,0,0,0,0,1,1,0,0,0
20786657,15.9718,16.0357,92.6173,92.6082,0.0,463.185,0.711905,1.04667,0.0,4,0.0,0.0,0.0,0.0,0.0,0,0,0,0,0,1,1,0,0,0
20798715,15.9335,16.0346,92.6173,92.6084,0.0,463.495,0.711453,1.04674,0.0,4,0.0,0.0,0.0,0.0,0.0,0,0,0,0,0,1,1,0,0,0
20810691,16.2527,16.0368,92.6466,92.6092,0.0,463.803,0.712234,1.04661,0.0,4,0.0,0.0,0.0,0.0,0.0,0,0,0,0,0,1,1,0,0,0
20822672,16.2144,16.0386,92.6173,92.6094,0.0,464.111,0.712859,1.04651,0.0,4,0.0,0.0,0.0,0.0,0.0,0,0,0,0,0,1,1,0,0,0
20834667,15.9974,16.0382,92.6466,92.6101,0.0,464.42,0.712643,1.04654,0.0,4,0.0,0.0,0.0,0.0,0.0,0,0,0,0,0,1,1,0,0,0
20846704,16.1378,16.0392,92.6466,92.6108,0.0,464.73,0.71297,1.04649,0.0,4,0.0,0.0,0.0,0.0,0.0,0,0,0,0,0,1,1,0,0,0
20894664,15.9974,16.0429,92.588,92.609,0.0,465.963,0.714188,1.04628,0.0,4,0.0,0.0,0.0,0.0,0.0,0,0,0,0,0,1,1,0,0,0
20906704,15.9207,16.0417,92.5587,92.608,0.0,466.273,0.713665,1.04637,0.0,4,0.0,0.0,0.0,0.0,0.0,0,0,0,0,0,1,1,0,0,0
20918666,16.1506,16.0428,92.6173,92.6082,0.0,466.58,0.71403,1.04631,0.0,4,0.0,0.0,0.0,0.0,0.0,0,0,0,0,0,1,1,0,0,0
20930650,15.9591,16.042,92.6759,92.6096,0.0,466.889,0.713656,1.04637,0.0,4,0.0,0.0,0.0,0.0,0.0,0,0,0,0,0,1,1,0,0,0
20942659,15.8697,16.0402,92.6466,92.6103,0.0,467.198,0.712942,1.04649,0.0,4,0.0,0.0,0.0,0.0,0.0,0,0,0,0,0,1,1,0,0,0
20954688,15.9846,16.0397,92.6173,92.6105,0.0,467.507,0.712676,1.04654,0.0,4,0.0,0.0,0.0,0.0,0.0,0,0,0,0,0,1,1,0,0,0
20966744,16.2144,16.0414,92.6466,92.6112,0.0,467.818,0.713297,1.04643,0.0,4,0.0,0.0,0.0,0.0,0.0,0,0,0,0,0,1,1,0,0,0
20978666,16.0101,16.0411,92.6759,92.6125,0.0,468.125,0.713126,1.04646,0.0,4,0.0,0.0,0.0,0.0,0.0,0,0,0,0,0,1,1,0,0,0
20990670,15.8441,16.0391,92.6466,92.6132,0.0,468.434,0.712318,1.0466,0.0,4,0.0,0.0,0.0,0.0,0.0,0,0,0,0,0,1,1,0,0,0
21002673,15.9846,16.0386,92.6173,92.6133,0.0,468.742,0.712059,1.04664,0.0,4,0.0,0.0,0.0,0.0,0.0,0,0,0,0,0,1,1,0,0,0
21014657,16.1633,16.0398,92.6173,92.6133,0.0,469.051,0.712489,1.04657,0.0,4,0.0,0.0,0.0,0.0,0.0,0,0,0,0,0,1,1,0,0,0
21027462,16.0357,16.0398,92.6466,92.614,0.0,469.38,0.712425,1.04658,0.0,4,0.0,0.0,0.0,0.0,0.0,0,0,0,0,0,1,1,0,0,0
21039459,15.8569,16.038,92.6173,92.6141,0.0,469.689,0.711673,1.04671,0.0,4,0.0,0.0,0.0,0.0,0.0,0,0,0,0,0,1,1,0,0,0
21051459,16.0995,16.0386,92.588,92.6136,0.0,469.998,0.711863,1.04667,0.0,4,0.0,0.0,0.0,0.0,0.0,0,0,0,0,0,1,1,0,0,0
21123460,15.9974,16.0348,92.588,92.6117,0.0,471.849,0.710123,1.04697,0.0,4,0.0,0.0,0.0,0.0,0.0,0,0,0,0,0,1,1,0,0,0
21135479,16.2399,16.0368,92.588,92.6112,0.0,472.159,0.710867,1.04684,0.0,4,0.0,0.0,0.0,0.0,0.0,0,0,0,0,0,1,1,0,0,0
21147460,16.2016,16.0385,92.6173,92.6114,0.0,472.467,0.711457,1.04674,0.0,4,0.0,0.0,0.0,0.0,0.0,0,0,0,0,0,1,1,0,0,0
21159459,15.7803,16.0359,92.6466,92.6121,0.0,472.776,0.710421,1.04692,0.0,4,0.0,0.0,0.0,0.0,0.0,0,0,0,0,0,1,1,0,0,0
21171479,15.9846,16.0354,92.588,92.6116,0.0,473.085,0.710181,1.04696,0.0,4,0.0,0.0,0.0,0.0,0.0,0,0,0,0,0,1,1,0,0,0
21183464,15.7931,16.033,92.6173,92.6117,0.0,473.393,0.709206,1.04712,0.0,4,0.0,0.0,0.0,0.0,0.0,0,0,0,0,0,1,1,0,0,0
21195466,16.0101,16.0327,92.588,92.6112,0.0,473.702,0.709076,1.04715,0.0,4,0.0,0.0,0.0,0.0,0.0,0,0,0,0,0,1,1,0,0,0
21207469,15.8569,16.031,92.6173,92.6114,0.0,474.011,0.708358,1.04727,0.0,4,0.0,0.0,0.0,0.0,0.0,0,0,0,0,0,1,1,0,0,0
21219481,16.1761,16.0324,92.588,92.6109,0.0,474.32,0.708875,1.04718,0.0,4,0.0,0.0,0.0,0.0,0.0,0,0,0,0,0,1,1,0,0,0
21231475,16.125,16.0334,92.6466,92.6116,0.0,474.628,0.709191,1.04713,0.0,4,0.0,0.0,0.0,0.0,0.0,0,0,0,0,0,1,1,0,0,0
21243469,16.0995,16.034,92.588,92.6111,0.0,474.937,0.709404,1.04709,0.0,4,0.0,0.0,0.0,0.0,0.0,0,0,0,0,0,1,1,0,0,0
21255457,16.125,16.0349,92.588,92.6107,0.0,475.245,0.709715,1.04704,0.0,4,0.0,0.0,0.0,0.0,0.0,0,0,0,0,0,1,1,0,0,0
21267459,15.9974,16.0346,92.6466,92.6114,0.0,475.554,0.70953,1.04707,0.0,4,0.0,0.0,0.0,0.0,0.0,0,0,0,0,0,1,1,0,0,0
21279481,15.9335,16.0335,92.6173,92.6115,0.0,475.863,0.709102,1.04714,0.0,4,0.0,0.0,0.0,0.0,0.0,0,0,0,0,0,1,1,0,0,0
21292262,16.2016,16.0352,92.5587,92.6105,0.0,476.192,0.70971,1.04704,0.0,4,0.0,0.0,0.0,0.0,0.0,0,0,0,0,0,1,1,0,0,0
21304262,16.2144,16.037,92.5587,92.6094,0.0,476.5,0.71036,1.04693,0.0,4,0.0,0.0,0.0,0.0,0.0,0,0,0,0,0,1,1,0,0,0
21316264,16.1633,16.0383,92.6173,92.6096,0.0,476.809,0.710807,1.04685,0.0,4,0.0,0.0,0.0,0.0,0.0,0,0,0,0,0,1,1,0,0,0
21376271,16.0357,16.0369,92.588,92.6108,0.0,478.353,0.710093,1.04697,0.0,4,0.0,0.0,0.0,0.0,0.0,0,0,0,0,0,1,1,0,0,0
21388267,15.9207,16.0357,92.6466,92.6116,0.0,478.662,0.70961,1.04706,0.0,4,0.0,0.0,0.0,0.0,0.0,0,0,0,0,0,1,1,0,0,0
21400263,15.9846,16.0352,92.6173,92.6117,0.0,478.97,0.709378,1.0471,0.0,4,0.0,0.0,0.0,0.0,0.0,0,0,0,0,0,1,1,0,0,0
21412307,16.0612,16.0355,92.6173,92.6118,0.0,479.28,0.709443,1.04708,0.0,4,0.0,0.0,0.0,0.0,0.0,0,0,0,0,0,1,1,0,0,0
21424264,15.8314,16.0334,92.6173,92.6119,0.0,479.588,0.708623,1.04722,0.0,4,0.0,0.0,0.0,0.0,0.0,0,0,0,0,0,1,1,0,0,0
21436267,15.8697,16.0318,92.6173,92.612,0.0,479.897,0.707959,1.04734,0.0,4,0.0,0.0,0.0,0.0,0.0,0,0,0,0,0,1,1,0,0,0
21448255,16.0229,16.0317,92.588,92.6115,0.0,480.205,0.70789,1.04735,0.0,4,0.0,0.0,0.0,0.0,0.0,0,0,0,0,0,1,1,0,0,0
21460262,15.8952,16.0304,92.6173,92.6116,0.0,480.514,0.707331,1.04744,0.0,4,0.0,0.0,0.0,0.0,0.0,0,0,0,0,0,1,1,0,0,0
21472260,16.0229,16.0303,92.6466,92.6123,0.0,480.823,0.707269,1.04745,0.0,4,0.0,0.0,0.0,0.0,0.0,0,0,0,0,0,1,1,0,0,0
21484259,16.0357,16.0303,92.6173,92.6124,0.0,481.131,0.707256,1.04746,0.0,4,0.0,0.0,0.0,0.0,0.0,0,0,0,0,0,1,1,0,0,0
21496312,15.9335,16.0294,92.6759,92.6137,0.0,481.442,0.706851,1.04752,0.0,4,0.0,0.0,0.0,0.0,0.0,0,0,0,0,0,1,1,0,0,0
21508273,16.0101,16.0292,92.6173,92.6138,0.0,481.749,0.706744,1.04754,0.0,4,0.0,0.0,0.0,0.0,0.0,0,0,0,0,0,1,1,0,0,0
21520273,16.0229,16.0291,92.6466,92.6144,0.0,482.058,0.706688,1.04755,0.0,4,0.0,0.0,0.0,0.0,0.0,0,0,0,0,0,1,1,0,0,0
21532280,16.0229,16.029,92.588,92.6139,0.0,482.367,0.706631,1.04756,0.0,4,0.0,0.0,0.0,0.0,0.0,0,0,0,0,0,1,1,0,0,0
21544259,16.2144,16.0309,92.6173,92.614,0.0,482.675,0.707313,1.04745,0.0,4,0.0,0.0,0.0,0.0,0.0,0,0,0,0,0,1,1,0,0,0
21605057,16.0229,16.031,92.5587,92.6132,0.0,484.239,0.707191,1.04747,0.0,4,0.0,0.0,0.0,0.0,0.0,0,0,0,0,0,1,1,0,0,0
21617087,15.8952,16.0296,92.6466,92.6138,0.0,484.549,0.706638,1.04756,0.0,4,0.0,0.0,0.0,0.0,0.0,0,0,0,0,0,1,1,0,0,0
21629089,15.8697,16.028,92.6173,92.6139,0.0,484.857,0.705994,1.04767,0.0,4,0.0,0.0,0.0,0.0,0.0,0,0,0,0,0,1,1,0,0,0
21641062,16.1889,16.0296,92.6173,92.614,0.0,485.165,0.706583,1.04757,0.0,4,0.0,0.0,0.0,0.0,0.0,0,0,0,0,0,1,1,0,0,0
21653063,16.0357,16.0297,92.588,92.6134,0.0,485.474,0.706578,1.04757,0.0,4,0.0,0.0,0.0,0.0,0.0,0,0,0,0,0,1,1,0,0,0
21665058,16.0101,16.0295,92.6466,92.6141,0.0,485.783,0.706474,1.04759,0.0,4,0.0,0.0,0.0,0.0,0.0,0,0,0,0,0,1,1,0,0,0
21677058,15.9974,16.0292,92.6173,92.6142,0.0,486.092,0.706323,1.04761,0.0,4,0.0,0.0,0.0,0.0,0.0,0,0,0,0,0,1,1,0,0,0
21689072,15.9463,16.0283,92.6173,92.6142,0.0,486.401,0.705976,1.04767,0.0,4,0.0,0.0,0.0,0.0,0.0,0,0,0,0,0,1,1,0,0,0
21701056,16.074,16.0288,92.588,92.6137,0.0,486.709,0.706123,1.04765,0.0,4,0.0,0.0,0.0,0.0,0.0,0,0,0,0,0,1,1,0,0,0
21713059,16.1633,16.0301,92.588,92.6132,0.0,487.018,0.706613,1.04756,0.0,4,0.0,0.0,0.0,0.0,0.0,0,0,0,0,0,1,1,0,0,0
21725058,15.8824,16.0287,92.6466,92.6139,0.0,487.326,0.706018,1.04767,0.0,4,0.0,0.0,0.0,0.0,0.0,0,0,0,0,0,1,1,0,0,0
21737068,16.0357,16.0287,92.6173,92.6139,0.0,487.635,0.706018,1.04767,0.0,4,0.0,0.0,0.0,0.0,0.0,0,0,0,0,0,1,1,0,0,0
21749874,15.8569,16.027,92.588,92.6134,0.0,487.965,0.705331,1.04778,0.0,4,0.0,0.0,0.0,0.0,0.0,0,0,0,0,0,1,1,0,0,0
21761872,16.1889,16.0286,92.6173,92.6135,0.0,488.273,0.705927,1.04768,0.0,4,0.0,0.0,0.0,0.0,0.0,0,0,0,0,0,1,1,0,0,0
21773867,16.0229,16.0286,92.6173,92.6136,0.0,488.582,0.70588,1.04769,0.0,4,0.0,0.0,0.0,0.0,0.0,0,0,0,0,0,1,1,0,0,0
21785860,15.9335,16.0276,92.6173,92.6136,0.0,488.891,0.705489,1.04776,0.0,4,0.0,0.0,0.0,0.0,0.0,0,0,0,0,0,1,1,0,0,0
21797858,16.1123,16.0285,92.6173,92.6137,0.0,489.199,0.705789,1.0477,0.0,4,0.0,0.0,0.0,0.0,0.0,0,0,0,0,0,1,1,0,0,0
21833865,16.0484,16.0243,92.588,92.6128,0.0,490.125,0.704107,1.04799,0.0,4,0.0,0.0,0.0,0.0,0.0,0,0,0,0,0,1,1,0,0,0
21845868,15.8952,16.023,92.588,92.6123,0.0,490.434,0.703586,1.04808,0.0,4,0.0,0.0,0.0,0.0,0.0,0,0,0,0,0,1,1,0,0,0
21857867,15.9846,16.0226,92.6173,92.6124,0.0,490.743,0.703414,1.04811,0.0,4,0.0,0.0,0.0,0.0,0.0,0,0,0,0,0,1,1,0,0,0
21869870,15.9718,16.0221,92.6173,92.6125,0.0,491.052,0.703195,1.04815,0.0,4,0.0,0.0,0.0,0.0,0.0,0,0,0,0,0,1,1,0,0,0
21881881,15.9846,16.0217,92.6173,92.6126,0.0,491.361,0.703027,1.04817,0.0,4,0.0,0.0,0.0,0.0,0.0,0,0,0,0,0,1,1,0,0,0
21893871,15.9974,16.0215,92.6466,92.6133,0.0,491.669,0.70291,1.04819,0.0,4,0.0,0.0,0.0,0.0,0.0,0,0,0,0,0,1,1,0,0,0
21905865,16.2016,16.0233,92.6173,92.6133,0.0,491.978,0.703579,1.04808,0.0,4,0.0,0.0,0.0,0.0,0.0,0,0,0,0,0,1,1,0,0,0
21917862,15.8697,16.0218,92.588,92.6128,0.0,492.286,0.702965,1.04818,0.0,4,0.0,0.0,0.0,0.0,0.0,0,0,0,0,0,1,1,0,0,0
21929860,16.2144,16.0237,92.6466,92.6135,0.0,492.595,0.703683,1.04806,0.0,4,0.0,0.0,0.0,0.0,0.0,0,0,0,0,0,1,1,0,0,0
21941861,15.9335,16.0228,92.588,92.613,0.0,492.904,0.703313,1.04813,0.0,4,0.0,0.0,0.0,0.0,0.0,0,0,0,0,0,1,1,0,0,0
21953856,16.0357,16.0229,92.6466,92.6137,0.0,493.212,0.703341,1.04812,0.0,4,0.0,0.0,0.0,0.0,0.0,0,0,0,0,0,1,1,0,0,0
21965859,16.0484,16.0232,92.588,92.6132,0.0,493.521,0.703417,1.04811,0.0,4,0.0,0.0,0.0,0.0,0.0,0,0,0,0,0,1,1,0,0,0
21977869,15.8058,16.021,92.588,92.6127,0.0,493.83,0.70256,1.04825,0.0,4,0.0,0.0,0.0,0.0,0.0,0,0,0,0,0,1,1,0,0,0
21989876,16.0229,16.021,92.588,92.6122,0.0,494.139,0.702545,1.04826,0.0,4,0.0,0.0,0.0,0.0,0.0,0,0,0,0,0,1,1,0,0,0
22001885,15.9974,16.0208,92.588,92.6117,0.0,494.448,0.702433,1.04828,0.0,4,0.0,0.0,0.0,0.0,0.0,0,0,0,0,0,1,1,0,0,0
22074660,16.074,16.0177,92.588,92.6117,0.0,496.32,0.701118,1.0485,0.0,4,0.0,0.0,0.0,0.0,0.0,0,0,0,0,0,1,1,0,0,0
22086659,16.0867,16.0184,92.6173,92.6118,0.0,496.629,0.701364,1.04846,0.0,4,0.0,0.0,0.0,0.0,0.0,0,0,0,0,0,1,1,0,0,0
22098660,15.9974,16.0182,92.588,92.6114,0.0,496.937,0.701263,1.04847,0.0,4,0.0,0.0,0.0,0.0,0.0,0,0,0,0,0,1,1,0,0,0
22110672,16.2016,16.02,92.6173,92.6115,0.0,497.246,0.70195,1.04836,0.0,4,0.0,0.0,0.0,0.0,0.0,0,0,0,0,0,1,1,0,0,0
22122698,15.8569,16.0184,92.588,92.611,0.0,497.555,0.701303,1.04847,0.0,4,0.0,0.0,0.0,0.0,0.0,0,0,0,0,0,1,1,0,0,0
22134695,16.0101,16.0183,92.588,92.6106,0.0,497.864,0.701252,1.04848,0.0,4,0.0,0.0,0.0,0.0,0.0,0,0,0,0,0,1,1,0,0,0
22146688,15.908,16.0172,92.588,92.6101,0.0,498.172,0.700809,1.04855,0.0,4,0.0,0.0,0.0,0.0,0.0,0,0,0,0,0,1,1,0,0,0
22158672,15.8824,16.0158,92.588,92.6097,0.0,498.481,0.700272,1.04864,0.0,4,0.0,0.0,0.0,0.0,0.0,0,0,0,0,0,1,1,0,0,0
22170658,16.0229,16.0159,92.6173,92.6098,0.0,498.789,0.700281,1.04864,0.0,4,0.0,0.0,0.0,0.0,0.0,0,0,0,0,0,1,1,0,0,0
22182707,16.0101,16.0159,92.588,92.6094,0.0,499.099,0.70024,1.04865,0.0,4,0.0,0.0,0.0,0.0,0.0,0,0,0,0,0,1,1,0,0,0
22194662,16.1889,16.0176,92.6466,92.6101,0.0,499.407,0.700887,1.04854,0.0,4,0.0,0.0,0.0,0.0,0.0,0,0,0,0,0,1,1,0,0,0
22206666,15.9974,16.0174,92.588,92.6097,0.0,499.715,0.700791,1.04855,0.0,4,0.0,0.0,0.0,0.0,0.0,0,0,0,0,0,1,1,0,0,0
22218709,16.2144,16.0194,92.6173,92.6099,0.0,500.025,0.701531,1.04843,0.0,4,0.0,0.0,0.0,0.0,0.0,0,0,0,0,0,1,1,0,0,0
22230695,16.0101,16.0193,92.588,92.6094,0.0,500.333,0.701478,1.04844,0.0,4,0.0,0.0,0.0,0.0,0.0,0,0,0,0,0,1,1,0,0,0
22242681,16.0229,16.0193,92.588,92.609,0.0,500.642,0.701474,1.04844,0.0,4,0.0,0.0,0.0,0.0,0.0,0,0,0,0,0,1,1,0,0,0
22254670,16.2016,16.0211,92.6466,92.6097,0.0,500.95,0.702158,1.04832,0.0,4,0.0,0.0,0.0,0.0,0.0,0,0,0,0,0,1,1,0,0,0
22266670,15.9335,16.0203,92.6466,92.6105,0.0,501.259,0.701804,1.04838,0.0,4,0.0,0.0,0.0,0.0,0.0,0,0,0,0,0,1,1,0,0,0
22302659,16.0229,16.0207,92.6173,92.6109,0.0,502.185,0.701936,1.04836,0.0,4,0.0,0.0,0.0,0.0,0.0,0,0,0,0,0,1,1,0,0,0
22314704,15.9974,16.0205,92.6173,92.611,0.0,502.495,0.701829,1.04838,0.0,4,0.0,0.0,0.0,0.0,0.0,0,0,0,0,0,1,1,0,0,0
22326658,16.0357,16.0206,92.6466,92.6117,0.0,502.802,0.701872,1.04837,0.0,4,0.0,0.0,0.0,0.0,0.0,0,0,0,0,0,1,1,0,0,0
22339457,16.0229,16.0207,92.588,92.6113,0.0,503.132,0.701864,1.04837,0.0,4,0.0,0.0,0.0,0.0,0.0,0,0,0,0,0,1,1,0,0,0
22351464,16.2016,16.0225,92.6466,92.612,0.0,503.441,0.702545,1.04826,0.0,4,0.0,0.0,0.0,0.0,0.0,0,0,0,0,0,1,1,0,0,0
22363475,16.0484,16.0227,92.588,92.6115,0.0,503.75,0.702628,1.04824,0.0,4,0.0,0.0,0.0,0.0,0.0,0,0,0,0,0,1,1,0,0,0
22375474,15.9207,16.0217,92.6759,92.6128,0.0,504.058,0.702219,1.04831,0.0,4,0.0,0.0,0.0,0.0,0.0,0,0,0,0,0,1,1,0,0,0
22387467,16.0357,16.0219,92.6759,92.614,0.0,504.367,0.702258,1.04831,0.0,4,0.0,0.0,0.0,0.0,0.0,0,0,0,0,0,1,1,0,0,0
22399466,16.0229,16.0219,92.588,92.6135,0.0,504.676,0.702246,1.04831,0.0,4,0.0,0.0,0.0,0.0,0.0,0,0,0,0,0,1,1,0,0,0
22411459,16.0101,16.0217,92.6466,92.6142,0.0,504.984,0.702186,1.04832,0.0,4,0.0,0.0,0.0,0.0,0.0,0,0,0,0,0,1,1,0,0,0
22423457,16.0484,16.022,92.6173,92.6142,0.0,505.293,0.702274,1.0483,0.0,4,0.0,0.0,0.0,0.0,0.0,0,0,0,0,0,1,1,0,0,0
22435458,16.1889,16.0237,92.6173,92.6143,0.0,505.602,0.7029,1.0482,0.0,4,0.0,0.0,0.0,0.0,0.0,0,0,0,0,0,1,1,0,0,0
22447457,16.0229,16.0237,92.588,92.6138,0.0,505.91,0.702883,1.0482,0.0,4,0.0,0.0,0.0,0.0,0.0,0,0,0,0,0,1,1,0,0,0
22459461,16.0229,16.0237,92.588,92.6133,0.0,506.219,0.702865,1.0482,0.0,4,0.0,0.0,0.0,0.0,0.0,0,0,0,0,0,1,1,0,0,0
22471459,16.0357,16.0238,92.588,92.6128,0.0,506.528,0.702897,1.0482,0.0,4,0.0,0.0,0.0,0.0,0.0,0,0,0,0,0,1,1,0,0,0
22543478,16.2016,16.0254,92.6173,92.6121,0.0,508.38,0.703431,1.04811,0.0,4,0.0,0.0,0.0,0.0,0.0,0,0,0,0,0,1,1,0,0,0
22555461,16.0101,16.0252,92.6173,92.6123,0.0,508.689,0.703359,1.04812,0.0,4,0.0,0.0,0.0,0.0,0.0,0,0,0,0,0,1,1,0,0,0
22567460,16.0357,16.0253,92.588,92.6118,0.0,508.997,0.703386,1.04811,0.0,4,0.0,0.0,0.0,0.0,0.0,0,0,0,0,0,1,1,0,0,0
22579449,16.2016,16.0271,92.588,92.6113,0.0,509.306,0.70405,1.048,0.0,4,0.0,0.0,0.0,0.0,0.0,0,0,0,0,0,1,1,0,0,0
22592275,15.9974,16.0268,92.588,92.6108,0.0,509.635,0.703923,1.04802,0.0,4,0.0,0.0,0.0,0.0,0.0,0,0,0,0,0,1,1,0,0,0
22604270,16.0867,16.0274,92.6466,92.6115,0.0,509.944,0.70414,1.04798,0.0,4,0.0,0.0,0.0,0.0,0.0,0,0,0,0,0,1,1,0,0,0
22616320,15.9846,16.027,92.6173,92.6117,0.0,510.254,0.703963,1.04802,0.0,4,0.0,0.0,0.0,0.0,0.0,0,0,0,0,0,1,1,0,0,0
22628279,16.2527,16.0292,92.588,92.6112,0.0,510.562,0.704818,1.04787,0.0,4,0.0,0.0,0.0,0.0,0.0,0,0,0,0,0,1,1,0,0,0
22640269,16.2144,16.0311,92.6466,92.6119,0.0,510.87,0.705518,1.04775,0.0,4,0.0,0.0,0.0,0.0,0.0,0,0,0,0,0,1,1,0,0,0
22652261,15.9335,16.0301,92.588,92.6114,0.0,511.179,0.70513,1.04782,0.0,4,0.0,0.0,0.0,0.0,0.0,0,0,0,0,0,1,1,0,0,0
22664259,16.0101,16.0299,92.6759,92.6127,0.0,511.488,0.70504,1.04783,0.0,4,0.0,0.0,0.0,0.0,0.0,0,0,0,0,0,1,1,0,0,0
22676276,16.0229,16.0298,92.6173,92.6128,0.0,511.797,0.705,1.04784,0.0,4,0.0,0.0,0.0,0.0,0.0,0,0,0,0,0,1,1,0,0,0
22688264,15.9718,16.0293,92.6173,92.6129,0.0,512.105,0.704765,1.04788,0.0,4,0.0,0.0,0.0,0.0,0.0,0,0,0,0,0,1,1,0,0,0
22700308,16.0357,16.0293,92.6173,92.613,0.0,512.415,0.704778,1.04788,0.0,4,0.0,0.0,0.0,0.0,0.0,0,0,0,0,0,1,1,0,0,0
22712259,16.0484,16.0295,92.6173,92.6131,0.0,512.722,0.70484,1.04787,0.0,4,0.0,0.0,0.0,0.0,0.0,0,0,0,0,0,1,1,0,0,0
22724262,15.8697,16.0279,92.6466,92.6138,0.0,513.031,0.704214,1.04797,0.0,4,0.0,0.0,0.0,0.0,0.0,0,0,0,0,0,1,1,0,0,0
22736261,16.0612,16.0283,92.588,92.6132,0.0,513.34,0.704329,1.04795,0.0,4,0.0,0.0,0.0,0.0,0.0,0,0,0,0,0,1,1,0,0,0
22784276,15.8952,16.0289,92.588,92.6124,0.0,514.575,0.704527,1.04792,0.0,4,0.0,0.0,0.0,0.0,0.0,0,0,0,0,0,1,1,0,0,0
22796273,16.0612,16.0292,92.588,92.6119,0.0,514.884,0.70464,1.0479,0.0,4,0.0,0.0,0.0,0.0,0.0,0,0,0,0,0,1,1,0,0,0
22808280,16.0229,16.0291,92.6466,92.6126,0.0,515.193,0.704605,1.04791,0.0,4,0.0,0.0,0.0,0.0,0.0,0,0,0,0,0,1,1,0,0,0
22820279,16.0101,16.029,92.588,92.6121,0.0,515.501,0.70452,1.04792,0.0,4,0.0,0.0,0.0,0.0,0.0,0,0,0,0,0,1,1,0,0,0
22832273,15.9463,16.0281,92.588,92.6117,0.0,515.81,0.704192,1.04798,0.0,4,0.0,0.0,0.0,0.0,0.0,0,0,0,0,0,1,1,0,0,0
22844279,15.7548,16.0254,92.588,92.6112,0.0,516.118,0.70313,1.04816,0.0,4,0.0,0.0,0.0,0.0,0.0,0,0,0,0,0,1,1,0,0,0
22857062,16.1123,16.0263,92.6466,92.6119,0.0,516.447,0.703454,1.0481,0.0,4,0.0,0.0,0.0,0.0,0.0,0,0,0,0,0,1,1,0,0,0
22869064,16.125,16.0273,92.588,92.6114,0.0,516.756,0.703823,1.04804,0.0,4,0.0,0.0,0.0,0.0,0.0,0,0,0,0,0,1,1,0,0,0
22881075,16.1378,16.0284,92.6173,92.6115,0.0,517.065,0.704237,1.04797,0.0,4,0.0,0.0,0.0,0.0,0.0,0,0,0,0,0,1,1,0,0,0
22893082,16.0484,16.0286,92.588,92.6111,0.0,517.374,0.704304,1.04796,0.0,4,0.0,0.0,0.0,0.0,0.0,0,0,0,0,0,1,1,0,0,0
22905077,16.1123,16.0294,92.6173,92.6112,0.0,517.682,0.704616,1.0479,0.0,4,0.0,0.0,0.0,0.0,0.0,0,0,0,0,0,1,1,0,0,0
22917101,16.0995,16.0301,92.6466,92.6119,0.0,517.992,0.704876,1.04786,0.0,4,0.0,0.0,0.0,0.0,0.0,0,0,0,0,0,1,1,0,0,0
22929056,15.9846,16.0296,92.588,92.6114,0.0,518.299,0.704691,1.04789,0.0,4,0.0,0.0,0.0,0.0,0.0,0,0,0,0,0,1,1,0,0,0
22941062,16.0101,16.0294,92.6466,92.6121,0.0,518.608,0.704607,1.04791,0.0,4,0.0,0.0,0.0,0.0,0.0,0,0,0,0,0,1,1,0,0,0
22953062,15.9846,16.029,92.6466,92.6128,0.0,518.917,0.704425,1.04794,0.0,4,0.0,0.0,0.0,0.0,0.0,0,0,0,0,0,1,1,0,0,0
22965070,16.0229,16.0289,92.6173,92.6129,0.0,519.226,0.704391,1.04794,0.0,4,0.0,0.0,0.0,0.0,0.0,0,0,0,0,0,1,1,0,0,0
23037056,16.074,16.0324,92.588,92.6139,0.0,521.078,0.705658,1.04773,0.0,4,0.0,0.0,0.0,0.0,0.0,0,0,0,0,0,1,1,0,0,0
23049056,16.2016,16.0341,92.6466,92.6146,0.0,521.387,0.7063,1.04762,0.0,4,0.0,0.0,0.0,0.0,0.0,0,0,0,0,0,1,1,0,0,0
23061058,15.9591,16.0333,92.5587,92.6135,0.0,521.696,0.706003,1.04767,0.0,4,0.0,0.0,0.0,0.0,0.0,0,0,0,0,0,1,1,0,0,0
23073868,16.0229,16.0332,92.6173,92.6136,0.0,522.025,0.705954,1.04768,0.0,4,0.0,0.0,0.0,0.0,0.0,0,0,0,0,0,1,1,0,0,0
23085869,16.0484,16.0334,92.588,92.6131,0.0,522.334,0.706004,1.04767,0.0,4,0.0,0.0,0.0,0.0,0.0,0,0,0,0,0,1,1,0,0,0
23097870,16.0357,16.0334,92.588,92.6126,0.0,522.643,0.706004,1.04767,0.0,4,0.0,0.0,0.0,0.0,0.0,0,0,0,0,0,1,1,0,0,0
23109889,15.9718,16.0328,92.5294,92.6109,0.0,522.951,0.705759,1.04771,0.0,4,0.0,0.0,0.0,0.0,0.0,0,0,0,0,0,1,1,0,0,0
23121860,16.0357,16.0328,92.6466,92.6116,0.0,523.26,0.70576,1.04771,0.0,4,0.0,0.0,0.0,0.0,0.0,0,0,0,0,0,1,1,0,0,0
23133862,15.908,16.0316,92.6466,92.6123,0.0,523.568,0.705273,1.04779,0.0,4,0.0,0.0,0.0,0.0,0.0,0,0,0,0,0,1,1,0,0,0
23145855,15.9591,16.0308,92.6173,92.6124,0.0,523.877,0.704986,1.04784,0.0,4,0.0,0.0,0.0,0.0,0.0,0,0,0,0,0,1,1,0,0,0
23157854,16.2782,16.0333,92.6173,92.6125,0.0,524.186,0.705929,1.04768,0.0,4,0.0,0.0,0.0,0.0,0.0,0,0,0,0,0,1,1,0,0,0
23169862,15.8569,16.0315,92.6173,92.6126,0.0,524.495,0.705242,1.0478,0.0,4,0.0,0.0,0.0,0.0,0.0,0,0,0,0,0,1,1,0,0,0
23181875,15.908,16.0303,92.6173,92.6127,0.0,524.804,0.704759,1.04788,0.0,4,0.0,0.0,0.0,0.0,0.0,0,0,0,0,0,1,1,0,0,0
23193866,15.8824,16.0288,92.588,92.6122,0.0,525.112,0.704183,1.04798,0.0,4,0.0,0.0,0.0,0.0,0.0,0,0,0,0,0,1,1,0,0,0
23205872,15.8952,16.0275,92.588,92.6117,0.0,525.421,0.703661,1.04807,0.0,4,0.0,0.0,0.0,0.0,0.0,0,0,0,0,0,1,1,0,0,0
23217869,15.9718,16.0269,92.588,92.6113,0.0,525.729,0.703439,1.0481,0.0,4,0.0,0.0,0.0,0.0,0.0,0,0,0,0,0,1,1,0,0,0
23229875,16.0357,16.027,92.6466,92.612,0.0,526.038,0.703465,1.0481,0.0,4,0.0,0.0,0.0,0.0,0.0,0,0,0,0,0,1,1,0,0,0
23253866,16.0612,16.0274,92.6466,92.6133,0.0,526.656,0.703614,1.04807,0.0,4,0.0,0.0,0.0,0.0,0.0,0,0,0,0,0,1,1,0,0,0
23265859,16.1889,16.0291,92.588,92.6128,0.0,526.964,0.704227,1.04797,0.0,4,0.0,0.0,0.0,0.0,0.0,0,0,0,0,0,1,1,0,0,0
23277860,16.0357,16.0291,92.6466,92.6135,0.0,527.273,0.704246,1.04797,0.0,4,0.0,0.0,0.0,0.0,0.0,0,0,0,0,0,1,1,0,0,0
23289860,16.2272,16.0311,92.5587,92.6124,0.0,527.582,0.705,1.04784,0.0,4,0.0,0.0,0.0,0.0,0.0,0,0,0,0,0,1,1,0,0,0
23301865,16.1378,16.0322,92.588,92.6119,0.0,527.891,0.705403,1.04777,0.0,4,0.0,0.0,0.0,0.0,0.0,0,0,0,0,0,1,1,0,0,0
23313870,16.0867,16.0327,92.588,92.6115,0.0,528.199,0.705605,1.04774,0.0,4,0.0,0.0,0.0,0.0,0.0,0,0,0,0,0,1,1,0,0,0
23325874,16.2016,16.0344,92.588,92.611,0.0,528.508,0.706248,1.04763,0.0,4,0.0,0.0,0.0,0.0,0.0,0,0,0,0,0,1,1,0,0,0
23337863,16.2655,16.0367,92.6173,92.6111,0.0,528.816,0.707129,1.04748,0.0,4,0.0,0.0,0.0,0.0,0.0,0,0,0,0,0,1,1,0,0,0
23349864,16.0357,16.0367,92.6173,92.6112,0.0,529.125,0.707118,1.04748,0.0,4,0.0,0.0,0.0,0.0,0.0,0,0,0,0,0,1,1,0,0,0
23361876,16.0101,16.0364,92.6466,92.612,0.0,529.434,0.707009,1.0475,0.0,4,0.0,0.0,0.0,0.0,0.0,0,0,0,0,0,1,1,0,0,0
23374661,15.9846,16.0359,92.6466,92.6126,0.0,529.763,0.706802,1.04753,0.0,4,0.0,0.0,0.0,0.0,0.0,0,0,0,0,0,1,1,0,0,0
23386664,16.0229,16.0358,92.588,92.6122,0.0,530.072,0.706746,1.04754,0.0,4,0.0,0.0,0.0,0.0,0.0,0,0,0,0,0,1,1,0,0,0
23398664,16.1889,16.0373,92.6466,92.6129,0.0,530.381,0.707328,1.04744,0.0,4,0.0,0.0,0.0,0.0,0.0,0,0,0,0,0,1,1,0,0,0
23410668,16.2016,16.039,92.588,92.6124,0.0,530.69,0.707953,1.04734,0.0,4,0.0,0.0,0.0,0.0,0.0,0,0,0,0,0,1,1,0,0,0
23422672,15.9591,16.0382,92.6466,92.613,0.0,530.999,0.707639,1.04739,0.0,4,0.0,0.0,0.0,0.0,0.0,0,0,0,0,0,1,1,0,0,0
23434744,15.8952,16.0367,92.6173,92.6131,0.0,531.309,0.707083,1.04748,0.0,4,0.0,0.0,0.0,0.0,0.0,0,0,0,0,0,1,1,0,0,0
23506660,16.0484,16.0357,92.6466,92.6142,0.0,533.159,0.70664,1.04756,0.0,4,0.0,0.0,0.0,0.0,0.0,0,0,0,0,0,1,1,0,0,0
23518721,16.1506,16.0368,92.6173,92.6142,0.0,533.47,0.707075,1.04749,0.0,4,0.0,0.0,0.0,0.0,0.0,0,0,0,0,0,1,1,0,0,0
23530686,15.9463,16.0359,92.588,92.6137,0.0,533.777,0.706721,1.04755,0.0,4,0.0,0.0,0.0,0.0,0.0,0,0,0,0,0,1,1,0,0,0
23542675,16.2272,16.0378,92.6173,92.6138,0.0,534.086,0.707451,1.04742,0.0,4,0.0,0.0,0.0,0.0,0.0,0,0,0,0,0,1,1,0,0,0
23554678,16.0357,16.0378,92.6173,92.6138,0.0,534.395,0.707437,1.04742,0.0,4,0.0,0.0,0.0,0.0,0.0,0,0,0,0,0,1,1,0,0,0
23566668,15.8441,16.0359,92.5587,92.6127,0.0,534.703,0.706686,1.04755,0.0,4,0.0,0.0,0.0,0.0,0.0,0,0,0,0,0,1,1,0,0,0
23578677,15.9974,16.0355,92.588,92.6123,0.0,535.012,0.706532,1.04758,0.0,4,0.0,0.0,0.0,0.0,0.0,0,0,0,0,0,1,1,0,0,0
23590773,15.8314,16.0335,92.588,92.6118,0.0,535.323,0.705742,1.04771,0.0,4,0.0,0.0,0.0,0.0,0.0,0,0,0,0,0,1,1,0,0,0
23602658,15.6399,16.0295,92.6173,92.6119,0.0,535.629,0.704223,1.04797,0.0,4,0.0,0.0,0.0,0.0,0.0,0,0,0,0,0,1,1,0,0,0
23614657,16.2272,16.0315,92.588,92.6114,0.0,535.937,0.704977,1.04784,0.0,4,0.0,0.0,0.0,0.0,0.0,0,0,0,0,0,1,1,0,0,0
23626660,16.1889,16.0331,92.6173,92.6115,0.0,536.246,0.705577,1.04774,0.0,4,0.0,0.0,0.0,0.0,0.0,0,0,0,0,0,1,1,0,0,0
23639465,16.074,16.0335,92.6173,92.6116,0.0,536.575,0.705729,1.04772,0.0,4,0.0,0.0,0.0,0.0,0.0,0,0,0,0,0,1,1,0,0,0
23651463,16.125,16.0344,92.588,92.6112,0.0,536.884,0.706075,1.04766,0.0,4,0.0,0.0,0.0,0.0,0.0,0,0,0,0,0,1,1,0,0,0
23663474,16.0229,16.0343,92.588,92.6107,0.0,537.193,0.706026,1.04766,0.0,4,0.0,0.0,0.0,0.0,0.0,0,0,0,0,0,1,1,0,0,0
23675470,15.9846,16.0338,92.588,92.6103,0.0,537.501,0.70583,1.0477,0.0,4,0.0,0.0,0.0,0.0,0.0,0,0,0,0,0,1,1,0,0,0
23687470,15.9207,16.0327,92.6466,92.611,0.0,537.81,0.705389,1.04777,0.0,4,0.0,0.0,0.0,0.0,0.0,0,0,0,0,0,1,1,0,0,0
23699463,15.9463,16.0318,92.6173,92.6111,0.0,538.119,0.705052,1.04783,0.0,4,0.0,0.0,0.0,0.0,0.0,0,0,0,0,0,1,1,0,0,0
23735460,16.0357,16.0314,92.588,92.6115,0.0,539.045,0.704891,1.04786,0.0,4,0.0,0.0,0.0,0.0,0.0,0,0,0,0,0,1,1,0,0,0
23747465,16.0357,16.0315,92.588,92.611,0.0,539.354,0.704902,1.04786,0.0,4,0.0,0.0,0.0,0.0,0.0,0,0,0,0,0,1,1,0,0,0
23759459,16.0101,16.0312,92.588,92.6105,0.0,539.662,0.704814,1.04787,0.0,4,0.0,0.0,0.0,0.0,0.0,0,0,0,0,0,1,1,0,0,0
23771471,15.9718,16.0306,92.5587,92.6095,0.0,539.971,0.704582,1.04791,0.0,4,0.0,0.0,0.0,0.0,0.0,0,0,0,0,0,1,1,0,0,0
23783457,16.1761,16.0321,92.6466,92.6102,0.0,540.279,0.705136,1.04782,0.0,4,0.0,0.0,0.0,0.0,0.0,0,0,0,0,0,1,1,0,0,0
23795456,16.0229,16.032,92.6173,92.6104,0.0,540.588,0.705097,1.04782,0.0,4,0.0,0.0,0.0,0.0,0.0,0,0,0,0,0,1,1,0,0,0
23807460,16.2144,16.0338,92.588,92.6099,0.0,540.897,0.705793,1.0477,0.0,4,0.0,0.0,0.0,0.0,0.0,0,0,0,0,0,1,1,0,0,0
23819461,16.2144,16.0356,92.588,92.6095,0.0,541.206,0.706483,1.04759,0.0,4,0.0,0.0,0.0,0.0,0.0,0,0,0,0,0,1,1,0,0,0
23831460,16.0484,16.0358,92.6466,92.6103,0.0,541.514,0.706527,1.04758,0.0,4,0.0,0.0,0.0,0.0,0.0,0,0,0,0,0,1,1,0,0,0
23843470,16.1378,16.0368,92.6173,92.6104,0.0,541.823,0.706915,1.04751,0.0,4,0.0,0.0,0.0,0.0,0.0,0,0,0,0,0,1,1,0,0,0
23855470,16.0612,16.037,92.6173,92.6105,0.0,542.132,0.707005,1.0475,0.0,4,0.0,0.0,0.0,0.0,0.0,0,0,0,0,0,1,1,0,0,0
23867489,16.0101,16.0368,92.588,92.6101,0.0,542.441,0.706897,1.04752,0.0,4,0.0,0.0,0.0,0.0,0.0,0,0,0,0,0,1,1,0,0,0
23879467,15.9974,16.0364,92.588,92.6096,0.0,542.749,0.70674,1.04754,0.0,4,0.0,0.0,0.0,0.0,0.0,0,0,0,0,0,1,1,0,0,0
23892262,16.0484,16.0365,92.588,92.6092,0.0,543.078,0.706782,1.04754,0.0,4,0.0,0.0,0.0,0.0,0.0,0,0,0,0,0,1,1,0,0,0
23904307,16.0484,16.0366,92.6173,92.6094,0.0,543.388,0.706824,1.04753,0.0,4,0.0,0.0,0.0,0.0,0.0,0,0,0,0,0,1,1,0,0,0
23916259,16.0357,16.0366,92.5294,92.6078,0.0,543.695,0.706816,1.04753,0.0,4,0.0,0.0,0.0,0.0,0.0,0,0,0,0,0,1,1,0,0,0
23964270,16.0484,16.0377,92.588,92.6079,0.0,544.93,0.707218,1.04746,0.0,4,0.0,0.0,0.0,0.0,0.0,0,0,0,0,0,1,1,0,0,0
23976271,15.9974,16.0373,92.6173,92.6081,0.0,545.239,0.70706,1.04749,0.0,4,0.0,0.0,0.0,0.0,0.0,0,0,0,0,0,1,1,0,0,0
23988281,15.9974,16.0369,92.6173,92.6083,0.0,545.548,0.706902,1.04752,0.0,4,0.0,0.0,0.0,0.0,0.0,0,0,0,0,0,1,1,0,0,0
24000253,16.2527,16.039,92.6173,92.6085,0.0,545.856,0.707729,1.04738,0.0,4,0.0,0.0,0.0,0.0,0.0,0,0,0,0,0,1,1,0,0,0
24012259,16.0357,16.039,92.6173,92.6087,0.0,546.165,0.707711,1.04738,0.0,4,0.0,0.0,0.0,0.0,0.0,0,0,0,0,0,1,1,0,0,0
24024288,16.074,16.0394,92.588,92.6082,0.0,546.474,0.707842,1.04736,0.0,4,0.0,0.0,0.0,0.0,0.0,0,0,0,0,0,1,1,0,0,0
24036281,16.0229,16.0392,92.588,92.6078,0.0,546.783,0.707774,1.04737,0.0,4,0.0,0.0,0.0,0.0,0.0,0,0,0,0,0,1,1,0,0,0
24048267,16.1761,16.0406,92.6173,92.608,0.0,547.091,0.708297,1.04728,0.0,4,0.0,0.0,0.0,0.0,0.0,0,0,0,0,0,1,1,0,0,0
24060264,16.1378,16.0415,92.6466,92.6088,0.0,547.4,0.708668,1.04722,0.0,4,0.0,0.0,0.0,0.0,0.0,0,0,0,0,0,1,1,0,0,0
24072307,16.2272,16.0434,92.5294,92.6072,0.0,547.709,0.709377,1.0471,0.0,4,0.0,0.0,0.0,0.0,0.0,0,0,0,0,0,1,1,0,0,0
24084261,16.2399,16.0454,92.6466,92.608,0.0,548.017,0.710129,1.04697,0.0,4,0.0,0.0,0.0,0.0,0.0,0,0,0,0,0,1,1,0,0,0
24096258,15.9718,16.0446,92.6173,92.6082,0.0,548.326,0.709842,1.04702,0.0,4,0.0,0.0,0.0,0.0,0.0,0,0,0,0,0,1,1,0,0,0
24108265,15.9591,16.0438,92.5587,92.6072,0.0,548.634,0.709509,1.04707,0.0,4,0.0,0.0,0.0,0.0,0.0,0,0,0,0,0,1,1,0,0,0
24120275,16.1378,16.0447,92.6466,92.608,0.0,548.944,0.709867,1.04701,0.0,4,0.0,0.0,0.0,0.0,0.0,0,0,0,0,0,1,1,0,0,0
24132273,16.2272,16.0465,92.588,92.6076,0.0,549.252,0.710566,1.04689,0.0,4,0.0,0.0,0.0,0.0,0.0,0,0,0,0,0,1,1,0,0,0
24144267,16.2272,16.0483,92.6466,92.6084,0.0,549.561,0.711257,1.04678,0.0,4,0.0,0.0,0.0,0.0,0.0,0,0,0,0,0,1,1,0,0,0
24157056,16.0357,16.0482,92.588,92.608,0.0,549.89,0.711205,1.04679,0.0,4,0.0,0.0,0.0,0.0,0.0,0,0,0,0,0,1,1,0,0,0
24193064,16.0867,16.0478,92.6173,92.608,0.0,550.816,0.711053,1.04681,0.0,4,0.0,0.0,0.0,0.0,0.0,0,0,0,0,0,1,1,0,0,0
24205056,16.1889,16.0493,92.588,92.6076,0.0,551.124,0.711593,1.04672,0.0,4,0.0,0.0,0.0,0.0,0.0,0,0,0,0,0,1,1,0,0,0
24217061,16.1761,16.0505,92.588,92.6072,0.0,551.433,0.712077,1.04664,0.0,4,0.0,0.0,0.0,0.0,0.0,0,0,0,0,0,1,1,0,0,0
24229057,15.9463,16.0495,92.588,92.6068,0.0,551.742,0.711673,1.04671,0.0,4,0.0,0.0,0.0,0.0,0.0,0,0,0,0,0,1,1,0,0,0
24241073,15.9463,16.0485,92.588,92.6064,0.0,552.051,0.711273,1.04677,0.0,4,0.0,0.0,0.0,0.0,0.0,0,0,0,0,0,1,1,0,0,0
24253067,15.9974,16.0479,92.6173,92.6066,0.0,552.359,0.711072,1.04681,0.0,4,0.0,0.0,0.0,0.0,0.0,0,0,0,0,0,1,1,0,0,0
24265071,16.2016,16.0495,92.588,92.6063,0.0,552.668,0.711661,1.04671,0.0,4,0.0,0.0,0.0,0.0,0.0,0,0,0,0,0,1,1,0,0,0
24277064,16.0612,16.0496,92.6466,92.6071,0.0,552.977,0.711703,1.0467,0.0,4,0.0,0.0,0.0,0.0,0.0,0,0,0,0,0,1,1,0,0,0
24289067,16.0995,16.0501,92.6466,92.6079,0.0,553.286,0.711891,1.04667,0.0,4,0.0,0.0,0.0,0.0,0.0,0,0,0,0,0,1,1,0,0,0
24301078,16.0357,16.05,92.6173,92.6081,0.0,553.595,0.711833,1.04668,0.0,4,0.0,0.0,0.0,0.0,0.0,0,0,0,0,0,1,1,0,0,0
24313067,15.9207,16.0487,92.6759,92.6094,0.0,553.903,0.711333,1.04676,0.0,4,0.0,0.0,0.0,0.0,0.0,0,0,0,0,0,1,1,0,0,0
24325071,16.0357,16.0485,92.588,92.609,0.0,554.212,0.711279,1.04677,0.0,4,0.0,0.0,0.0,0.0,0.0,0,0,0,0,0,1,1,0,0,0
24337084,16.0101,16.0481,92.588,92.6086,0.0,554.521,0.711129,1.0468,0.0,4,0.0,0.0,0.0,0.0,0.0,0,0,0,0,0,1,1,0,0,0
24349060,15.908,16.0467,92.588,92.6082,0.0,554.829,0.710587,1.04689,0.0,4,0.0,0.0,0.0,0.0,0.0,0,0,0,0,0,1,1,0,0,0
24361861,15.9974,16.0463,92.588,92.6078,0.0,555.158,0.710394,1.04692,0.0,4,0.0,0.0,0.0,0.0,0.0,0,0,0,0,0,1,1,0,0,0
24373864,16.2016,16.0478,92.588,92.6074,0.0,555.467,0.710989,1.04682,0.0,4,0.0,0.0,0.0,0.0,0.0,0,0,0,0,0,1,1,0,0,0
24457859,15.9463,16.0502,92.6173,92.6087,0.0,557.628,0.711889,1.04667,0.0,4,0.0,0.0,0.0,0.0,0.0,0,0,0,0,0,1,1,0,0,0
24469871,16.074,16.0504,92.5587,92.6077,0.0,557.937,0.711978,1.04665,0.0,4,0.0,0.0,0.0,0.0,0.0,0,0,0,0,0,1,1,0,0,0
24481866,16.2016,16.0519,92.6173,92.6079,0.0,558.245,0.712557,1.04656,0.0,4,0.0,0.0,0.0,0.0,0.0,0,0,0,0,0,1,1,0,0,0
24493870,16.0229,16.0517,92.588,92.6075,0.0,558.554,0.712443,1.04658,0.0,4,0.0,0.0,0.0,0.0,0.0,0,0,0,0,0,1,1,0,0,0
24505876,15.9463,16.0506,92.588,92.6071,0.0,558.863,0.712035,1.04664,0.0,4,0.0,0.0,0.0,0.0,0.0,0,0,0,0,0,1,1,0,0,0
24517869,15.8058,16.0482,92.588,92.6067,0.0,559.171,0.711091,1.0468,0.0,4,0.0,0.0,0.0,0.0,0.0,0,0,0,0,0,1,1,0,0,0
24529880,15.908,16.0468,92.588,92.6064,0.0,559.48,0.710549,1.0469,0.0,4,0.0,0.0,0.0,0.0,0.0,0,0,0,0,0,1,1,0,0,0
24541872,16.0995,16.0473,92.6466,92.6072,0.0,559.789,0.71075,1.04686,0.0,4,0.0,0.0,0.0,0.0,0.0,0,0,0,0,0,1,1,0,0,0
24553862,16.0612,16.0474,92.6759,92.6086,0.0,560.097,0.710801,1.04685,0.0,4,0.0,0.0,0.0,0.0,0.0,0,0,0,0,0,1,1,0,0,0
24565867,15.9718,16.0467,92.6173,92.6087,0.0,560.406,0.710508,1.0469,0.0,4,0.0,0.0,0.0,0.0,0.0,0,0,0,0,0,1,1,0,0,0
24577856,15.8697,16.0449,92.6173,92.6089,0.0,560.715,0.709825,1.04702,0.0,4,0.0,0.0,0.0,0.0,0.0,0,0,0,0,0,1,1,0,0,0
24589856,16.1761,16.0462,92.588,92.6085,0.0,561.023,0.710327,1.04693,0.0,4,0.0,0.0,0.0,0.0,0.0,0,0,0,0,0,1,1,0,0,0
24601858,16.0357,16.0461,92.6466,92.6092,0.0,561.332,0.710284,1.04694,0.0,4,0.0,0.0,0.0,0.0,0.0,0,0,0,0,0,1,1,0,0,0
24613864,15.8441,16.0441,92.6466,92.61,0.0,561.641,0.709505,1.04707,0.0,4,0.0,0.0,0.0,0.0,0.0,0,0,0,0,0,1,1,0,0,0
24625871,16.0484,16.0441,92.6173,92.6101,0.0,561.95,0.709519,1.04707,0.0,4,0.0,0.0,0.0,0.0,0.0,0,0,0,0,0,1,1,0,0,0
24637878,16.2144,16.0458,92.588,92.6097,0.0,562.259,0.710172,1.04696,0.0,4,0.0,0.0,0.0,0.0,0.0,0,0,0,0,0,1,1,0,0,0
24661870,16.0357,16.0455,92.6466,92.61,0.0,562.876,0.710041,1.04698,0.0,4,0.0,0.0,0.0,0.0,0.0,0,0,0,0,0,1,1,0,0,0
24674663,16.0101,16.0452,92.6466,92.6107,0.0,563.205,0.709903,1.04701,0.0,4,0.0,0.0,0.0,0.0,0.0,0,0,0,0,0,1,1,0,0,0
24686664,15.9463,16.0442,92.6466,92.6115,0.0,563.514,0.709521,1.04707,0.0,4,0.0,0.0,0.0,0.0,0.0,0,0,0,0,0,1,1,0,0,0
24698668,15.9207,16.0429,92.588,92.611,0.0,563.823,0.709044,1.04715,0.0,4,0.0,0.0,0.0,0.0,0.0,0,0,0,0,0,1,1,0,0,0
24710658,16.0101,16.0426,92.6466,92.6117,0.0,564.131,0.708916,1.04717,0.0,4,0.0,0.0,0.0,0.0,0.0,0,0,0,0,0,1,1,0,0,0
24722685,16.2144,16.0443,92.6759,92.613,0.0,564.441,0.709575,1.04706,0.0,4,0.0,0.0,0.0,0.0,0.0,0,0,0,0,0,1,1,0,0,0
24734740,16.2144,16.046,92.6173,92.6131,0.0,564.751,0.710227,1.04695,0.0,4,0.0,0.0,0.0,0.0,0.0,0,0,0,0,0,1,1,0,0,0
24746688,16.2144,16.0477,92.5587,92.612,0.0,565.058,0.710872,1.04684,0.0,4,0.0,0.0,0.0,0.0,0.0,0,0,0,0,0,1,1,0,0,0
24758667,15.9974,16.0472,92.6466,92.6127,0.0,565.367,0.710677,1.04688,0.0,4,0.0,0.0,0.0,0.0,0.0,0,0,0,0,0,1,1,0,0,0
24770670,16.2144,16.0489,92.588,92.6122,0.0,565.675,0.711318,1.04677,0.0,4,0.0,0.0,0.0,0.0,0.0,0,0,0,0,0,1,1,0,0,0
24782684,15.9718,16.0481,92.5587,92.6111,0.0,565.984,0.711019,1.04682,0.0,4,0.0,0.0,0.0,0.0,0.0,0,0,0,0,0,1,1,0,0,0
24794666,16.074,16.0484,92.5587,92.6101,0.0,566.292,0.711117,1.0468,0.0,4,0.0,0.0,0.0,0.0,0.0,0,0,0,0,0,1,1,0,0,0
24806657,16.1123,16.049,92.6466,92.6108,0.0,566.601,0.71136,1.04676,0.0,4,0.0,0.0,0.0,0.0,0.0,0,0,0,0,0,1,1,0,0,0
24818661,15.9335,16.0478,92.6173,92.6109,0.0,566.91,0.710914,1.04683,0.0,4,0.0,0.0,0.0,0.0,0.0,0,0,0,0,0,1,1,0,0,0
24830664,16.0484,16.0479,92.5587,92.6099,0.0,567.218,0.710915,1.04683,0.0,4,0.0,0.0,0.0,0.0,0.0,0,0,0,0,0,1,1,0,0,0
24842717,16.0101,16.0475,92.588,92.6095,0.0,567.528,0.710767,1.04686,0.0,4,0.0,0.0,0.0,0.0,0.0,0,0,0,0,0,1,1,0,0,0
24926660,16.2399,16.0493,92.6173,92.6106,0.0,569.688,0.711452,1.04674,0.0,4,0.0,0.0,0.0,0.0,0.0,0,0,0,0,0,1,1,0,0,0
24939459,16.0612,16.0494,92.6466,92.6113,0.0,570.017,0.711496,1.04674,0.0,4,0.0,0.0,0.0,0.0,0.0,0,0,0,0,0,1,1,0,0,0
24951477,16.0229,16.0491,92.588,92.6108,0.0,570.326,0.711392,1.04675,0.0,4,0.0,0.0,0.0,0.0,0.0,0,0,0,0,0,1,1,0,0,0
24963467,16.0484,16.0491,92.6173,92.611,0.0,570.635,0.711387,1.04675,0.0,4,0.0,0.0,0.0,0.0,0.0,0,0,0,0,0,1,1,0,0,0
24975465,15.9846,16.0485,92.6466,92.6117,0.0,570.944,0.711138,1.0468,0.0,4,0.0,0.0,0.0,0.0,0.0,0,0,0,0,0,1,1,0,0,0
24987465,16.0229,16.0482,92.588,92.6112,0.0,571.252,0.711037,1.04681,0.0,4,0.0,0.0,0.0,0.0,0.0,0,0,0,0,0,1,1,0,0,0
24999474,16.0867,16.0486,92.6466,92.6119,0.0,571.561,0.711184,1.04679,0.0,4,0.0,0.0,0.0,0.0,0.0,0,0,0,0,0,1,1,0,0,0
25011460,16.2399,16.0505,92.5587,92.6109,0.0,571.87,0.711918,1.04666,0.0,4,0.0,0.0,0.0,0.0,0.0,0,0,0,0,0,1,1,0,0,0
25023461,16.2272,16.0523,92.6466,92.6116,0.0,572.178,0.712595,1.04655,0.0,4,0.0,0.0,0.0,0.0,0.0,0,0,0,0,0,1,1,0,0,0
25035460,15.9463,16.0512,92.6173,92.6117,0.0,572.487,0.712186,1.04662,0.0,4,0.0,0.0,0.0,0.0,0.0,0,0,0,0,0,1,1,0,0,0
25047456,16.0867,16.0516,92.588,92.6112,0.0,572.796,0.71232,1.0466,0.0,4,0.0,0.0,0.0,0.0,0.0,0,0,0,0,0,1,1,0,0,0
25059462,16.0357,16.0514,92.588,92.6108,0.0,573.104,0.712257,1.04661,0.0,4,0.0,0.0,0.0,0.0,0.0,0,0,0,0,0,1,1,0,0,0
25071462,16.0101,16.051,92.6173,92.6109,0.0,573.413,0.712097,1.04663,0.0,4,0.0,0.0,0.0,0.0,0.0,0,0,0,0,0,1,1,0,0,0
25083461,16.2272,16.0528,92.588,92.6104,0.0,573.722,0.712773,1.04652,0.0,4,0.0,0.0,0.0,0.0,0.0,0,0,0,0,0,1,1,0,0,0
25095460,16.0229,16.0525,92.6173,92.6106,0.0,574.03,0.712656,1.04654,0.0,4,0.0,0.0,0.0,0.0,0.0,0,0,0,0,0,1,1,0,0,0
25107472,16.0357,16.0523,92.588,92.6101,0.0,574.339,0.71259,1.04655,0.0,4,0.0,0.0,0.0,0.0,0.0,0,0,0,0,0,1,1,0,0,0
25119471,16.0484,16.0523,92.6466,92.6109,0.0,574.648,0.712574,1.04655,0.0,4,0.0,0.0,0.0,0.0,0.0,0,0,0,0,0,1,1,0,0,0
25131478,16.0229,16.052,92.588,92.6104,0.0,574.957,0.712459,1.04657,0.0,4,0.0,0.0,0.0,0.0,0.0,0,0,0,0,0,1,1,0,0,0
25143472,15.9335,16.0508,92.5587,92.6094,0.0,575.265,0.712002,1.04665,0.0,4,0.0,0.0,0.0,0.0,0.0,0,0,0,0,0,1,1,0,0,0
25155465,15.8441,16.0487,92.5587,92.6084,0.0,575.574,0.711206,1.04679,0.0,4,0.0,0.0,0.0,0.0,0.0,0,0,0,0,0,1,1,0,0,0
25167471,16.0101,16.0484,92.588,92.6079,0.0,575.882,0.711056,1.04681,0.0,4,0.0,0.0,0.0,0.0,0.0,0,0,0,0,0,1,1,0,0,0
25179473,15.9335,16.0472,92.588,92.6076,0.0,576.191,0.710613,1.04689,0.0,4,0.0,0.0,0.0,0.0,0.0,0,0,0,0,0,1,1,0,0,0
25192309,16.0612,16.0473,92.5587,92.6066,0.0,576.521,0.710665,1.04688,0.0,4,0.0,0.0,0.0,0.0,0.0,0,0,0,0,0,1,1,0,0,0
25204279,15.9591,16.0465,92.6466,92.6074,0.0,576.829,0.710324,1.04693,0.0,4,0.0,0.0,0.0,0.0,0.0,0,0,0,0,0,1,1,0,0,0
25216262,16.2272,16.0483,92.6173,92.6076,0.0,577.137,0.711017,1.04682,0.0,4,0.0,0.0,0.0,0.0,0.0,0,0,0,0,0,1,1,0,0,0
25228273,16.0357,16.0481,92.6759,92.6089,0.0,577.447,0.710967,1.04683,0.0,4,0.0,0.0,0.0,0.0,0.0,0,0,0,0,0,1,1,0,0,0
25240269,16.0101,16.0478,92.6466,92.6097,0.0,577.755,0.71082,1.04685,0.0,4,0.0,0.0,0.0,0.0,0.0,0,0,0,0,0,1,1,0,0,0
25252271,16.2144,16.0494,92.588,92.6093,0.0,578.064,0.71146,1.04674,0.0,4,0.0,0.0,0.0,0.0,0.0,0,0,0,0,0,1,1,0,0,0
25264278,15.8952,16.0479,92.588,92.6088,0.0,578.373,0.710865,1.04684,0.0,4,0.0,0.0,0.0,0.0,0.0,0,0,0,0,0,1,1,0,0,0
25276308,16.0229,16.0476,92.6173,92.609,0.0,578.682,0.710768,1.04686,0.0,4,0.0,0.0,0.0,0.0,0.0,0,0,0,0,0,1,1,0,0,0
25288266,16.0357,16.0475,92.588,92.6086,0.0,578.99,0.710721,1.04687,0.0,4,0.0,0.0,0.0,0.0,0.0,0,0,0,0,0,1,1,0,0,0
25300265,15.9974,16.047,92.588,92.6082,0.0,579.298,0.710526,1.0469,0.0,4,0.0,0.0,0.0,0.0,0.0,0,0,0,0,0,1,1,0,0,0
25312266,16.2272,16.0488,92.6173,92.6084,0.0,579.607,0.711218,1.04678,0.0,4,0.0,0.0,0.0,0.0,0.0,0,0,0,0,0,1,1,0,0,0
25384272,15.7292,16.0462,92.6466,92.6094,0.0,581.46,0.710206,1.04695,0.0,4,0.0,0.0,0.0,0.0,0.0,0,0,0,0,0,1,1,0,0,0
25396310,16.3421,16.0492,92.7052,92.6113,0.0,581.77,0.711343,1.04676,0.0,4,0.0,0.0,0.0,0.0,0.0,0,0,0,0,0,1,1,0,0,0
25408263,16.1889,16.0506,92.6466,92.612,0.0,582.077,0.711879,1.04667,0.0,4,0.0,0.0,0.0,0.0,0.0,0,0,0,0,0,1,1,0,0,0
25420261,15.9335,16.0494,92.6173,92.6121,0.0,582.386,0.711427,1.04675,0.0,4,0.0,0.0,0.0,0.0,0.0,0,0,0,0,0,1,1,0,0,0
25432259,16.0612,16.0495,92.6173,92.6122,0.0,582.695,0.711472,1.04674,0.0,4,0.0,0.0,0.0,0.0,0.0,0,0,0,0,0,1,1,0,0,0
25444308,15.9207,16.0482,92.588,92.6117,0.0,583.005,0.710975,1.04682,0.0,4,0.0,0.0,0.0,0.0,0.0,0,0,0,0,0,1,1,0,0,0
25457058,15.8952,16.0467,92.6466,92.6124,0.0,583.333,0.710385,1.04692,0.0,4,0.0,0.0,0.0,0.0,0.0,0,0,0,0,0,1,1,0,0,0
25469061,16.2272,16.0485,92.6173,92.6125,0.0,583.641,0.711079,1.04681,0.0,4,0.0,0.0,0.0,0.0,0.0,0,0,0,0,0,1,1,0,0,0
25481061,16.0612,16.0486,92.6466,92.6132,0.0,583.95,0.711126,1.0468,0.0,4,0.0,0.0,0.0,0.0,0.0,0,0,0,0,0,1,1,0,0,0
25493092,15.9718,16.0479,92.6466,92.6139,0.0,584.26,0.710829,1.04685,0.0,4,0.0,0.0,0.0,0.0,0.0,0,0,0,0,0,1,1,0,0,0
25505060,15.9463,16.0468,92.6466,92.6145,0.0,584.568,0.710438,1.04692,0.0,4,0.0,0.0,0.0,0.0,0.0,0,0,0,0,0,1,1,0,0,0
25517069,16.125,16.0476,92.5294,92.6128,0.0,584.877,0.710737,1.04686,0.0,4,0.0,0.0,0.0,0.0,0.0,0,0,0,0,0,1,1,0,0,0
25529076,16.0229,16.0474,92.6173,92.6129,0.0,585.185,0.710641,1.04688,0.0,4,0.0,0.0,0.0,0.0,0.0,0,0,0,0,0,1,1,0,0,0
25541076,15.8824,16.0457,92.6173,92.613,0.0,585.494,0.710005,1.04699,0.0,4,0.0,0.0,0.0,0.0,0.0,0,0,0,0,0,1,1,0,0,0
25553062,15.908,16.0443,92.6466,92.6137,0.0,585.803,0.709475,1.04708,0.0,4,0.0,0.0,0.0,0.0,0.0,0,0,0,0,0,1,1,0,0,0
25565059,16.2016,16.0459,92.6466,92.6143,0.0,586.111,0.710079,1.04698,0.0,4,0.0,0.0,0.0,0.0,0.0,0,0,0,0,0,1,1,0,0,0
25577059,15.9463,16.0449,92.6466,92.615,0.0,586.42,0.709695,1.04704,0.0,4,0.0,0.0,0.0,0.0,0.0,0,0,0,0,0,1,1,0,0,0
25613067,16.0357,16.0443,92.6466,92.6163,0.0,587.347,0.709441,1.04708,0.0,4,0.0,0.0,0.0,0.0,0.0,0,0,0,0,0,1,1,0,0,0
25625069,16.0484,16.0443,92.588,92.6157,0.0,587.655,0.709456,1.04708,0.0,4,0.0,0.0,0.0,0.0,0.0,0,0,0,0,0,1,1,0,0,0
25637074,16.0357,16.0442,92.588,92.6152,0.0,587.964,0.709423,1.04709,0.0,4,0.0,0.0,0.0,0.0,0.0,0,0,0,0,0,1,1,0,0,0
25649067,16.0612,16.0444,92.6173,92.6152,0.0,588.273,0.709486,1.04708,0.0,4,0.0,0.0,0.0,0.0,0.0,0,0,0,0,0,1,1,0,0,0
25661088,15.9207,16.0432,92.6466,92.6159,0.0,588.582,0.709011,1.04716,0.0,4,0.0,0.0,0.0,0.0,0.0,0,0,0,0,0,1,1,0,0,0
25673861,16.0229,16.043,92.6173,92.6159,0.0,588.911,0.708931,1.04717,0.0,4,0.0,0.0,0.0,0.0,0.0,0,0,0,0,0,1,1,0,0,0
25685863,16.1761,16.0443,92.6173,92.6159,0.0,589.22,0.709443,1.04708,0.0,4,0.0,0.0,0.0,0.0,0.0,0,0,0,0,0,1,1,0,0,0
25697862,16.3676,16.0475,92.6466,92.6165,0.0,589.528,0.710685,1.04687,0.0,4,0.0,0.0,0.0,0.0,0.0,0,0,0,0,0,1,1,0,0,0
25709863,16.2272,16.0493,92.588,92.616,0.0,589.837,0.711375,1.04676,0.0,4,0.0,0.0,0.0,0.0,0.0,0,0,0,0,0,1,1,0,0,0
25721867,15.9207,16.048,92.6173,92.616,0.0,590.146,0.71088,1.04684,0.0,4,0.0,0.0,0.0,0.0,0.0,0,0,0,0,0,1,1,0,0,0
25733870,16.074,16.0483,92.588,92.6154,0.0,590.455,0.710979,1.04682,0.0,4,0.0,0.0,0.0,0.0,0.0,0,0,0,0,0,1,1,0,0,0
25745875,16.074,16.0486,92.588,92.6149,0.0,590.763,0.711076,1.04681,0.0,4,0.0,0.0,0.0,0.0,0.0,0,0,0,0,0,1,1,0,0,0
25757882,15.7292,16.0454,92.6466,92.6155,0.0,591.072,0.709847,1.04702,0.0,4,0.0,0.0,0.0,0.0,0.0,0,0,0,0,0,1,1,0,0,0
25769864,15.9335,16.0442,92.588,92.615,0.0,591.38,0.709417,1.04709,0.0,4,0.0,0.0,0.0,0.0,0.0,0,0,0,0,0,1,1,0,0,0
25781854,15.8441,16.0422,92.6173,92.615,0.0,591.689,0.708647,1.04722,0.0,4,0.0,0.0,0.0,0.0,0.0,0,0,0,0,0,1,1,0,0,0
25793860,16.1633,16.0435,92.588,92.6145,0.0,591.998,0.709111,1.04714,0.0,4,0.0,0.0,0.0,0.0,0.0,0,0,0,0,0,1,1,0,0,0
25877874,16.0101,16.0461,92.6173,92.6153,0.0,594.159,0.710134,1.04697,0.0,4,0.0,0.0,0.0,0.0,0.0,0,0,0,0,0,1,1,0,0,0
25889868,16.0357,16.046,92.588,92.6148,0.0,594.468,0.710093,1.04697,0.0,4,0.0,0.0,0.0,0.0,0.0,0,0,0,0,0,1,1,0,0,0
25901859,16.0357,16.0459,92.6173,92.6149,0.0,594.776,0.710052,1.04698,0.0,4,0.0,0.0,0.0,0.0,0.0,0,0,0,0,0,1,1,0,0,0
25913872,15.9335,16.0448,92.588,92.6143,0.0,595.085,0.70962,1.04705,0.0,4,0.0,0.0,0.0,0.0,0.0,0,0,0,0,0,1,1,0,0,0
25925862,16.0101,16.0445,92.588,92.6138,0.0,595.394,0.709485,1.04708,0.0,4,0.0,0.0,0.0,0.0,0.0,0,0,0,0,0,1,1,0,0,0
25937865,16.074,16.0447,92.5294,92.6121,0.0,595.702,0.709598,1.04706,0.0,4,0.0,0.0,0.0,0.0,0.0,0,0,0,0,0,1,1,0,0,0
25949860,15.8569,16.0429,92.6466,92.6128,0.0,596.011,0.708874,1.04718,0.0,4,0.0,0.0,0.0,0.0,0.0,0,0,0,0,0,1,1,0,0,0
25961852,15.8441,16.0409,92.6173,92.6129,0.0,596.319,0.708109,1.04731,0.0,4,0.0,0.0,0.0,0.0,0.0,0,0,0,0,0,1,1,0,0,0
25973856,15.7675,16.0381,92.5294,92.6112,0.0,596.628,0.707057,1.04749,0.0,4,0.0,0.0,0.0,0.0,0.0,0,0,0,0,0,1,1,0,0,0
25986672,16.1889,16.0397,92.588,92.6108,0.0,596.957,0.707636,1.04739,0.0,4,0.0,0.0,0.0,0.0,0.0,0,0,0,0,0,1,1,0,0,0
25998667,16.0612,16.0399,92.588,92.6103,0.0,597.266,0.707718,1.04738,0.0,4,0.0,0.0,0.0,0.0,0.0,0,0,0,0,0,1,1,0,0,0
26010781,16.0612,16.0401,92.588,92.6099,0.0,597.578,0.707799,1.04736,0.0,4,0.0,0.0,0.0,0.0,0.0,0,0,0,0,0,1,1,0,0,0
26022671,16.1889,16.0416,92.6466,92.6106,0.0,597.883,0.708371,1.04727,0.0,4,0.0,0.0,0.0,0.0,0.0,0,0,0,0,0,1,1,0,0,0
26034655,16.1889,16.043,92.588,92.6102,0.0,598.192,0.708936,1.04717,0.0,4,0.0,0.0,0.0,0.0,0.0,0,0,0,0,0,1,1,0,0,0
26046724,16.0612,16.0432,92.6173,92.6103,0.0,598.502,0.709005,1.04716,0.0,4,0.0,0.0,0.0,0.0,0.0,0,0,0,0,0,1,1,0,0,0
26058710,16.0101,16.0429,92.588,92.6099,0.0,598.81,0.708878,1.04718,0.0,4,0.0,0.0,0.0,0.0,0.0,0,0,0,0,0,1,1,0,0,0
26070676,15.9335,16.0418,92.6466,92.6106,0.0,599.118,0.708457,1.04725,0.0,4,0.0,0.0,0.0,0.0,0.0,0,0,0,0,0,1,1,0,0,0
26094759,15.9974,16.0412,92.588,92.6086,0.0,599.738,0.708212,1.04729,0.0,4,0.0,0.0,0.0,0.0,0.0,0,0,0,0,0,1,1,0,0,0
26106669,16.0101,16.0409,92.5587,92.6076,0.0,600.044,0.708092,1.04731,0.0,4,0.0,0.0,0.0,0.0,0.0,0,0,0,0,0,1,1,0,0,0
26118660,16.0101,16.0406,92.6466,92.6083,0.0,600.352,0.707973,1.04733,0.0,4,0.0,0.0,0.0,0.0,0.0,0,0,0,0,0,1,1,0,0,0
26130786,15.9846,16.04,92.588,92.6079,0.0,600.664,0.707757,1.04737,0.0,4,0.0,0.0,0.0,0.0,0.0,0,0,0,0,0,1,1,0,0,0
26142720,16.0229,16.0398,92.588,92.6075,0.0,600.971,0.707692,1.04738,0.0,4,0.0,0.0,0.0,0.0,0.0,0,0,0,0,0,1,1,0,0,0
26154671,16.0101,16.0395,92.5587,92.6066,0.0,601.279,0.707576,1.0474,0.0,4,0.0,0.0,0.0,0.0,0.0,0,0,0,0,0,1,1,0,0,0
26166659,15.8952,16.0381,92.6173,92.6068,0.0,601.587,0.70702,1.0475,0.0,4,0.0,0.0,0.0,0.0,0.0,0,0,0,0,0,1,1,0,0,0
26178658,15.9463,16.0372,92.6466,92.6076,0.0,601.896,0.706666,1.04756,0.0,4,0.0,0.0,0.0,0.0,0.0,0,0,0,0,0,1,1,0,0,0
26190687,16.1123,16.0379,92.6173,92.6078,0.0,602.205,0.706955,1.04751,0.0,4,0.0,0.0,0.0,0.0,0.0,0,0,0,0,0,1,1,0,0,0
26202688,15.9591,16.0371,92.6466,92.6086,0.0,602.514,0.706651,1.04756,0.0,4,0.0,0.0,0.0,0.0,0.0,0,0,0,0,0,1,1,0,0,0
26214715,16.0357,16.0371,92.6466,92.6093,0.0,602.823,0.706645,1.04756,0.0,4,0.0,0.0,0.0,0.0,0.0,0,0,0,0,0,1,1,0,0,0
26227478,15.9591,16.0363,92.6173,92.6095,0.0,603.152,0.706344,1.04761,0.0,4,0.0,0.0,0.0,0.0,0.0,0,0,0,0,0,1,1,0,0,0
26239467,16.1378,16.0373,92.6173,92.6096,0.0,603.46,0.706733,1.04754,0.0,4,0.0,0.0,0.0,0.0,0.0,0,0,0,0,0,1,1,0,0,0
26251453,16.0357,16.0373,92.588,92.6092,0.0,603.769,0.706727,1.04755,0.0,4,0.0,0.0,0.0,0.0,0.0,0,0,0,0,0,1,1,0,0,0
26263467,16.0229,16.0372,92.6173,92.6094,0.0,604.078,0.70667,1.04756,0.0,4,0.0,0.0,0.0,0.0,0.0,0,0,0,0,0,1,1,0,0,0
26335466,15.8186,16.0407,92.6173,92.6109,0.0,605.93,0.708033,1.04732,0.0,4,0.0,0.0,0.0,0.0,0.0,0,0,0,0,0,1,1,0,0,0
26347480,16.074,16.0411,92.6466,92.6116,0.0,606.239,0.708159,1.0473,0.0,4,0.0,0.0,0.0,0.0,0.0,0,0,0,0,0,1,1,0,0,0
26359476,16.0101,16.0408,92.6759,92.6129,0.0,606.548,0.70804,1.04732,0.0,4,0.0,0.0,0.0,0.0,0.0,0,0,0,0,0,1,1,0,0,0
26371472,16.1889,16.0422,92.588,92.6124,0.0,606.857,0.70861,1.04723,0.0,4,0.0,0.0,0.0,0.0,0.0,0,0,0,0,0,1,1,0,0,0
26383465,16.0229,16.042,92.588,92.6119,0.0,607.165,0.708535,1.04724,0.0,4,0.0,0.0,0.0,0.0,0.0,0,0,0,0,0,1,1,0,0,0
26395457,16.1633,16.0433,92.6173,92.612,0.0,607.474,0.709001,1.04716,0.0,4,0.0,0.0,0.0,0.0,0.0,0,0,0,0,0,1,1,0,0,0
26407458,16.2144,16.045,92.6173,92.6121,0.0,607.782,0.709658,1.04705,0.0,4,0.0,0.0,0.0,0.0,0.0,0,0,0,0,0,1,1,0,0,0
26419458,16.074,16.0453,92.588,92.6116,0.0,608.091,0.70977,1.04703,0.0,4,0.0,0.0,0.0,0.0,0.0,0,0,0,0,0,1,1,0,0,0
26431460,15.9846,16.0447,92.6173,92.6118,0.0,608.4,0.709536,1.04707,0.0,4,0.0,0.0,0.0,0.0,0.0,0,0,0,0,0,1,1,0,0,0
26443457,15.8569,16.0428,92.6466,92.6125,0.0,608.709,0.708813,1.04719,0.0,4,0.0,0.0,0.0,0.0,0.0,0,0,0,0,0,1,1,0,0,0
26455458,15.908,16.0414,92.588,92.612,0.0,609.017,0.708294,1.04728,0.0,4,0.0,0.0,0.0,0.0,0.0,0,0,0,0,0,1,1,0,0,0
26467462,16.2527,16.0435,92.6466,92.6127,0.0,609.326,0.709106,1.04714,0.0,4,0.0,0.0,0.0,0.0,0.0,0,0,0,0,0,1,1,0,0,0
26479461,16.0484,16.0436,92.588,92.6122,0.0,609.635,0.709125,1.04714,0.0,4,0.0,0.0,0.0,0.0,0.0,0,0,0,0,0,1,1,0,0,0
26491478,16.0101,16.0433,92.6173,92.6123,0.0,609.944,0.708996,1.04716,0.0,4,0.0,0.0,0.0,0.0,0.0,0,0,0,0,0,1,1,0,0,0
26504281,16.0357,16.0432,92.6466,92.613,0.0,610.273,0.708966,1.04717,0.0,4,0.0,0.0,0.0,0.0,0.0,0,0,0,0,0,1,1,0,0,0
26516269,16.0612,16.0434,92.588,92.6125,0.0,610.582,0.709034,1.04715,0.0,4,0.0,0.0,0.0,0.0,0.0,0,0,0,0,0,1,1,0,0,0
26528267,16.0229,16.0432,92.6173,92.6126,0.0,610.89,0.708955,1.04717,0.0,4,0.0,0.0,0.0,0.0,0.0,0,0,0,0,0,1,1,0,0,0
26552265,16.2272,16.0437,92.588,92.6116,0.0,611.508,0.709147,1.04713,0.0,4,0.0,0.0,0.0,0.0,0.0,0,0,0,0,0,1,1,0,0,0
26564309,16.2016,16.0452,92.6173,92.6117,0.0,611.817,0.709754,1.04703,0.0,4,0.0,0.0,0.0,0.0,0.0,0,0,0,0,0,1,1,0,0,0
26576254,16.0357,16.0451,92.588,92.6113,0.0,612.125,0.709718,1.04704,0.0,4,0.0,0.0,0.0,0.0,0.0,0,0,0,0,0,1,1,0,0,0
26588268,15.7548,16.0422,92.6173,92.6114,0.0,612.434,0.708601,1.04723,0.0,4,0.0,0.0,0.0,0.0,0.0,0,0,0,0,0,1,1,0,0,0
26600262,16.0867,16.0427,92.6173,92.6115,0.0,612.742,0.708771,1.0472,0.0,4,0.0,0.0,0.0,0.0,0.0,0,0,0,0,0,1,1,0,0,0
26612263,16.0612,16.0429,92.6173,92.6116,0.0,613.051,0.708842,1.04719,0.0,4,0.0,0.0,0.0,0.0,0.0,0,0,0,0,0,1,1,0,0,0
26624264,16.0484,16.0429,92.588,92.6111,0.0,613.36,0.708862,1.04718,0.0,4,0.0,0.0,0.0,0.0,0.0,0,0,0,0,0,1,1,0,0,0
26636263,16.0357,16.0429,92.6173,92.6113,0.0,613.668,0.708834,1.04719,0.0,4,0.0,0.0,0.0,0.0,0.0,0,0,0,0,0,1,1,0,0,0
26648317,16.0229,16.0427,92.6173,92.6114,0.0,613.979,0.708756,1.0472,0.0,4,0.0,0.0,0.0,0.0,0.0,0,0,0,0,0,1,1,0,0,0
26660293,16.0612,16.0428,92.6466,92.6121,0.0,614.287,0.708827,1.04719,0.0,4,0.0,0.0,0.0,0.0,0.0,0,0,0,0,0,1,1,0,0,0
26672277,16.0867,16.0433,92.6173,92.6122,0.0,614.595,0.708996,1.04716,0.0,4,0.0,0.0,0.0,0.0,0.0,0,0,0,0,0,1,1,0,0,0
26684260,15.9846,16.0427,92.6173,92.6123,0.0,614.903,0.708769,1.0472,0.0,4,0.0,0.0,0.0,0.0,0.0,0,0,0,0,0,1,1,0,0,0
26696275,16.0101,16.0424,92.6173,92.6124,0.0,615.212,0.708643,1.04722,0.0,4,0.0,0.0,0.0,0.0,0.0,0,0,0,0,0,1,1,0,0,0
26708261,16.2527,16.0445,92.6173,92.6125,0.0,615.521,0.709452,1.04708,0.0,4,0.0,0.0,0.0,0.0,0.0,0,0,0,0,0,1,1,0,0,0
26720267,15.9974,16.044,92.588,92.612,0.0,615.83,0.70927,1.04711,0.0,4,0.0,0.0,0.0,0.0,0.0,0,0,0,0,0,1,1,0,0,0
26793058,16.0867,16.0411,92.588,92.612,0.0,617.702,0.708146,1.0473,0.0,4,0.0,0.0,0.0,0.0,0.0,0,0,0,0,0,1,1,0,0,0
26805057,16.0357,16.041,92.6173,92.6121,0.0,618.011,0.708126,1.04731,0.0,4,0.0,0.0,0.0,0.0,0.0,0,0,0,0,0,1,1,0,0,0
26817062,15.8186,16.0388,92.5587,92.6111,0.0,618.319,0.70727,1.04745,0.0,4,0.0,0.0,0.0,0.0,0.0,0,0,0,0,0,1,1,0,0,0
26829060,16.0357,16.0388,92.588,92.6106,0.0,618.628,0.707258,1.04746,0.0,4,0.0,0.0,0.0,0.0,0.0,0,0,0,0,0,1,1,0,0,0
26841073,15.9463,16.0378,92.6173,92.6107,0.0,618.937,0.706902,1.04752,0.0,4,0.0,0.0,0.0,0.0,0.0,0,0,0,0,0,1,1,0,0,0
26853059,16.0867,16.0383,92.588,92.6103,0.0,619.245,0.707089,1.04748,0.0,4,0.0,0.0,0.0,0.0,0.0,0,0,0,0,0,1,1,0,0,0
26865056,16.0229,16.0382,92.588,92.6099,0.0,619.554,0.707029,1.04749,0.0,4,0.0,0.0,0.0,0.0,0.0,0,0,0,0,0,1,1,0,0,0
26877059,16.2016,16.0398,92.6466,92.6106,0.0,619.863,0.707658,1.04739,0.0,4,0.0,0.0,0.0,0.0,0.0,0,0,0,0,0,1,1,0,0,0
26889060,15.9846,16.0393,92.6173,92.6107,0.0,620.172,0.707445,1.04742,0.0,4,0.0,0.0,0.0,0.0,0.0,0,0,0,0,0,1,1,0,0,0
26901069,16.2016,16.0409,92.6173,92.6109,0.0,620.481,0.708069,1.04732,0.0,4,0.0,0.0,0.0,0.0,0.0,0,0,0,0,0,1,1,0,0,0
26913063,15.9974,16.0405,92.6173,92.611,0.0,620.789,0.707901,1.04735,0.0,4,0.0,0.0,0.0,0.0,0.0,0,0,0,0,0,1,1,0,0,0
26925069,16.1378,16.0414,92.6466,92.6117,0.0,621.098,0.708275,1.04728,0.0,4,0.0,0.0,0.0,0.0,0.0,0,0,0,0,0,1,1,0,0,0
26937086,16.074,16.0417,92.6173,92.6118,0.0,621.407,0.7084,1.04726,0.0,4,0.0,0.0,0.0,0.0,0.0,0,0,0,0,0,1,1,0,0,0
26949092,16.0867,16.0422,92.588,92.6114,0.0,621.716,0.708573,1.04723,0.0,4,0.0,0.0,0.0,0.0,0.0,0,0,0,0,0,1,1,0,0,0
26961864,16.1889,16.0437,92.6173,92.6115,0.0,622.045,0.709136,1.04714,0.0,4,0.0,0.0,0.0,0.0,0.0,0,0,0,0,0,1,1,0,0,0
26973866,16.1889,16.0451,92.6173,92.6116,0.0,622.353,0.709695,1.04704,0.0,4,0.0,0.0,0.0,0.0,0.0,0,0,0,0,0,1,1,0,0,0
26985863,16.1378,16.046,92.6466,92.6123,0.0,622.662,0.710051,1.04698,0.0,4,0.0,0.0,0.0,0.0,0.0,0,0,0,0,0,1,1,0,0,0
27009877,15.9718,16.0452,92.6173,92.6131,0.0,623.28,0.709725,1.04704,0.0,4,0.0,0.0,0.0,0.0,0.0,0,0,0,0,0,1,1,0,0,0
27021875,15.9718,16.0445,92.588,92.6126,0.0,623.589,0.709443,1.04708,0.0,4,0.0,0.0,0.0,0.0,0.0,0,0,0,0,0,1,1,0,0,0
27033874,16.0484,16.0445,92.6466,92.6133,0.0,623.897,0.709457,1.04708,0.0,4,0.0,0.0,0.0,0.0,0.0,0,0,0,0,0,1,1,0,0,0
27045861,15.7548,16.0416,92.5587,92.6122,0.0,624.206,0.708343,1.04727,0.0,4,0.0,0.0,0.0,0.0,0.0,0,0,0,0,0,1,1,0,0,0
27057884,16.0484,16.0417,92.588,92.6117,0.0,624.515,0.708369,1.04727,0.0,4,0.0,0.0,0.0,0.0,0.0,0,0,0,0,0,1,1,0,0,0
27069859,16.2272,16.0435,92.588,92.6112,0.0,624.823,0.709082,1.04715,0.0,4,0.0,0.0,0.0,0.0,0.0,0,0,0,0,0,1,1,0,0,0
27081857,16.2272,16.0454,92.5587,92.6102,0.0,625.131,0.709789,1.04703,0.0,4,0.0,0.0,0.0,0.0,0.0,0,0,0,0,0,1,1,0,0,0
27093863,16.2272,16.0472,92.6466,92.6109,0.0,625.44,0.710487,1.04691,0.0,4,0.0,0.0,0.0,0.0,0.0,0,0,0,0,0,1,1,0,0,0
27105877,16.1889,16.0486,92.6173,92.611,0.0,625.749,0.711032,1.04681,0.0,4,0.0,0.0,0.0,0.0,0.0,0,0,0,0,0,1,1,0,0,0
27117868,15.8314,16.0464,92.6173,92.6112,0.0,626.058,0.710196,1.04696,0.0,4,0.0,0.0,0.0,0.0,0.0,0,0,0,0,0,1,1,0,0,0
27129868,16.0101,16.0461,92.6759,92.6124,0.0,626.367,0.710057,1.04698,0.0,4,0.0,0.0,0.0,0.0,0.0,0,0,0,0,0,1,1,0,0,0
27141872,16.1506,16.0471,92.588,92.612,0.0,626.675,0.710459,1.04691,0.0,4,0.0,0.0,0.0,0.0,0.0,0,0,0,0,0,1,1,0,0,0
27153899,16.2399,16.049,92.6173,92.6121,0.0,626.985,0.711199,1.04679,0.0,4,0.0,0.0,0.0,0.0,0.0,0,0,0,0,0,1,1,0,0,0
27165870,15.8697,16.0473,92.6173,92.6122,0.0,627.293,0.71051,1.0469,0.0,4,0.0,0.0,0.0,0.0,0.0,0,0,0,0,0,1,1,0,0,0
27177870,15.9974,16.0468,92.6466,92.6129,0.0,627.602,0.710318,1.04694,0.0,4,0.0,0.0,0.0,0.0,0.0,0,0,0,0,0,1,1,0,0,0
27189860,16.0357,16.0466,92.588,92.6124,0.0,627.91,0.710274,1.04694,0.0,4,0.0,0.0,0.0,0.0,0.0,0,0,0,0,0,1,1,0,0,0
27273861,15.9718,16.0429,92.588,92.6114,0.0,630.071,0.708839,1.04719,0.0,4,0.0,0.0,0.0,0.0,0.0,0,0,0,0,0,1,1,0,0,0
27286712,15.9591,16.0421,92.588,92.6109,0.0,630.401,0.708515,1.04724,0.0,4,0.0,0.0,0.0,0.0,0.0,0,0,0,0,0,1,1,0,0,0
27298660,15.9974,16.0416,92.588,92.6104,0.0,630.709,0.708344,1.04727,0.0,4,0.0,0.0,0.0,0.0,0.0,0,0,0,0,0,1,1,0,0,0
27310793,15.9591,16.0408,92.588,92.61,0.0,631.021,0.708026,1.04732,0.0,4,0.0,0.0,0.0,0.0,0.0,0,0,0,0,0,1,1,0,0,0
27322658,16.0101,16.0405,92.588,92.6095,0.0,631.326,0.707907,1.04735,0.0,4,0.0,0.0,0.0,0.0,0.0,0,0,0,0,0,1,1,0,0,0
27334657,16.2144,16.0422,92.6466,92.6103,0.0,631.635,0.708576,1.04723,0.0,4,0.0,0.0,0.0,0.0,0.0,0,0,0,0,0,1,1,0,0,0
27346658,16.0101,16.0419,92.588,92.6098,0.0,631.943,0.708452,1.04725,0.0,4,0.0,0.0,0.0,0.0,0.0,0,0,0,0,0,1,1,0,0,0
27358718,16.0101,16.0416,92.588,92.6094,0.0,632.253,0.70833,1.04727,0.0,4,0.0,0.0,0.0,0.0,0.0,0,0,0,0,0,1,1,0,0,0
27370668,16.0357,16.0415,92.588,92.609,0.0,632.561,0.708307,1.04728,0.0,4,0.0,0.0,0.0,0.0,0.0,0,0,0,0,0,1,1,0,0,0
27382709,15.8441,16.0396,92.6466,92.6097,0.0,632.871,0.707548,1.04741,0.0,4,0.0,0.0,0.0,0.0,0.0,0,0,0,0,0,1,1,0,0,0
27394696,16.0101,16.0393,92.6466,92.6105,0.0,633.179,0.707434,1.04743,0.0,4,0.0,0.0,0.0,0.0,0.0,0,0,0,0,0,1,1,0,0,0
27406671,16.0357,16.0392,92.6173,92.6106,0.0,633.487,0.70742,1.04743,0.0,4,0.0,0.0,0.0,0.0,0.0,0,0,0,0,0,1,1,0,0,0
27418700,16.0229,16.0391,92.588,92.6102,0.0,633.797,0.707357,1.04744,0.0,4,0.0,0.0,0.0,0.0,0.0,0,0,0,0,0,1,1,0,0,0
27430659,15.9974,16.0386,92.6173,92.6103,0.0,634.104,0.707196,1.04747,0.0,4,0.0,0.0,0.0,0.0,0.0,0,0,0,0,0,1,1,0,0,0
27442665,16.0357,16.0386,92.6466,92.611,0.0,634.413,0.707184,1.04747,0.0,4,0.0,0.0,0.0,0.0,0.0,0,0,0,0,0,1,1,0,0,0
