timestamp,voltage_v,voltage_filtered_v,current_a,current_filtered_a,average_current_a,discharged_mah,remaining,scale,temperature,cell_count,voltage_cell_v[0],voltage_cell_v[1],voltage_cell_v[2],voltage_cell_v[3],max_cell_voltage_delta,capacity,cycle_count,run_time_to_empty,average_time_to_empty,serial_number,connected,system_source,priority,is_powering_off,warning
448810262,16.291,16.3441,92.6173,92.6472,0.0,11469.0,0.824644,1.0279,0.0,4,0.0,0.0,0.0,0.0,0.0,0,0,0,0,0,1,1,0,0,0
448822263,16.2655,16.3433,92.588,92.646,0.0,11469.3,0.824342,1.02794,0.0,4,0.0,0.0,0.0,0.0,0.0,0,0,0,0,0,1,1,0,0,0
448834261,16.2655,16.3425,92.6759,92.6466,0.0,11469.6,0.824043,1.02799,0.0,4,0.0,0.0,0.0,0.0,0.0,0,0,0,0,0,1,1,0,0,0
448846260,16.3165,16.3423,92.6173,92.646,0.0,11469.9,0.823943,1.02801,0.0,4,0.0,0.0,0.0,0.0,0.0,0,0,0,0,0,1,1,0,0,0
448858260,16.291,16.3417,92.6466,92.646,0.0,11470.2,0.823746,1.02804,0.0,4,0.0,0.0,0.0,0.0,0.0,0,0,0,0,0,1,1,0,0,0
448870287,16.2399,16.3407,92.6759,92.6466,0.0,11470.5,0.823354,1.02811,0.0,4,0.0,0.0,0.0,0.0,0.0,0,0,0,0,0,1,1,0,0,0
448882262,16.2144,16.3395,92.6759,92.6472,0.0,11470.8,0.822868,1.02819,0.0,4,0.0,0.0,0.0,0.0,0.0,0,0,0,0,0,1,1,0,0,0
448894259,16.2016,16.3381,92.7052,92.6484,0.0,11471.1,0.822338,1.02827,0.0,4,0.0,0.0,0.0,0.0,0.0,0,0,0,0,0,1,1,0,0,0
448906266,16.4697,16.3394,92.6173,92.6478,0.0,11471.5,0.822844,1.02819,0.0,4,0.0,0.0,0.0,0.0,0.0,0,0,0,0,0,1,1,0,0,0
448918275,16.4442,16.3404,92.6173,92.6472,0.0,11471.8,0.823247,1.02812,0.0,4,0.0,0.0,0.0,0.0,0.0,0,0,0,0,0,1,1,0,0,0
448931074,16.3038,16.3401,92.6759,92.6477,0.0,11472.1,0.823107,1.02815,0.0,4,0.0,0.0,0.0,0.0,0.0,0,0,0,0,0,1,1,0,0,0
448943068,16.457,16.3412,92.6173,92.6471,0.0,11472.4,0.823556,1.02807,0.0,4,0.0,0.0,0.0,0.0,0.0,0,0,0,0,0,1,1,0,0,0
448955059,16.4187,16.342,92.6466,92.6471,0.0,11472.7,0.823854,1.02802,0.0,4,0.0,0.0,0.0,0.0,0.0,0,0,0,0,0,1,1,0,0,0
448967050,16.2782,16.3414,92.6759,92.6477,0.0,11473.0,0.823609,1.02806,0.0,4,0.0,0.0,0.0,0.0,0.0,0,0,0,0,0,1,1,0,0,0
448979059,16.2527,16.3405,92.6466,92.6477,0.0,11473.3,0.823268,1.02812,0.0,4,0.0,0.0,0.0,0.0,0.0,0,0,0,0,0,1,1,0,0,0
448991057,16.1633,16.3387,92.6466,92.6477,0.0,11473.6,0.822587,1.02823,0.0,4,0.0,0.0,0.0,0.0,0.0,0,0,0,0,0,1,1,0,0,0
449039073,16.291,16.3401,92.6759,92.6476,0.0,11474.9,0.823105,1.02815,0.0,4,0.0,0.0,0.0,0.0,0.0,0,0,0,0,0,1,1,0,0,0
449051078,16.2655,16.3393,92.6173,92.647,0.0,11475.2,0.822818,1.02819,0.0,4,0.0,0.0,0.0,0.0,0.0,0,0,0,0,0,1,1,0,0,0
449063062,16.4953,16.3409,92.6466,92.647,0.0,11475.5,0.823419,1.0281,0.0,4,0.0,0.0,0.0,0.0,0.0,0,0,0,0,0,1,1,0,0,0
449075061,16.2399,16.3399,92.6759,92.6476,0.0,11475.8,0.82303,1.02816,0.0,4,0.0,0.0,0.0,0.0,0.0,0,0,0,0,0,1,1,0,0,0
449087069,16.2527,16.339,92.6759,92.6481,0.0,11476.1,0.822695,1.02821,0.0,4,0.0,0.0,0.0,0.0,0.0,0,0,0,0,0,1,1,0,0,0
449099057,16.125,16.3369,92.6759,92.6487,0.0,11476.4,0.821872,1.02835,0.0,4,0.0,0.0,0.0,0.0,0.0,0,0,0,0,0,1,1,0,0,0
449111059,16.1633,16.3351,92.6466,92.6487,0.0,11476.7,0.821204,1.02846,0.0,4,0.0,0.0,0.0,0.0,0.0,0,0,0,0,0,1,1,0,0,0
449123064,16.291,16.3347,92.588,92.6474,0.0,11477.0,0.821035,1.02849,0.0,4,0.0,0.0,0.0,0.0,0.0,0,0,0,0,0,1,1,0,0,0
449135068,16.457,16.3359,92.6173,92.6468,0.0,11477.3,0.821505,1.02841,0.0,4,0.0,0.0,0.0,0.0,0.0,0,0,0,0,0,1,1,0,0,0
449147074,16.2527,16.3351,92.588,92.6457,0.0,11477.7,0.821185,1.02846,0.0,4,0.0,0.0,0.0,0.0,0.0,0,0,0,0,0,1,1,0,0,0
449159866,16.2655,16.3344,92.6173,92.6451,0.0,11478.0,0.820918,1.02851,0.0,4,0.0,0.0,0.0,0.0,0.0,0,0,0,0,0,1,1,0,0,0
449171860,16.291,16.334,92.588,92.644,0.0,11478.3,0.820751,1.02853,0.0,4,0.0,0.0,0.0,0.0,0.0,0,0,0,0,0,1,1,0,0,0
449183858,16.4442,16.3351,92.6466,92.644,0.0,11478.6,0.821175,1.02846,0.0,4,0.0,0.0,0.0,0.0,0.0,0,0,0,0,0,1,1,0,0,0
449195860,16.508,16.3368,92.6173,92.6435,0.0,11478.9,0.82184,1.02835,0.0,4,0.0,0.0,0.0,0.0,0.0,0,0,0,0,0,1,1,0,0,0
449207866,16.4953,16.3384,92.6466,92.6435,0.0,11479.2,0.82245,1.02825,0.0,4,0.0,0.0,0.0,0.0,0.0,0,0,0,0,0,1,1,0,0,0
449219857,16.3165,16.3382,92.6466,92.6436,0.0,11479.5,0.822366,1.02827,0.0,4,0.0,0.0,0.0,0.0,0.0,0,0,0,0,0,1,1,0,0,0
449231865,16.457,16.3393,92.7052,92.6448,0.0,11479.8,0.822824,1.02819,0.0,4,0.0,0.0,0.0,0.0,0.0,0,0,0,0,0,1,1,0,0,0
449279876,16.4442,16.3404,92.6466,92.6444,0.0,11481.1,0.823216,1.02813,0.0,4,0.0,0.0,0.0,0.0,0.0,0,0,0,0,0,1,1,0,0,0
449291880,16.2527,16.3395,92.6759,92.6451,0.0,11481.4,0.822879,1.02818,0.0,4,0.0,0.0,0.0,0.0,0.0,0,0,0,0,0,1,1,0,0,0
449303859,16.2655,16.3387,92.6466,92.6451,0.0,11481.7,0.822595,1.02823,0.0,4,0.0,0.0,0.0,0.0,0.0,0,0,0,0,0,1,1,0,0,0
449315857,16.3931,16.3393,92.6759,92.6457,0.0,11482.0,0.822803,1.0282,0.0,4,0.0,0.0,0.0,0.0,0.0,0,0,0,0,0,1,1,0,0,0
449327863,16.291,16.3388,92.6759,92.6463,0.0,11482.3,0.822618,1.02823,0.0,4,0.0,0.0,0.0,0.0,0.0,0,0,0,0,0,1,1,0,0,0
449339853,16.3548,16.339,92.6466,92.6463,0.0,11482.6,0.82268,1.02822,0.0,4,0.0,0.0,0.0,0.0,0.0,0,0,0,0,0,1,1,0,0,0
449351861,16.2144,16.3377,92.6759,92.6469,0.0,11482.9,0.822201,1.0283,0.0,4,0.0,0.0,0.0,0.0,0.0,0,0,0,0,0,1,1,0,0,0
449363870,16.3804,16.3381,92.6173,92.6463,0.0,11483.2,0.822365,1.02827,0.0,4,0.0,0.0,0.0,0.0,0.0,0,0,0,0,0,1,1,0,0,0
449375854,16.1506,16.3363,92.588,92.6451,0.0,11483.5,0.821644,1.02839,0.0,4,0.0,0.0,0.0,0.0,0.0,0,0,0,0,0,1,1,0,0,0
449387859,16.1889,16.3348,92.6759,92.6458,0.0,11483.8,0.821077,1.02848,0.0,4,0.0,0.0,0.0,0.0,0.0,0,0,0,0,0,1,1,0,0,0
449399870,16.4187,16.3356,92.6759,92.6464,0.0,11484.2,0.8214,1.02843,0.0,4,0.0,0.0,0.0,0.0,0.0,0,0,0,0,0,1,1,0,0,0
449411871,16.074,16.333,92.7052,92.6475,0.0,11484.5,0.820393,1.02859,0.0,4,0.0,0.0,0.0,0.0,0.0,0,0,0,0,0,1,1,0,0,0
449423864,16.2782,16.3325,92.6173,92.6469,0.0,11484.8,0.820182,1.02863,0.0,4,0.0,0.0,0.0,0.0,0.0,0,0,0,0,0,1,1,0,0,0
449435853,16.2527,16.3317,92.6466,92.6469,0.0,11485.1,0.819876,1.02868,0.0,4,0.0,0.0,0.0,0.0,0.0,0,0,0,0,0,1,1,0,0,0
449448694,16.2782,16.3311,92.6466,92.6469,0.0,11485.4,0.819671,1.02871,0.0,4,0.0,0.0,0.0,0.0,0.0,0,0,0,0,0,1,1,0,0,0
449460659,16.3676,16.3315,92.6466,92.6469,0.0,11485.7,0.81981,1.02869,0.0,4,0.0,0.0,0.0,0.0,0.0,0,0,0,0,0,1,1,0,0,0
449496680,16.2782,16.3312,92.6173,92.6469,0.0,11486.6,0.819684,1.02871,0.0,4,0.0,0.0,0.0,0.0,0.0,0,0,0,0,0,1,1,0,0,0
449508787,16.4059,16.3319,92.6466,92.6469,0.0,11487.0,0.819971,1.02866,0.0,4,0.0,0.0,0.0,0.0,0.0,0,0,0,0,0,1,1,0,0,0
449520665,16.4825,16.3334,92.6466,92.6469,0.0,11487.3,0.820551,1.02857,0.0,4,0.0,0.0,0.0,0.0,0.0,0,0,0,0,0,1,1,0,0,0
449532651,16.2655,16.3328,92.6173,92.6463,0.0,11487.6,0.82029,1.02861,0.0,4,0.0,0.0,0.0,0.0,0.0,0,0,0,0,0,1,1,0,0,0
449544668,16.3165,16.3326,92.6759,92.6469,0.0,11487.9,0.820227,1.02862,0.0,4,0.0,0.0,0.0,0.0,0.0,0,0,0,0,0,1,1,0,0,0
449556658,16.291,16.3322,92.6173,92.6463,0.0,11488.2,0.820067,1.02864,0.0,4,0.0,0.0,0.0,0.0,0.0,0,0,0,0,0,1,1,0,0,0
449568662,16.0101,16.329,92.6173,92.6457,0.0,11488.5,0.818829,1.02885,0.0,4,0.0,0.0,0.0,0.0,0.0,0,0,0,0,0,1,1,0,0,0
449580667,16.2782,16.3284,92.7052,92.6469,0.0,11488.8,0.818634,1.02888,0.0,4,0.0,0.0,0.0,0.0,0.0,0,0,0,0,0,1,1,0,0,0
449592715,16.457,16.3297,92.6466,92.6469,0.0,11489.1,0.819129,1.0288,0.0,4,0.0,0.0,0.0,0.0,0.0,0,0,0,0,0,1,1,0,0,0
449604664,16.4697,16.3311,92.6466,92.6469,0.0,11489.4,0.819667,1.02871,0.0,4,0.0,0.0,0.0,0.0,0.0,0,0,0,0,0,1,1,0,0,0
449616665,16.3676,16.3315,92.6466,92.6469,0.0,11489.7,0.819807,1.02869,0.0,4,0.0,0.0,0.0,0.0,0.0,0,0,0,0,0,1,1,0,0,0
449628673,16.2782,16.331,92.6173,92.6463,0.0,11490.0,0.819602,1.02872,0.0,4,0.0,0.0,0.0,0.0,0.0,0,0,0,0,0,1,1,0,0,0
449640718,16.3165,16.3308,92.6173,92.6457,0.0,11490.4,0.819547,1.02873,0.0,4,0.0,0.0,0.0,0.0,0.0,0,0,0,0,0,1,1,0,0,0
449652660,16.2782,16.3303,92.6173,92.6452,0.0,11490.7,0.819344,1.02876,0.0,4,0.0,0.0,0.0,0.0,0.0,0,0,0,0,0,1,1,0,0,0
449664665,16.4314,16.3313,92.6173,92.6446,0.0,11491.0,0.819733,1.0287,0.0,4,0.0,0.0,0.0,0.0,0.0,0,0,0,0,0,1,1,0,0,0
449676659,16.2782,16.3308,92.6173,92.6441,0.0,11491.3,0.819529,1.02873,0.0,4,0.0,0.0,0.0,0.0,0.0,0,0,0,0,0,1,1,0,0,0
449688658,16.1761,16.3292,92.588,92.643,0.0,11491.6,0.818934,1.02883,0.0,4,0.0,0.0,0.0,0.0,0.0,0,0,0,0,0,1,1,0,0,0
449725470,16.3038,16.33,92.6759,92.6438,0.0,11492.5,0.819219,1.02878,0.0,4,0.0,0.0,0.0,0.0,0.0,0,0,0,0,0,1,1,0,0,0
449737468,16.2016,16.3287,92.6759,92.6444,0.0,11492.8,0.818726,1.02886,0.0,4,0.0,0.0,0.0,0.0,0.0,0,0,0,0,0,1,1,0,0,0
449749470,16.291,16.3283,92.6466,92.6444,0.0,11493.2,0.81858,1.02889,0.0,4,0.0,0.0,0.0,0.0,0.0,0,0,0,0,0,1,1,0,0,0
449761475,16.3038,16.3281,92.6759,92.6451,0.0,11493.5,0.818486,1.0289,0.0,4,0.0,0.0,0.0,0.0,0.0,0,0,0,0,0,1,1,0,0,0
449773460,16.4442,16.3292,92.6759,92.6457,0.0,11493.8,0.818933,1.02883,0.0,4,0.0,0.0,0.0,0.0,0.0,0,0,0,0,0,1,1,0,0,0
449785460,16.3421,16.3294,92.588,92.6445,0.0,11494.1,0.818982,1.02882,0.0,4,0.0,0.0,0.0,0.0,0.0,0,0,0,0,0,1,1,0,0,0
449797456,16.3931,16.33,92.6759,92.6452,0.0,11494.4,0.819227,1.02878,0.0,4,0.0,0.0,0.0,0.0,0.0,0,0,0,0,0,1,1,0,0,0
449809458,16.2144,16.3288,92.588,92.644,0.0,11494.7,0.818783,1.02885,0.0,4,0.0,0.0,0.0,0.0,0.0,0,0,0,0,0,1,1,0,0,0
449821472,15.9591,16.3251,92.6759,92.6447,0.0,11495.0,0.81736,1.02909,0.0,4,0.0,0.0,0.0,0.0,0.0,0,0,0,0,0,1,1,0,0,0
449833458,16.3421,16.3253,92.6759,92.6453,0.0,11495.3,0.817426,1.02908,0.0,4,0.0,0.0,0.0,0.0,0.0,0,0,0,0,0,1,1,0,0,0
449845462,16.3165,16.3252,92.6466,92.6453,0.0,11495.6,0.817392,1.02908,0.0,4,0.0,0.0,0.0,0.0,0.0,0,0,0,0,0,1,1,0,0,0
449857467,16.2655,16.3246,92.6759,92.6459,0.0,11495.9,0.817163,1.02912,0.0,4,0.0,0.0,0.0,0.0,0.0,0,0,0,0,0,1,1,0,0,0
449869462,16.2782,16.3242,92.6173,92.6454,0.0,11496.2,0.816984,1.02915,0.0,4,0.0,0.0,0.0,0.0,0.0,0,0,0,0,0,1,1,0,0,0
449881460,16.291,16.3238,92.6759,92.646,0.0,11496.5,0.816856,1.02917,0.0,4,0.0,0.0,0.0,0.0,0.0,0,0,0,0,0,1,1,0,0,0
449941456,16.291,16.3254,92.6173,92.6466,0.0,11498.1,0.817448,1.02907,0.0,4,0.0,0.0,0.0,0.0,0.0,0,0,0,0,0,1,1,0,0,0
449954260,16.2655,16.3248,92.6466,92.6466,0.0,11498.4,0.817217,1.02911,0.0,4,0.0,0.0,0.0,0.0,0.0,0,0,0,0,0,1,1,0,0,0
449966273,16.3038,16.3246,92.7052,92.6477,0.0,11498.7,0.817137,1.02912,0.0,4,0.0,0.0,0.0,0.0,0.0,0,0,0,0,0,1,1,0,0,0
449978278,16.4697,16.326,92.6173,92.6471,0.0,11499.0,0.817695,1.02903,0.0,4,0.0,0.0,0.0,0.0,0.0,0,0,0,0,0,1,1,0,0,0
449990294,16.3421,16.3262,92.6173,92.6465,0.0,11499.3,0.817757,1.02902,0.0,4,0.0,0.0,0.0,0.0,0.0,0,0,0,0,0,1,1,0,0,0
450002266,16.3038,16.3259,92.6466,92.6465,0.0,11499.7,0.817671,1.02904,0.0,4,0.0,0.0,0.0,0.0,0.0,0,0,0,0,0,1,1,0,0,0
450014265,16.2399,16.3251,92.6466,92.6465,0.0,11500.0,0.81734,1.02909,0.0,4,0.0,0.0,0.0,0.0,0.0,0,0,0,0,0,1,1,0,0,0
450026262,16.4953,16.3268,92.6466,92.6465,0.0,11500.3,0.817994,1.02898,0.0,4,0.0,0.0,0.0,0.0,0.0,0,0,0,0,0,1,1,0,0,0
450038273,16.4825,16.3283,92.6466,92.6465,0.0,11500.6,0.818594,1.02889,0.0,4,0.0,0.0,0.0,0.0,0.0,0,0,0,0,0,1,1,0,0,0
450050262,16.4697,16.3298,92.6759,92.6471,0.0,11500.9,0.819137,1.0288,0.0,4,0.0,0.0,0.0,0.0,0.0,0,0,0,0,0,1,1,0,0,0
450062261,16.2655,16.3291,92.6466,92.6471,0.0,11501.2,0.81889,1.02884,0.0,4,0.0,0.0,0.0,0.0,0.0,0,0,0,0,0,1,1,0,0,0
450074281,16.1378,16.3272,92.6466,92.6471,0.0,11501.5,0.818154,1.02896,0.0,4,0.0,0.0,0.0,0.0,0.0,0,0,0,0,0,1,1,0,0,0
450086259,16.457,16.3285,92.588,92.6459,0.0,11501.8,0.818653,1.02888,0.0,4,0.0,0.0,0.0,0.0,0.0,0,0,0,0,0,1,1,0,0,0
450098252,16.3293,16.3285,92.6173,92.6453,0.0,11502.1,0.818656,1.02888,0.0,4,0.0,0.0,0.0,0.0,0.0,0,0,0,0,0,1,1,0,0,0
450110264,16.2527,16.3277,92.7052,92.6465,0.0,11502.4,0.818365,1.02892,0.0,4,0.0,0.0,0.0,0.0,0.0,0,0,0,0,0,1,1,0,0,0
450122273,16.3165,16.3276,92.7052,92.6477,0.0,11502.7,0.818321,1.02893,0.0,4,0.0,0.0,0.0,0.0,0.0,0,0,0,0,0,1,1,0,0,0
450134269,16.4825,16.3292,92.588,92.6465,0.0,11503.1,0.818917,1.02883,0.0,4,0.0,0.0,0.0,0.0,0.0,0,0,0,0,0,1,1,0,0,0
450146263,16.2782,16.3287,92.6173,92.6459,0.0,11503.4,0.818721,1.02886,0.0,4,0.0,0.0,0.0,0.0,0.0,0,0,0,0,0,1,1,0,0,0
450182262,16.3038,16.3276,92.6466,92.6465,0.0,11504.3,0.818299,1.02893,0.0,4,0.0,0.0,0.0,0.0,0.0,0,0,0,0,0,1,1,0,0,0
450194279,16.457,16.3289,92.6759,92.6471,0.0,11504.6,0.818796,1.02885,0.0,4,0.0,0.0,0.0,0.0,0.0,0,0,0,0,0,1,1,0,0,0
450206274,16.4442,16.33,92.6466,92.6471,0.0,11504.9,0.81924,1.02878,0.0,4,0.0,0.0,0.0,0.0,0.0,0,0,0,0,0,1,1,0,0,0
450219058,16.2782,16.3295,92.6173,92.6465,0.0,11505.2,0.819041,1.02881,0.0,4,0.0,0.0,0.0,0.0,0.0,0,0,0,0,0,1,1,0,0,0
450231056,16.3038,16.3292,92.588,92.6454,0.0,11505.5,0.818942,1.02883,0.0,4,0.0,0.0,0.0,0.0,0.0,0,0,0,0,0,1,1,0,0,0
450243059,16.2782,16.3287,92.6466,92.6454,0.0,11505.9,0.818746,1.02886,0.0,4,0.0,0.0,0.0,0.0,0.0,0,0,0,0,0,1,1,0,0,0
450255081,16.4825,16.3303,92.6466,92.6454,0.0,11506.2,0.819337,1.02876,0.0,4,0.0,0.0,0.0,0.0,0.0,0,0,0,0,0,1,1,0,0,0
450267065,16.0357,16.3273,92.6173,92.6449,0.0,11506.5,0.818204,1.02895,0.0,4,0.0,0.0,0.0,0.0,0.0,0,0,0,0,0,1,1,0,0,0
450279069,16.2782,16.3268,92.588,92.6437,0.0,11506.8,0.818016,1.02898,0.0,4,0.0,0.0,0.0,0.0,0.0,0,0,0,0,0,1,1,0,0,0
450291079,16.4442,16.328,92.6173,92.6432,0.0,11507.1,0.818467,1.02891,0.0,4,0.0,0.0,0.0,0.0,0.0,0,0,0,0,0,1,1,0,0,0
450303059,16.4442,16.3292,92.6173,92.6427,0.0,11507.4,0.818913,1.02883,0.0,4,0.0,0.0,0.0,0.0,0.0,0,0,0,0,0,1,1,0,0,0
450315060,16.2527,16.3284,92.6466,92.6428,0.0,11507.7,0.818619,1.02888,0.0,4,0.0,0.0,0.0,0.0,0.0,0,0,0,0,0,1,1,0,0,0
450327059,16.1378,16.3265,92.588,92.6417,0.0,11508.0,0.817886,1.029,0.0,4,0.0,0.0,0.0,0.0,0.0,0,0,0,0,0,1,1,0,0,0
450339059,16.2782,16.326,92.6173,92.6412,0.0,11508.3,0.817701,1.02903,0.0,4,0.0,0.0,0.0,0.0,0.0,0,0,0,0,0,1,1,0,0,0
450351060,16.4187,16.3269,92.6173,92.6407,0.0,11508.6,0.818057,1.02897,0.0,4,0.0,0.0,0.0,0.0,0.0,0,0,0,0,0,1,1,0,0,0
450435064,16.1889,16.3176,92.6173,92.6393,0.0,11510.8,0.814473,1.02956,0.0,4,0.0,0.0,0.0,0.0,0.0,0,0,0,0,0,1,1,0,0,0
450447861,16.2399,16.3169,92.6759,92.64,0.0,11511.1,0.814174,1.02961,0.0,4,0.0,0.0,0.0,0.0,0.0,0,0,0,0,0,1,1,0,0,0
450459859,16.2527,16.3162,92.6173,92.6395,0.0,11511.4,0.813928,1.02965,0.0,4,0.0,0.0,0.0,0.0,0.0,0,0,0,0,0,1,1,0,0,0
450471856,16.291,16.316,92.6173,92.6391,0.0,11511.7,0.813831,1.02967,0.0,4,0.0,0.0,0.0,0.0,0.0,0,0,0,0,0,1,1,0,0,0
450483874,16.2527,16.3153,92.6466,92.6393,0.0,11512.0,0.813588,1.02971,0.0,4,0.0,0.0,0.0,0.0,0.0,0,0,0,0,0,1,1,0,0,0
450495866,16.4059,16.3162,92.588,92.6382,0.0,11512.4,0.813936,1.02965,0.0,4,0.0,0.0,0.0,0.0,0.0,0,0,0,0,0,1,1,0,0,0
450507873,16.3293,16.3164,92.6466,92.6384,0.0,11512.7,0.813987,1.02964,0.0,4,0.0,0.0,0.0,0.0,0.0,0,0,0,0,0,1,1,0,0,0
450519857,16.3038,16.3162,92.6173,92.638,0.0,11513.0,0.813938,1.02965,0.0,4,0.0,0.0,0.0,0.0,0.0,0,0,0,0,0,1,1,0,0,0
450531860,16.457,16.3176,92.6466,92.6382,0.0,11513.3,0.814479,1.02956,0.0,4,0.0,0.0,0.0,0.0,0.0,0,0,0,0,0,1,1,0,0,0
450543857,16.3038,16.3175,92.588,92.6372,0.0,11513.6,0.814426,1.02957,0.0,4,0.0,0.0,0.0,0.0,0.0,0,0,0,0,0,1,1,0,0,0
450555856,16.4953,16.3193,92.6466,92.6373,0.0,11513.9,0.81511,1.02946,0.0,4,0.0,0.0,0.0,0.0,0.0,0,0,0,0,0,1,1,0,0,0
450567868,16.2527,16.3186,92.6173,92.6369,0.0,11514.2,0.814854,1.0295,0.0,4,0.0,0.0,0.0,0.0,0.0,0,0,0,0,0,1,1,0,0,0
450579860,16.2655,16.3181,92.6466,92.6371,0.0,11514.5,0.814649,1.02953,0.0,4,0.0,0.0,0.0,0.0,0.0,0,0,0,0,0,1,1,0,0,0
450591874,16.2527,16.3174,92.6466,92.6373,0.0,11514.8,0.814397,1.02957,0.0,4,0.0,0.0,0.0,0.0,0.0,0,0,0,0,0,1,1,0,0,0
450603865,16.4059,16.3183,92.588,92.6364,0.0,11515.1,0.814738,1.02952,0.0,4,0.0,0.0,0.0,0.0,0.0,0,0,0,0,0,1,1,0,0,0
450615870,16.3421,16.3186,92.6466,92.6366,0.0,11515.4,0.814829,1.0295,0.0,4,0.0,0.0,0.0,0.0,0.0,0,0,0,0,0,1,1,0,0,0
450627857,16.2782,16.3182,92.6173,92.6362,0.0,11515.8,0.814675,1.02953,0.0,4,0.0,0.0,0.0,0.0,0.0,0,0,0,0,0,1,1,0,0,0
450663847,16.2782,16.3172,92.7052,92.638,0.0,11516.7,0.814316,1.02959,0.0,4,0.0,0.0,0.0,0.0,0.0,0,0,0,0,0,1,1,0,0,0
450675855,16.457,16.3186,92.6173,92.6376,0.0,11517.0,0.814854,1.0295,0.0,4,0.0,0.0,0.0,0.0,0.0,0,0,0,0,0,1,1,0,0,0
450687869,16.074,16.3162,92.6466,92.6377,0.0,11517.3,0.813912,1.02965,0.0,4,0.0,0.0,0.0,0.0,0.0,0,0,0,0,0,1,1,0,0,0
450699861,16.0867,16.3139,92.6173,92.6373,0.0,11517.6,0.81303,1.0298,0.0,4,0.0,0.0,0.0,0.0,0.0,0,0,0,0,0,1,1,0,0,0
450711881,16.3165,16.3139,92.588,92.6364,0.0,11517.9,0.81304,1.0298,0.0,4,0.0,0.0,0.0,0.0,0.0,0,0,0,0,0,1,1,0,0,0
450723879,16.3804,16.3146,92.588,92.6354,0.0,11518.2,0.813296,1.02975,0.0,4,0.0,0.0,0.0,0.0,0.0,0,0,0,0,0,1,1,0,0,0
450736669,15.9974,16.3114,92.7052,92.6368,0.0,11518.6,0.812076,1.02995,0.0,4,0.0,0.0,0.0,0.0,0.0,0,0,0,0,0,1,1,0,0,0
450748661,16.4697,16.313,92.6173,92.6364,0.0,11518.9,0.812685,1.02985,0.0,4,0.0,0.0,0.0,0.0,0.0,0,0,0,0,0,1,1,0,0,0
450760661,16.2655,16.3125,92.7052,92.6378,0.0,11519.2,0.812502,1.02988,0.0,4,0.0,0.0,0.0,0.0,0.0,0,0,0,0,0,1,1,0,0,0
450772658,16.291,16.3123,92.6173,92.6374,0.0,11519.5,0.812419,1.0299,0.0,4,0.0,0.0,0.0,0.0,0.0,0,0,0,0,0,1,1,0,0,0
450784707,16.2782,16.312,92.588,92.6364,0.0,11519.8,0.812289,1.02992,0.0,4,0.0,0.0,0.0,0.0,0.0,0,0,0,0,0,1,1,0,0,0
450796658,16.2527,16.3114,92.6466,92.6366,0.0,11520.1,0.812061,1.02996,0.0,4,0.0,0.0,0.0,0.0,0.0,0,0,0,0,0,1,1,0,0,0
450808684,16.291,16.3112,92.6759,92.6374,0.0,11520.4,0.811982,1.02997,0.0,4,0.0,0.0,0.0,0.0,0.0,0,0,0,0,0,1,1,0,0,0
450820689,16.4825,16.3129,92.6173,92.637,0.0,11520.7,0.812641,1.02986,0.0,4,0.0,0.0,0.0,0.0,0.0,0,0,0,0,0,1,1,0,0,0
450832667,16.4953,16.3147,92.6466,92.6372,0.0,11521.0,0.813343,1.02975,0.0,4,0.0,0.0,0.0,0.0,0.0,0,0,0,0,0,1,1,0,0,0
450892661,16.1378,16.3131,92.6173,92.637,0.0,11522.6,0.812739,1.02985,0.0,4,0.0,0.0,0.0,0.0,0.0,0,0,0,0,0,1,1,0,0,0
450904659,16.291,16.3129,92.588,92.636,0.0,11522.9,0.812654,1.02986,0.0,4,0.0,0.0,0.0,0.0,0.0,0,0,0,0,0,1,1,0,0,0
450916704,16.4442,16.3142,92.6466,92.6362,0.0,11523.2,0.813159,1.02978,0.0,4,0.0,0.0,0.0,0.0,0.0,0,0,0,0,0,1,1,0,0,0
450928657,16.4953,16.316,92.6466,92.6364,0.0,11523.5,0.813855,1.02966,0.0,4,0.0,0.0,0.0,0.0,0.0,0,0,0,0,0,1,1,0,0,0
450940657,16.4825,16.3177,92.6173,92.636,0.0,11523.8,0.814496,1.02956,0.0,4,0.0,0.0,0.0,0.0,0.0,0,0,0,0,0,1,1,0,0,0
450952662,16.1889,16.3164,92.588,92.6351,0.0,11524.1,0.814001,1.02964,0.0,4,0.0,0.0,0.0,0.0,0.0,0,0,0,0,0,1,1,0,0,0
450964684,16.2016,16.3153,92.6466,92.6353,0.0,11524.4,0.813559,1.02971,0.0,4,0.0,0.0,0.0,0.0,0.0,0,0,0,0,0,1,1,0,0,0
450976670,16.4697,16.3168,92.588,92.6343,0.0,11524.7,0.814153,1.02961,0.0,4,0.0,0.0,0.0,0.0,0.0,0,0,0,0,0,1,1,0,0,0
450989479,16.3038,16.3167,92.7052,92.6358,0.0,11525.1,0.814103,1.02962,0.0,4,0.0,0.0,0.0,0.0,0.0,0,0,0,0,0,1,1,0,0,0
451001456,16.4825,16.3183,92.6466,92.636,0.0,11525.4,0.814742,1.02952,0.0,4,0.0,0.0,0.0,0.0,0.0,0,0,0,0,0,1,1,0,0,0
451013461,16.4059,16.3192,92.6466,92.6362,0.0,11525.7,0.815078,1.02946,0.0,4,0.0,0.0,0.0,0.0,0.0,0,0,0,0,0,1,1,0,0,0
451025458,16.291,16.3189,92.6173,92.6358,0.0,11526.0,0.81497,1.02948,0.0,4,0.0,0.0,0.0,0.0,0.0,0,0,0,0,0,1,1,0,0,0
451037457,16.3165,16.3189,92.7052,92.6372,0.0,11526.3,0.814961,1.02948,0.0,4,0.0,0.0,0.0,0.0,0.0,0,0,0,0,0,1,1,0,0,0
451049457,16.3421,16.3191,92.6466,92.6374,0.0,11526.6,0.81505,1.02947,0.0,4,0.0,0.0,0.0,0.0,0.0,0,0,0,0,0,1,1,0,0,0
451061459,16.4697,16.3206,92.6466,92.6376,0.0,11526.9,0.81563,1.02937,0.0,4,0.0,0.0,0.0,0.0,0.0,0,0,0,0,0,1,1,0,0,0
451073472,16.3548,16.321,92.6466,92.6378,0.0,11527.2,0.815761,1.02935,0.0,4,0.0,0.0,0.0,0.0,0.0,0,0,0,0,0,1,1,0,0,0
451085469,16.4825,16.3226,92.6466,92.6379,0.0,11527.5,0.816382,1.02925,0.0,4,0.0,0.0,0.0,0.0,0.0,0,0,0,0,0,1,1,0,0,0
451133465,16.291,16.321,92.6466,92.6404,0.0,11528.8,0.81576,1.02935,0.0,4,0.0,0.0,0.0,0.0,0.0,0,0,0,0,0,1,1,0,0,0
451145484,16.125,16.319,92.6173,92.6399,0.0,11529.1,0.815006,1.02947,0.0,4,0.0,0.0,0.0,0.0,0.0,0,0,0,0,0,1,1,0,0,0
451157480,16.291,16.3187,92.6466,92.64,0.0,11529.4,0.814898,1.02949,0.0,4,0.0,0.0,0.0,0.0,0.0,0,0,0,0,0,1,1,0,0,0
451169478,16.2527,16.3181,92.6466,92.6402,0.0,11529.7,0.814645,1.02953,0.0,4,0.0,0.0,0.0,0.0,0.0,0,0,0,0,0,1,1,0,0,0
451181467,16.2272,16.3172,92.6466,92.6403,0.0,11530.0,0.814295,1.02959,0.0,4,0.0,0.0,0.0,0.0,0.0,0,0,0,0,0,1,1,0,0,0
451193465,16.291,16.3169,92.588,92.6392,0.0,11530.3,0.814194,1.02961,0.0,4,0.0,0.0,0.0,0.0,0.0,0,0,0,0,0,1,1,0,0,0
451205468,16.3165,16.3169,92.6466,92.6394,0.0,11530.6,0.814193,1.02961,0.0,4,0.0,0.0,0.0,0.0,0.0,0,0,0,0,0,1,1,0,0,0
451217475,16.291,16.3166,92.6759,92.6401,0.0,11530.9,0.814093,1.02962,0.0,4,0.0,0.0,0.0,0.0,0.0,0,0,0,0,0,1,1,0,0,0
451229459,16.2655,16.3161,92.6759,92.6408,0.0,11531.2,0.813896,1.02966,0.0,4,0.0,0.0,0.0,0.0,0.0,0,0,0,0,0,1,1,0,0,0
451241461,16.3038,16.316,92.6759,92.6415,0.0,11531.5,0.813848,1.02966,0.0,4,0.0,0.0,0.0,0.0,0.0,0,0,0,0,0,1,1,0,0,0
451254265,16.2782,16.3156,92.6466,92.6416,0.0,11531.9,0.813704,1.02969,0.0,4,0.0,0.0,0.0,0.0,0.0,0,0,0,0,0,1,1,0,0,0
451266260,16.3165,16.3156,92.6759,92.6423,0.0,11532.2,0.813707,1.02969,0.0,4,0.0,0.0,0.0,0.0,0.0,0,0,0,0,0,1,1,0,0,0
451278281,16.1123,16.3136,92.6173,92.6418,0.0,11532.5,0.812925,1.02982,0.0,4,0.0,0.0,0.0,0.0,0.0,0,0,0,0,0,1,1,0,0,0
451290260,16.2782,16.3133,92.6759,92.6425,0.0,11532.8,0.812789,1.02984,0.0,4,0.0,0.0,0.0,0.0,0.0,0,0,0,0,0,1,1,0,0,0
451302258,16.0612,16.3107,92.6466,92.6426,0.0,11533.1,0.81182,1.03,0.0,4,0.0,0.0,0.0,0.0,0.0,0,0,0,0,0,1,1,0,0,0
451314259,16.1889,16.3095,92.6466,92.6427,0.0,11533.4,0.811351,1.03007,0.0,4,0.0,0.0,0.0,0.0,0.0,0,0,0,0,0,1,1,0,0,0
451386272,16.3293,16.305,92.6466,92.6432,0.0,11535.3,0.8096,1.03036,0.0,4,0.0,0.0,0.0,0.0,0.0,0,0,0,0,0,1,1,0,0,0
451398280,16.291,16.3048,92.6173,92.6426,0.0,11535.6,0.809547,1.03037,0.0,4,0.0,0.0,0.0,0.0,0.0,0,0,0,0,0,1,1,0,0,0
451410263,16.2399,16.3042,92.588,92.6415,0.0,11535.9,0.809298,1.03041,0.0,4,0.0,0.0,0.0,0.0,0.0,0,0,0,0,0,1,1,0,0,0
451422262,16.2655,16.3038,92.6466,92.6416,0.0,11536.2,0.809148,1.03044,0.0,4,0.0,0.0,0.0,0.0,0.0,0,0,0,0,0,1,1,0,0,0
451434275,16.3931,16.3047,92.588,92.6406,0.0,11536.5,0.809493,1.03038,0.0,4,0.0,0.0,0.0,0.0,0.0,0,0,0,0,0,1,1,0,0,0
451446302,16.2399,16.304,92.588,92.6395,0.0,11536.8,0.809244,1.03042,0.0,4,0.0,0.0,0.0,0.0,0.0,0,0,0,0,0,1,1,0,0,0
451458261,16.6357,16.3074,92.6173,92.6391,0.0,11537.1,0.81052,1.03021,0.0,4,0.0,0.0,0.0,0.0,0.0,0,0,0,0,0,1,1,0,0,0
451470271,16.2782,16.3071,92.6466,92.6392,0.0,11537.4,0.810407,1.03023,0.0,4,0.0,0.0,0.0,0.0,0.0,0,0,0,0,0,1,1,0,0,0
451482279,16.1889,16.3059,92.6466,92.6394,0.0,11537.7,0.809953,1.0303,0.0,4,0.0,0.0,0.0,0.0,0.0,0,0,0,0,0,1,1,0,0,0
451494280,16.5208,16.308,92.6173,92.6389,0.0,11538.0,0.810779,1.03017,0.0,4,0.0,0.0,0.0,0.0,0.0,0,0,0,0,0,1,1,0,0,0
451507064,16.2527,16.3075,92.6759,92.6397,0.0,11538.4,0.810566,1.0302,0.0,4,0.0,0.0,0.0,0.0,0.0,0,0,0,0,0,1,1,0,0,0
451519055,16.3038,16.3074,92.6759,92.6404,0.0,11538.7,0.810553,1.0302,0.0,4,0.0,0.0,0.0,0.0,0.0,0,0,0,0,0,1,1,0,0,0
451531056,16.0612,16.305,92.6759,92.6411,0.0,11539.0,0.809606,1.03036,0.0,4,0.0,0.0,0.0,0.0,0.0,0,0,0,0,0,1,1,0,0,0
451543058,16.2016,16.3039,92.6173,92.6406,0.0,11539.3,0.809208,1.03043,0.0,4,0.0,0.0,0.0,0.0,0.0,0,0,0,0,0,1,1,0,0,0
451555060,16.4825,16.3057,92.6173,92.6402,0.0,11539.6,0.809895,1.03031,0.0,4,0.0,0.0,0.0,0.0,0.0,0,0,0,0,0,1,1,0,0,0
451567048,16.2655,16.3053,92.6466,92.6403,0.0,11539.9,0.80974,1.03034,0.0,4,0.0,0.0,0.0,0.0,0.0,0,0,0,0,0,1,1,0,0,0
451579069,16.457,16.3068,92.588,92.6393,0.0,11540.2,0.810323,1.03024,0.0,4,0.0,0.0,0.0,0.0,0.0,0,0,0,0,0,1,1,0,0,0
451603069,16.1378,16.3049,92.6759,92.6401,0.0,11540.8,0.809564,1.03037,0.0,4,0.0,0.0,0.0,0.0,0.0,0,0,0,0,0,1,1,0,0,0
451615077,16.4825,16.3066,92.6466,92.6403,0.0,11541.2,0.810246,1.03026,0.0,4,0.0,0.0,0.0,0.0,0.0,0,0,0,0,0,1,1,0,0,0
451627068,16.2399,16.306,92.6466,92.6404,0.0,11541.5,0.80999,1.0303,0.0,4,0.0,0.0,0.0,0.0,0.0,0,0,0,0,0,1,1,0,0,0
451639067,16.2144,16.3051,92.6759,92.6411,0.0,11541.8,0.809638,1.03036,0.0,4,0.0,0.0,0.0,0.0,0.0,0,0,0,0,0,1,1,0,0,0
451651075,16.2399,16.3044,92.6173,92.6406,0.0,11542.1,0.809388,1.0304,0.0,4,0.0,0.0,0.0,0.0,0.0,0,0,0,0,0,1,1,0,0,0
451663087,16.3676,16.305,92.588,92.6396,0.0,11542.4,0.80963,1.03036,0.0,4,0.0,0.0,0.0,0.0,0.0,0,0,0,0,0,1,1,0,0,0
451675057,16.3676,16.3057,92.588,92.6385,0.0,11542.7,0.809871,1.03032,0.0,4,0.0,0.0,0.0,0.0,0.0,0,0,0,0,0,1,1,0,0,0
451687058,16.508,16.3077,92.588,92.6375,0.0,11543.0,0.810649,1.03019,0.0,4,0.0,0.0,0.0,0.0,0.0,0,0,0,0,0,1,1,0,0,0
451699062,16.457,16.3092,92.6759,92.6383,0.0,11543.3,0.811224,1.03009,0.0,4,0.0,0.0,0.0,0.0,0.0,0,0,0,0,0,1,1,0,0,0
451711058,16.2655,16.3087,92.6466,92.6385,0.0,11543.6,0.811056,1.03012,0.0,4,0.0,0.0,0.0,0.0,0.0,0,0,0,0,0,1,1,0,0,0
451723057,16.2655,16.3083,92.6173,92.6381,0.0,11543.9,0.810889,1.03015,0.0,4,0.0,0.0,0.0,0.0,0.0,0,0,0,0,0,1,1,0,0,0
451735069,16.4442,16.3097,92.6759,92.6388,0.0,11544.2,0.811412,1.03006,0.0,4,0.0,0.0,0.0,0.0,0.0,0,0,0,0,0,1,1,0,0,0
451747077,16.2016,16.3086,92.6759,92.6396,0.0,11544.5,0.810997,1.03013,0.0,4,0.0,0.0,0.0,0.0,0.0,0,0,0,0,0,1,1,0,0,0
451759861,16.2144,16.3076,92.6759,92.6403,0.0,11544.9,0.810635,1.03019,0.0,4,0.0,0.0,0.0,0.0,0.0,0,0,0,0,0,1,1,0,0,0
451771865,16.3421,16.308,92.6466,92.6404,0.0,11545.2,0.810768,1.03017,0.0,4,0.0,0.0,0.0,0.0,0.0,0,0,0,0,0,1,1,0,0,0
451855877,16.3038,16.3073,92.6466,92.6412,0.0,11547.3,0.810486,1.03022,0.0,4,0.0,0.0,0.0,0.0,0.0,0,0,0,0,0,1,1,0,0,0
451867870,16.3421,16.3076,92.6466,92.6413,0.0,11547.7,0.81062,1.03019,0.0,4,0.0,0.0,0.0,0.0,0.0,0,0,0,0,0,1,1,0,0,0
451879877,16.2016,16.3066,92.588,92.6402,0.0,11548.0,0.810212,1.03026,0.0,4,0.0,0.0,0.0,0.0,0.0,0,0,0,0,0,1,1,0,0,0
451891869,16.2144,16.3056,92.6466,92.6404,0.0,11548.3,0.809858,1.03032,0.0,4,0.0,0.0,0.0,0.0,0.0,0,0,0,0,0,1,1,0,0,0
451903866,16.1889,16.3045,92.6173,92.6399,0.0,11548.6,0.809409,1.03039,0.0,4,0.0,0.0,0.0,0.0,0.0,0,0,0,0,0,1,1,0,0,0
451915859,16.2655,16.3041,92.6466,92.6401,0.0,11548.9,0.809259,1.03042,0.0,4,0.0,0.0,0.0,0.0,0.0,0,0,0,0,0,1,1,0,0,0
451927858,16.2144,16.3032,92.6173,92.6396,0.0,11549.2,0.808915,1.03047,0.0,4,0.0,0.0,0.0,0.0,0.0,0,0,0,0,0,1,1,0,0,0
451939860,16.3421,16.3036,92.6466,92.6397,0.0,11549.5,0.809064,1.03045,0.0,4,0.0,0.0,0.0,0.0,0.0,0,0,0,0,0,1,1,0,0,0
451951871,16.2527,16.3031,92.6759,92.6405,0.0,11549.8,0.808868,1.03048,0.0,4,0.0,0.0,0.0,0.0,0.0,0,0,0,0,0,1,1,0,0,0
451963856,16.2782,16.3028,92.6466,92.6406,0.0,11550.1,0.808773,1.0305,0.0,4,0.0,0.0,0.0,0.0,0.0,0,0,0,0,0,1,1,0,0,0
451975857,16.2527,16.3023,92.6759,92.6413,0.0,11550.4,0.80858,1.03053,0.0,4,0.0,0.0,0.0,0.0,0.0,0,0,0,0,0,1,1,0,0,0
451987849,16.291,16.3022,92.6466,92.6414,0.0,11550.7,0.808537,1.03054,0.0,4,0.0,0.0,0.0,0.0,0.0,0,0,0,0,0,1,1,0,0,0
451999863,16.1633,16.3008,92.6173,92.6409,0.0,11551.1,0.808002,1.03062,0.0,4,0.0,0.0,0.0,0.0,0.0,0,0,0,0,0,1,1,0,0,0
452011876,16.4442,16.3022,92.6173,92.6405,0.0,11551.4,0.808554,1.03053,0.0,4,0.0,0.0,0.0,0.0,0.0,0,0,0,0,0,1,1,0,0,0
452024670,16.4187,16.3034,92.588,92.6394,0.0,11551.7,0.809002,1.03046,0.0,4,0.0,0.0,0.0,0.0,0.0,0,0,0,0,0,1,1,0,0,0
452036668,16.3165,16.3035,92.6759,92.6401,0.0,11552.0,0.809053,1.03045,0.0,4,0.0,0.0,0.0,0.0,0.0,0,0,0,0,0,1,1,0,0,0
452048667,16.2655,16.3032,92.6173,92.6397,0.0,11552.3,0.808907,1.03048,0.0,4,0.0,0.0,0.0,0.0,0.0,0,0,0,0,0,1,1,0,0,0
452072680,16.457,16.3068,92.6466,92.6405,0.0,11552.9,0.810327,1.03024,0.0,4,0.0,0.0,0.0,0.0,0.0,0,0,0,0,0,1,1,0,0,0
452084657,16.3038,16.3068,92.6173,92.6401,0.0,11553.2,0.810315,1.03024,0.0,4,0.0,0.0,0.0,0.0,0.0,0,0,0,0,0,1,1,0,0,0
452096655,16.4442,16.3082,92.6173,92.6396,0.0,11553.5,0.810843,1.03016,0.0,4,0.0,0.0,0.0,0.0,0.0,0,0,0,0,0,1,1,0,0,0
452108683,16.508,16.3102,92.588,92.6386,0.0,11553.9,0.811612,1.03003,0.0,4,0.0,0.0,0.0,0.0,0.0,0,0,0,0,0,1,1,0,0,0
452120664,16.4953,16.312,92.588,92.6376,0.0,11554.2,0.812324,1.02991,0.0,4,0.0,0.0,0.0,0.0,0.0,0,0,0,0,0,1,1,0,0,0
452132661,16.4697,16.3136,92.6173,92.6372,0.0,11554.5,0.81293,1.02981,0.0,4,0.0,0.0,0.0,0.0,0.0,0,0,0,0,0,1,1,0,0,0
452144683,16.2655,16.3131,92.6759,92.638,0.0,11554.8,0.812745,1.02984,0.0,4,0.0,0.0,0.0,0.0,0.0,0,0,0,0,0,1,1,0,0,0
452156669,16.4442,16.3144,92.6173,92.6375,0.0,11555.1,0.813249,1.02976,0.0,4,0.0,0.0,0.0,0.0,0.0,0,0,0,0,0,1,1,0,0,0
452168656,16.2782,16.3141,92.6759,92.6383,0.0,11555.4,0.81311,1.02978,0.0,4,0.0,0.0,0.0,0.0,0.0,0,0,0,0,0,1,1,0,0,0
452180697,16.508,16.316,92.588,92.6373,0.0,11555.7,0.813856,1.02966,0.0,4,0.0,0.0,0.0,0.0,0.0,0,0,0,0,0,1,1,0,0,0
452192703,16.291,16.3158,92.6759,92.6381,0.0,11556.0,0.81376,1.02968,0.0,4,0.0,0.0,0.0,0.0,0.0,0,0,0,0,0,1,1,0,0,0
452204660,16.0867,16.3135,92.6466,92.6383,0.0,11556.3,0.812879,1.02982,0.0,4,0.0,0.0,0.0,0.0,0.0,0,0,0,0,0,1,1,0,0,0
452216701,16.2144,16.3125,92.6466,92.6384,0.0,11556.6,0.812498,1.02989,0.0,4,0.0,0.0,0.0,0.0,0.0,0,0,0,0,0,1,1,0,0,0
452228694,16.291,16.3123,92.6466,92.6386,0.0,11556.9,0.812415,1.0299,0.0,4,0.0,0.0,0.0,0.0,0.0,0,0,0,0,0,1,1,0,0,0
452240674,16.074,16.3099,92.6759,92.6393,0.0,11557.2,0.811499,1.03005,0.0,4,0.0,0.0,0.0,0.0,0.0,0,0,0,0,0,1,1,0,0,0
452252661,16.2016,16.3088,92.6759,92.6401,0.0,11557.6,0.811082,1.03012,0.0,4,0.0,0.0,0.0,0.0,0.0,0,0,0,0,0,1,1,0,0,0
452313457,16.3038,16.31,92.6466,92.6402,0.0,11559.1,0.81155,1.03004,0.0,4,0.0,0.0,0.0,0.0,0.0,0,0,0,0,0,1,1,0,0,0
452325457,16.3038,16.31,92.6759,92.6409,0.0,11559.4,0.811526,1.03004,0.0,4,0.0,0.0,0.0,0.0,0.0,0,0,0,0,0,1,1,0,0,0
452337468,16.2782,16.3097,92.7052,92.6422,0.0,11559.7,0.811404,1.03006,0.0,4,0.0,0.0,0.0,0.0,0.0,0,0,0,0,0,1,1,0,0,0
452349458,16.074,16.3073,92.588,92.6411,0.0,11560.0,0.810498,1.03021,0.0,4,0.0,0.0,0.0,0.0,0.0,0,0,0,0,0,1,1,0,0,0
452361471,16.2527,16.3067,92.6466,92.6412,0.0,11560.4,0.810288,1.03025,0.0,4,0.0,0.0,0.0,0.0,0.0,0,0,0,0,0,1,1,0,0,0
452373472,16.0484,16.3042,92.6173,92.6407,0.0,11560.7,0.809295,1.03041,0.0,4,0.0,0.0,0.0,0.0,0.0,0,0,0,0,0,1,1,0,0,0
452385470,16.4825,16.3059,92.588,92.6397,0.0,11561.0,0.80998,1.0303,0.0,4,0.0,0.0,0.0,0.0,0.0,0,0,0,0,0,1,1,0,0,0
452397475,16.3038,16.3059,92.7052,92.641,0.0,11561.3,0.809972,1.0303,0.0,4,0.0,0.0,0.0,0.0,0.0,0,0,0,0,0,1,1,0,0,0
452409473,16.3038,16.3059,92.6466,92.6411,0.0,11561.6,0.809964,1.0303,0.0,4,0.0,0.0,0.0,0.0,0.0,0,0,0,0,0,1,1,0,0,0
452421458,16.3038,16.3059,92.6173,92.6406,0.0,11561.9,0.809956,1.0303,0.0,4,0.0,0.0,0.0,0.0,0.0,0,0,0,0,0,1,1,0,0,0
452433458,16.4187,16.307,92.588,92.6396,0.0,11562.2,0.81039,1.03023,0.0,4,0.0,0.0,0.0,0.0,0.0,0,0,0,0,0,1,1,0,0,0
452445453,16.2655,16.3066,92.6173,92.6392,0.0,11562.5,0.81023,1.03026,0.0,4,0.0,0.0,0.0,0.0,0.0,0,0,0,0,0,1,1,0,0,0
452457460,16.3931,16.3075,92.6173,92.6387,0.0,11562.8,0.810563,1.0302,0.0,4,0.0,0.0,0.0,0.0,0.0,0,0,0,0,0,1,1,0,0,0
452469467,16.1889,16.3063,92.7052,92.6401,0.0,11563.1,0.810107,1.03028,0.0,4,0.0,0.0,0.0,0.0,0.0,0,0,0,0,0,1,1,0,0,0
452481468,16.3931,16.3071,92.6759,92.6408,0.0,11563.4,0.810441,1.03022,0.0,4,0.0,0.0,0.0,0.0,0.0,0,0,0,0,0,1,1,0,0,0
452493474,16.1506,16.3056,92.6173,92.6403,0.0,11563.8,0.809838,1.03032,0.0,4,0.0,0.0,0.0,0.0,0.0,0,0,0,0,0,1,1,0,0,0
452505451,16.2782,16.3053,92.588,92.6393,0.0,11564.1,0.809733,1.03034,0.0,4,0.0,0.0,0.0,0.0,0.0,0,0,0,0,0,1,1,0,0,0
452517459,16.3038,16.3053,92.6173,92.6388,0.0,11564.4,0.809727,1.03034,0.0,4,0.0,0.0,0.0,0.0,0.0,0,0,0,0,0,1,1,0,0,0
452529458,16.457,16.3068,92.588,92.6378,0.0,11564.7,0.81031,1.03024,0.0,4,0.0,0.0,0.0,0.0,0.0,0,0,0,0,0,1,1,0,0,0
452542262,16.457,16.3083,92.588,92.6368,0.0,11565.0,0.810888,1.03015,0.0,4,0.0,0.0,0.0,0.0,0.0,0,0,0,0,0,1,1,0,0,0
452555064,16.4825,16.31,92.588,92.6358,0.0,11565.3,0.811558,1.03004,0.0,4,0.0,0.0,0.0,0.0,0.0,0,0,0,0,0,1,1,0,0,0
452567084,16.2782,16.3097,92.6173,92.6355,0.0,11565.6,0.811435,1.03006,0.0,4,0.0,0.0,0.0,0.0,0.0,0,0,0,0,0,1,1,0,0,0
452579083,16.4314,16.3109,92.588,92.6345,0.0,11566.0,0.811903,1.02998,0.0,4,0.0,0.0,0.0,0.0,0.0,0,0,0,0,0,1,1,0,0,0
452591073,16.291,16.3107,92.6173,92.6342,0.0,11566.3,0.811826,1.03,0.0,4,0.0,0.0,0.0,0.0,0.0,0,0,0,0,0,1,1,0,0,0
452603060,16.2527,16.3102,92.6173,92.6339,0.0,11566.6,0.811603,1.03003,0.0,4,0.0,0.0,0.0,0.0,0.0,0,0,0,0,0,1,1,0,0,0
452615069,16.4187,16.3113,92.588,92.6329,0.0,11566.9,0.81202,1.02996,0.0,4,0.0,0.0,0.0,0.0,0.0,0,0,0,0,0,1,1,0,0,0
452627058,16.4697,16.3128,92.6466,92.6332,0.0,11567.2,0.81263,1.02986,0.0,4,0.0,0.0,0.0,0.0,0.0,0,0,0,0,0,1,1,0,0,0
452639064,16.3038,16.3127,92.6173,92.6329,0.0,11567.5,0.812596,1.02987,0.0,4,0.0,0.0,0.0,0.0,0.0,0,0,0,0,0,1,1,0,0,0
452651063,16.3038,16.3127,92.588,92.632,0.0,11567.8,0.812561,1.02988,0.0,4,0.0,0.0,0.0,0.0,0.0,0,0,0,0,0,1,1,0,0,0
452663057,16.291,16.3124,92.6466,92.6323,0.0,11568.1,0.812478,1.02989,0.0,4,0.0,0.0,0.0,0.0,0.0,0,0,0,0,0,1,1,0,0,0
452675076,16.3165,16.3125,92.6759,92.6332,0.0,11568.4,0.812494,1.02989,0.0,4,0.0,0.0,0.0,0.0,0.0,0,0,0,0,0,1,1,0,0,0
452687069,16.2655,16.312,92.6759,92.634,0.0,11568.7,0.812314,1.02992,0.0,4,0.0,0.0,0.0,0.0,0.0,0,0,0,0,0,1,1,0,0,0
452699082,16.2016,16.3109,92.6759,92.6349,0.0,11569.0,0.811889,1.02999,0.0,4,0.0,0.0,0.0,0.0,0.0,0,0,0,0,0,1,1,0,0,0
452759063,16.4953,16.314,92.6173,92.6354,0.0,11570.6,0.813081,1.02979,0.0,4,0.0,0.0,0.0,0.0,0.0,0,0,0,0,0,1,1,0,0,0
452771058,16.2782,16.3137,92.6759,92.6362,0.0,11570.9,0.812943,1.02981,0.0,4,0.0,0.0,0.0,0.0,0.0,0,0,0,0,0,1,1,0,0,0
452783080,16.2527,16.313,92.6466,92.6364,0.0,11571.2,0.812709,1.02985,0.0,4,0.0,0.0,0.0,0.0,0.0,0,0,0,0,0,1,1,0,0,0
452795054,16.4442,16.3144,92.6759,92.6372,0.0,11571.5,0.813213,1.02977,0.0,4,0.0,0.0,0.0,0.0,0.0,0,0,0,0,0,1,1,0,0,0
452807058,16.2144,16.3134,92.6466,92.6374,0.0,11571.8,0.812829,1.02983,0.0,4,0.0,0.0,0.0,0.0,0.0,0,0,0,0,0,1,1,0,0,0
452819065,16.0995,16.3112,92.6759,92.6382,0.0,11572.1,0.812006,1.02997,0.0,4,0.0,0.0,0.0,0.0,0.0,0,0,0,0,0,1,1,0,0,0
452831065,16.2782,16.3109,92.6173,92.6378,0.0,11572.4,0.81188,1.02999,0.0,4,0.0,0.0,0.0,0.0,0.0,0,0,0,0,0,1,1,0,0,0
452843065,16.2016,16.3098,92.588,92.6368,0.0,11572.7,0.81146,1.03006,0.0,4,0.0,0.0,0.0,0.0,0.0,0,0,0,0,0,1,1,0,0,0
452855068,16.1633,16.3083,92.6759,92.6376,0.0,11573.1,0.810896,1.03015,0.0,4,0.0,0.0,0.0,0.0,0.0,0,0,0,0,0,1,1,0,0,0
452867077,16.291,16.3082,92.588,92.6366,0.0,11573.4,0.810829,1.03016,0.0,4,0.0,0.0,0.0,0.0,0.0,0,0,0,0,0,1,1,0,0,0
452879066,16.0612,16.3057,92.588,92.6356,0.0,11573.7,0.809879,1.03032,0.0,4,0.0,0.0,0.0,0.0,0.0,0,0,0,0,0,1,1,0,0,0
452891060,16.2527,16.3052,92.6759,92.6364,0.0,11574.0,0.809675,1.03035,0.0,4,0.0,0.0,0.0,0.0,0.0,0,0,0,0,0,1,1,0,0,0
452903062,16.4314,16.3064,92.6759,92.6372,0.0,11574.3,0.810161,1.03027,0.0,4,0.0,0.0,0.0,0.0,0.0,0,0,0,0,0,1,1,0,0,0
452915056,16.291,16.3063,92.6466,92.6374,0.0,11574.6,0.810102,1.03028,0.0,4,0.0,0.0,0.0,0.0,0.0,0,0,0,0,0,1,1,0,0,0
452927060,16.1506,16.3047,92.6466,92.6376,0.0,11574.9,0.809503,1.03038,0.0,4,0.0,0.0,0.0,0.0,0.0,0,0,0,0,0,1,1,0,0,0
452939064,16.2782,16.3044,92.6173,92.6372,0.0,11575.2,0.809401,1.03039,0.0,4,0.0,0.0,0.0,0.0,0.0,0,0,0,0,0,1,1,0,0,0
452951067,16.2655,16.3041,92.6759,92.638,0.0,11575.5,0.809251,1.03042,0.0,4,0.0,0.0,0.0,0.0,0.0,0,0,0,0,0,1,1,0,0,0
452999066,16.291,16.3037,92.6466,92.6386,0.0,11576.8,0.809107,1.03044,0.0,4,0.0,0.0,0.0,0.0,0.0,0,0,0,0,0,1,1,0,0,0
453011067,16.4314,16.305,92.588,92.6376,0.0,11577.1,0.809599,1.03036,0.0,4,0.0,0.0,0.0,0.0,0.0,0,0,0,0,0,1,1,0,0,0
453023080,16.4059,16.306,92.6466,92.6378,0.0,11577.4,0.809987,1.0303,0.0,4,0.0,0.0,0.0,0.0,0.0,0,0,0,0,0,1,1,0,0,0
453035070,16.2399,16.3053,92.6466,92.638,0.0,11577.7,0.809733,1.03034,0.0,4,0.0,0.0,0.0,0.0,0.0,0,0,0,0,0,1,1,0,0,0
453047858,16.1761,16.304,92.6173,92.6376,0.0,11578.0,0.809237,1.03042,0.0,4,0.0,0.0,0.0,0.0,0.0,0,0,0,0,0,1,1,0,0,0
453059859,16.2655,16.3036,92.6466,92.6378,0.0,11578.3,0.809088,1.03045,0.0,4,0.0,0.0,0.0,0.0,0.0,0,0,0,0,0,1,1,0,0,0
453071863,16.457,16.3052,92.6466,92.6379,0.0,11578.6,0.809678,1.03035,0.0,4,0.0,0.0,0.0,0.0,0.0,0,0,0,0,0,1,1,0,0,0
453083849,16.2655,16.3048,92.6173,92.6375,0.0,11578.9,0.809525,1.03037,0.0,4,0.0,0.0,0.0,0.0,0.0,0,0,0,0,0,1,1,0,0,0
453095859,16.457,16.3063,92.6173,92.6371,0.0,11579.2,0.810111,1.03028,0.0,4,0.0,0.0,0.0,0.0,0.0,0,0,0,0,0,1,1,0,0,0
453107856,16.2782,16.306,92.6466,92.6373,0.0,11579.6,0.810003,1.0303,0.0,4,0.0,0.0,0.0,0.0,0.0,0,0,0,0,0,1,1,0,0,0
453119868,16.4953,16.3079,92.6466,92.6375,0.0,11579.9,0.810731,1.03018,0.0,4,0.0,0.0,0.0,0.0,0.0,0,0,0,0,0,1,1,0,0,0
453131868,16.2144,16.307,92.6173,92.6371,0.0,11580.2,0.810371,1.03023,0.0,4,0.0,0.0,0.0,0.0,0.0,0,0,0,0,0,1,1,0,0,0
453143868,16.3165,16.3071,92.6759,92.6379,0.0,11580.5,0.810408,1.03023,0.0,4,0.0,0.0,0.0,0.0,0.0,0,0,0,0,0,1,1,0,0,0
453155875,16.0867,16.3049,92.6759,92.6386,0.0,11580.8,0.809561,1.03037,0.0,4,0.0,0.0,0.0,0.0,0.0,0,0,0,0,0,1,1,0,0,0
453167860,16.1378,16.3032,92.6173,92.6382,0.0,11581.1,0.808918,1.03047,0.0,4,0.0,0.0,0.0,0.0,0.0,0,0,0,0,0,1,1,0,0,0
453179855,16.2655,16.3028,92.6173,92.6378,0.0,11581.4,0.808773,1.0305,0.0,4,0.0,0.0,0.0,0.0,0.0,0,0,0,0,0,1,1,0,0,0
453287857,16.3165,16.301,92.6759,92.6377,0.0,11584.2,0.808058,1.03061,0.0,4,0.0,0.0,0.0,0.0,0.0,0,0,0,0,0,1,1,0,0,0
453299864,16.3038,16.301,92.6466,92.6379,0.0,11584.5,0.808069,1.03061,0.0,4,0.0,0.0,0.0,0.0,0.0,0,0,0,0,0,1,1,0,0,0
453312669,16.2527,16.3005,92.588,92.6369,0.0,11584.8,0.807884,1.03064,0.0,4,0.0,0.0,0.0,0.0,0.0,0,0,0,0,0,1,1,0,0,0
453324673,16.2527,16.3,92.6466,92.6371,0.0,11585.1,0.8077,1.03067,0.0,4,0.0,0.0,0.0,0.0,0.0,0,0,0,0,0,1,1,0,0,0
453336705,16.0612,16.2976,92.6466,92.6373,0.0,11585.4,0.806781,1.03082,0.0,4,0.0,0.0,0.0,0.0,0.0,0,0,0,0,0,1,1,0,0,0
453348653,16.457,16.2992,92.588,92.6363,0.0,11585.8,0.807394,1.03072,0.0,4,0.0,0.0,0.0,0.0,0.0,0,0,0,0,0,1,1,0,0,0
453360662,16.2399,16.2986,92.6466,92.6365,0.0,11586.1,0.807166,1.03076,0.0,4,0.0,0.0,0.0,0.0,0.0,0,0,0,0,0,1,1,0,0,0
453372656,16.2527,16.2982,92.6466,92.6367,0.0,11586.4,0.806989,1.03079,0.0,4,0.0,0.0,0.0,0.0,0.0,0,0,0,0,0,1,1,0,0,0
453384653,16.1506,16.2967,92.6759,92.6375,0.0,11586.7,0.806421,1.03088,0.0,4,0.0,0.0,0.0,0.0,0.0,0,0,0,0,0,1,1,0,0,0
453396686,16.3676,16.2974,92.6759,92.6382,0.0,11587.0,0.806694,1.03084,0.0,4,0.0,0.0,0.0,0.0,0.0,0,0,0,0,0,1,1,0,0,0
453408673,16.3548,16.298,92.588,92.6372,0.0,11587.3,0.806915,1.0308,0.0,4,0.0,0.0,0.0,0.0,0.0,0,0,0,0,0,1,1,0,0,0
453420665,16.4697,16.2997,92.6759,92.638,0.0,11587.6,0.807576,1.03069,0.0,4,0.0,0.0,0.0,0.0,0.0,0,0,0,0,0,1,1,0,0,0
453432662,16.2399,16.2991,92.6466,92.6382,0.0,11587.9,0.807346,1.03073,0.0,4,0.0,0.0,0.0,0.0,0.0,0,0,0,0,0,1,1,0,0,0
453444727,16.4697,16.3008,92.6466,92.6384,0.0,11588.2,0.808002,1.03062,0.0,4,0.0,0.0,0.0,0.0,0.0,0,0,0,0,0,1,1,0,0,0
453456675,16.2399,16.3002,92.6466,92.6385,0.0,11588.5,0.807769,1.03066,0.0,4,0.0,0.0,0.0,0.0,0.0,0,0,0,0,0,1,1,0,0,0
453468778,16.1761,16.299,92.6173,92.6381,0.0,11588.8,0.807291,1.03074,0.0,4,0.0,0.0,0.0,0.0,0.0,0,0,0,0,0,1,1,0,0,0
453480665,16.3165,16.2991,92.6173,92.6377,0.0,11589.1,0.807359,1.03073,0.0,4,0.0,0.0,0.0,0.0,0.0,0,0,0,0,0,1,1,0,0,0
453492662,15.9718,16.2959,92.6173,92.6373,0.0,11589.5,0.8061,1.03094,0.0,4,0.0,0.0,0.0,0.0,0.0,0,0,0,0,0,1,1,0,0,0
453504659,16.1889,16.2948,92.6466,92.6375,0.0,11589.8,0.805688,1.031,0.0,4,0.0,0.0,0.0,0.0,0.0,0,0,0,0,0,1,1,0,0,0
453516689,16.3421,16.2953,92.7052,92.6388,0.0,11590.1,0.80587,1.03097,0.0,4,0.0,0.0,0.0,0.0,0.0,0,0,0,0,0,1,1,0,0,0
453528665,16.2782,16.2951,92.6466,92.639,0.0,11590.4,0.805805,1.03099,0.0,4,0.0,0.0,0.0,0.0,0.0,0,0,0,0,0,1,1,0,0,0
453540743,16.1889,16.294,92.6173,92.6386,0.0,11590.7,0.805396,1.03105,0.0,4,0.0,0.0,0.0,0.0,0.0,0,0,0,0,0,1,1,0,0,0
453552679,16.1506,16.2926,92.6466,92.6387,0.0,11591.0,0.804844,1.03114,0.0,4,0.0,0.0,0.0,0.0,0.0,0,0,0,0,0,1,1,0,0,0
453564664,16.2272,16.2919,92.6466,92.6389,0.0,11591.3,0.804593,1.03118,0.0,4,0.0,0.0,0.0,0.0,0.0,0,0,0,0,0,1,1,0,0,0
453577469,16.1761,16.2908,92.6759,92.6396,0.0,11591.6,0.804148,1.03126,0.0,4,0.0,0.0,0.0,0.0,0.0,0,0,0,0,0,1,1,0,0,0
453589456,16.2527,16.2904,92.6173,92.6392,0.0,11592.0,0.804001,1.03128,0.0,4,0.0,0.0,0.0,0.0,0.0,0,0,0,0,0,1,1,0,0,0
453601449,16.2655,16.2902,92.6759,92.6399,0.0,11592.3,0.803905,1.0313,0.0,4,0.0,0.0,0.0,0.0,0.0,0,0,0,0,0,1,1,0,0,0
453613457,16.508,16.2923,92.6466,92.6401,0.0,11592.6,0.804742,1.03116,0.0,4,0.0,0.0,0.0,0.0,0.0,0,0,0,0,0,1,1,0,0,0
453625462,16.4442,16.2938,92.6466,92.6402,0.0,11592.9,0.805326,1.03106,0.0,4,0.0,0.0,0.0,0.0,0.0,0,0,0,0,0,1,1,0,0,0
453637457,16.4953,16.2959,92.588,92.6391,0.0,11593.2,0.806101,1.03094,0.0,4,0.0,0.0,0.0,0.0,0.0,0,0,0,0,0,1,1,0,0,0
453649452,16.4442,16.2973,92.6173,92.6387,0.0,11593.5,0.806672,1.03084,0.0,4,0.0,0.0,0.0,0.0,0.0,0,0,0,0,0,1,1,0,0,0
453661458,16.2782,16.2972,92.6466,92.6389,0.0,11593.8,0.806599,1.03085,0.0,4,0.0,0.0,0.0,0.0,0.0,0,0,0,0,0,1,1,0,0,0
453673478,16.2655,16.2968,92.6759,92.6396,0.0,11594.1,0.806477,1.03087,0.0,4,0.0,0.0,0.0,0.0,0.0,0,0,0,0,0,1,1,0,0,0
453757458,16.3165,16.2973,92.6173,92.6411,0.0,11596.3,0.806659,1.03084,0.0,4,0.0,0.0,0.0,0.0,0.0,0,0,0,0,0,1,1,0,0,0
453769468,16.3165,16.2975,92.588,92.64,0.0,11596.6,0.806734,1.03083,0.0,4,0.0,0.0,0.0,0.0,0.0,0,0,0,0,0,1,1,0,0,0
453781465,16.2782,16.2973,92.6466,92.6401,0.0,11596.9,0.806659,1.03084,0.0,4,0.0,0.0,0.0,0.0,0.0,0,0,0,0,0,1,1,0,0,0
453793466,16.4825,16.2992,92.6173,92.6397,0.0,11597.2,0.807372,1.03073,0.0,4,0.0,0.0,0.0,0.0,0.0,0,0,0,0,0,1,1,0,0,0
453805474,16.291,16.2991,92.6173,92.6392,0.0,11597.5,0.80734,1.03073,0.0,4,0.0,0.0,0.0,0.0,0.0,0,0,0,0,0,1,1,0,0,0
453818266,16.4953,16.301,92.6466,92.6394,0.0,11597.8,0.808095,1.03061,0.0,4,0.0,0.0,0.0,0.0,0.0,0,0,0,0,0,1,1,0,0,0
453830265,15.9207,16.2972,92.6173,92.639,0.0,11598.1,0.806632,1.03085,0.0,4,0.0,0.0,0.0,0.0,0.0,0,0,0,0,0,1,1,0,0,0
453842262,16.2782,16.2971,92.6466,92.6391,0.0,11598.5,0.806559,1.03086,0.0,4,0.0,0.0,0.0,0.0,0.0,0,0,0,0,0,1,1,0,0,0
453854281,16.2782,16.2969,92.6466,92.6393,0.0,11598.8,0.806486,1.03087,0.0,4,0.0,0.0,0.0,0.0,0.0,0,0,0,0,0,1,1,0,0,0
453866261,16.4825,16.2987,92.6759,92.64,0.0,11599.1,0.8072,1.03076,0.0,4,0.0,0.0,0.0,0.0,0.0,0,0,0,0,0,1,1,0,0,0
453878266,16.2782,16.2985,92.6466,92.6401,0.0,11599.4,0.807122,1.03077,0.0,4,0.0,0.0,0.0,0.0,0.0,0,0,0,0,0,1,1,0,0,0
453890267,16.2782,16.2983,92.6173,92.6397,0.0,11599.7,0.807044,1.03078,0.0,4,0.0,0.0,0.0,0.0,0.0,0,0,0,0,0,1,1,0,0,0
453902272,16.291,16.2982,92.588,92.6386,0.0,11600.0,0.807016,1.03079,0.0,4,0.0,0.0,0.0,0.0,0.0,0,0,0,0,0,1,1,0,0,0
453914270,16.3165,16.2984,92.6173,92.6382,0.0,11600.3,0.807086,1.03077,0.0,4,0.0,0.0,0.0,0.0,0.0,0,0,0,0,0,1,1,0,0,0
453926270,16.1378,16.2968,92.6173,92.6378,0.0,11600.6,0.806468,1.03088,0.0,4,0.0,0.0,0.0,0.0,0.0,0,0,0,0,0,1,1,0,0,0
453938283,16.2399,16.2962,92.588,92.6368,0.0,11600.9,0.80625,1.03091,0.0,4,0.0,0.0,0.0,0.0,0.0,0,0,0,0,0,1,1,0,0,0
453962271,16.3931,16.2954,92.6173,92.636,0.0,11601.5,0.805922,1.03097,0.0,4,0.0,0.0,0.0,0.0,0.0,0,0,0,0,0,1,1,0,0,0
453974260,16.2782,16.2952,92.6759,92.6368,0.0,11601.8,0.805856,1.03098,0.0,4,0.0,0.0,0.0,0.0,0.0,0,0,0,0,0,1,1,0,0,0
453986262,16.291,16.2952,92.6173,92.6364,0.0,11602.2,0.80584,1.03098,0.0,4,0.0,0.0,0.0,0.0,0.0,0,0,0,0,0,1,1,0,0,0
453998262,16.5208,16.2974,92.6466,92.6367,0.0,11602.5,0.806708,1.03084,0.0,4,0.0,0.0,0.0,0.0,0.0,0,0,0,0,0,1,1,0,0,0
454010263,16.2272,16.2967,92.6173,92.6363,0.0,11602.8,0.806438,1.03088,0.0,4,0.0,0.0,0.0,0.0,0.0,0,0,0,0,0,1,1,0,0,0
454022275,16.3038,16.2968,92.6759,92.6371,0.0,11603.1,0.806465,1.03088,0.0,4,0.0,0.0,0.0,0.0,0.0,0,0,0,0,0,1,1,0,0,0
454034280,16.3165,16.297,92.588,92.6361,0.0,11603.4,0.80654,1.03086,0.0,4,0.0,0.0,0.0,0.0,0.0,0,0,0,0,0,1,1,0,0,0
454046268,16.3931,16.298,92.6466,92.6363,0.0,11603.7,0.806911,1.0308,0.0,4,0.0,0.0,0.0,0.0,0.0,0,0,0,0,0,1,1,0,0,0
454058283,16.4442,16.2994,92.6466,92.6365,0.0,11604.0,0.807473,1.03071,0.0,4,0.0,0.0,0.0,0.0,0.0,0,0,0,0,0,1,1,0,0,0
454070271,16.508,16.3015,92.6173,92.6361,0.0,11604.3,0.808276,1.03058,0.0,4,0.0,0.0,0.0,0.0,0.0,0,0,0,0,0,1,1,0,0,0
454082277,16.4059,16.3026,92.6759,92.6369,0.0,11604.6,0.808677,1.03051,0.0,4,0.0,0.0,0.0,0.0,0.0,0,0,0,0,0,1,1,0,0,0
454095054,16.3421,16.303,92.6466,92.6371,0.0,11605.0,0.808829,1.03049,0.0,4,0.0,0.0,0.0,0.0,0.0,0,0,0,0,0,1,1,0,0,0
454107070,16.2399,16.3023,92.588,92.6361,0.0,11605.3,0.808587,1.03053,0.0,4,0.0,0.0,0.0,0.0,0.0,0,0,0,0,0,1,1,0,0,0
454119067,16.1761,16.3011,92.6173,92.6358,0.0,11605.6,0.808101,1.03061,0.0,4,0.0,0.0,0.0,0.0,0.0,0,0,0,0,0,1,1,0,0,0
454131065,16.2782,16.3008,92.6466,92.636,0.0,11605.9,0.808013,1.03062,0.0,4,0.0,0.0,0.0,0.0,0.0,0,0,0,0,0,1,1,0,0,0
454143055,16.3293,16.3011,92.6173,92.6356,0.0,11606.2,0.808122,1.0306,0.0,4,0.0,0.0,0.0,0.0,0.0,0,0,0,0,0,1,1,0,0,0
454215055,16.3038,16.2992,92.6466,92.6391,0.0,11608.0,0.807402,1.03072,0.0,4,0.0,0.0,0.0,0.0,0.0,0,0,0,0,0,1,1,0,0,0
454227055,16.4825,16.3011,92.6173,92.6386,0.0,11608.4,0.808107,1.03061,0.0,4,0.0,0.0,0.0,0.0,0.0,0,0,0,0,0,1,1,0,0,0
454239070,16.3038,16.3011,92.6173,92.6382,0.0,11608.7,0.808117,1.03061,0.0,4,0.0,0.0,0.0,0.0,0.0,0,0,0,0,0,1,1,0,0,0
454251057,16.3421,16.3015,92.6466,92.6384,0.0,11609.0,0.808275,1.03058,0.0,4,0.0,0.0,0.0,0.0,0.0,0,0,0,0,0,1,1,0,0,0
454263056,16.3421,16.3019,92.6173,92.638,0.0,11609.3,0.808431,1.03055,0.0,4,0.0,0.0,0.0,0.0,0.0,0,0,0,0,0,1,1,0,0,0
454275056,16.3165,16.3021,92.6173,92.6375,0.0,11609.6,0.808487,1.03054,0.0,4,0.0,0.0,0.0,0.0,0.0,0,0,0,0,0,1,1,0,0,0
454287059,16.4697,16.3037,92.6466,92.6377,0.0,11609.9,0.809133,1.03044,0.0,4,0.0,0.0,0.0,0.0,0.0,0,0,0,0,0,1,1,0,0,0
454299061,16.1889,16.3026,92.6466,92.6379,0.0,11610.2,0.808691,1.03051,0.0,4,0.0,0.0,0.0,0.0,0.0,0,0,0,0,0,1,1,0,0,0
454311066,16.4314,16.3039,92.6466,92.6381,0.0,11610.5,0.809186,1.03043,0.0,4,0.0,0.0,0.0,0.0,0.0,0,0,0,0,0,1,1,0,0,0
454323081,16.1378,16.3022,92.6466,92.6383,0.0,11610.8,0.808547,1.03053,0.0,4,0.0,0.0,0.0,0.0,0.0,0,0,0,0,0,1,1,0,0,0
454335872,16.291,16.3021,92.588,92.6372,0.0,11611.2,0.808505,1.03054,0.0,4,0.0,0.0,0.0,0.0,0.0,0,0,0,0,0,1,1,0,0,0
454347861,15.9974,16.2991,92.6173,92.6368,0.0,11611.5,0.807332,1.03073,0.0,4,0.0,0.0,0.0,0.0,0.0,0,0,0,0,0,1,1,0,0,0
454359858,16.3165,16.2992,92.6173,92.6365,0.0,11611.8,0.8074,1.03072,0.0,4,0.0,0.0,0.0,0.0,0.0,0,0,0,0,0,1,1,0,0,0
454371858,16.2782,16.299,92.6759,92.6373,0.0,11612.1,0.807319,1.03074,0.0,4,0.0,0.0,0.0,0.0,0.0,0,0,0,0,0,1,1,0,0,0
454383854,16.0612,16.2966,92.6759,92.638,0.0,11612.4,0.806404,1.03089,0.0,4,0.0,0.0,0.0,0.0,0.0,0,0,0,0,0,1,1,0,0,0
454395858,16.2399,16.2961,92.6466,92.6382,0.0,11612.7,0.806186,1.03092,0.0,4,0.0,0.0,0.0,0.0,0.0,0,0,0,0,0,1,1,0,0,0
454407866,16.2399,16.2955,92.6466,92.6384,0.0,11613.0,0.805971,1.03096,0.0,4,0.0,0.0,0.0,0.0,0.0,0,0,0,0,0,1,1,0,0,0
454443864,16.2016,16.2929,92.6466,92.6383,0.0,11613.9,0.804949,1.03113,0.0,4,0.0,0.0,0.0,0.0,0.0,0,0,0,0,0,1,1,0,0,0
454455869,16.4825,16.2948,92.6759,92.6391,0.0,11614.2,0.805678,1.03101,0.0,4,0.0,0.0,0.0,0.0,0.0,0,0,0,0,0,1,1,0,0,0
454467857,16.291,16.2947,92.6466,92.6392,0.0,11614.5,0.805663,1.03101,0.0,4,0.0,0.0,0.0,0.0,0.0,0,0,0,0,0,1,1,0,0,0
454479856,16.2655,16.2944,92.6466,92.6394,0.0,11614.9,0.805551,1.03103,0.0,4,0.0,0.0,0.0,0.0,0.0,0,0,0,0,0,1,1,0,0,0
454491859,16.291,16.2944,92.6466,92.6395,0.0,11615.2,0.805538,1.03103,0.0,4,0.0,0.0,0.0,0.0,0.0,0,0,0,0,0,1,1,0,0,0
454503855,16.3165,16.2946,92.6466,92.6396,0.0,11615.5,0.805623,1.03102,0.0,4,0.0,0.0,0.0,0.0,0.0,0,0,0,0,0,1,1,0,0,0
454515858,16.4442,16.2961,92.6759,92.6404,0.0,11615.8,0.806198,1.03092,0.0,4,0.0,0.0,0.0,0.0,0.0,0,0,0,0,0,1,1,0,0,0
454527865,16.457,16.2977,92.6173,92.6399,0.0,11616.1,0.806817,1.03082,0.0,4,0.0,0.0,0.0,0.0,0.0,0,0,0,0,0,1,1,0,0,0
454539870,16.2655,16.2974,92.6466,92.6401,0.0,11616.4,0.806693,1.03084,0.0,4,0.0,0.0,0.0,0.0,0.0,0,0,0,0,0,1,1,0,0,0
454551874,16.0229,16.2947,92.6173,92.6396,0.0,11616.7,0.805637,1.03101,0.0,4,0.0,0.0,0.0,0.0,0.0,0,0,0,0,0,1,1,0,0,0
454563865,16.4697,16.2964,92.6759,92.6403,0.0,11617.0,0.80631,1.0309,0.0,4,0.0,0.0,0.0,0.0,0.0,0,0,0,0,0,1,1,0,0,0
454575857,16.291,16.2964,92.6466,92.6405,0.0,11617.3,0.80629,1.03091,0.0,4,0.0,0.0,0.0,0.0,0.0,0,0,0,0,0,1,1,0,0,0
454587863,16.0612,16.294,92.588,92.6394,0.0,11617.6,0.805385,1.03105,0.0,4,0.0,0.0,0.0,0.0,0.0,0,0,0,0,0,1,1,0,0,0
454599860,16.2399,16.2935,92.6466,92.6396,0.0,11617.9,0.805178,1.03109,0.0,4,0.0,0.0,0.0,0.0,0.0,0,0,0,0,0,1,1,0,0,0
454612703,16.2272,16.2928,92.6466,92.6397,0.0,11618.3,0.804922,1.03113,0.0,4,0.0,0.0,0.0,0.0,0.0,0,0,0,0,0,1,1,0,0,0
454696661,16.3038,16.2975,92.6466,92.638,0.0,11620.4,0.806728,1.03083,0.0,4,0.0,0.0,0.0,0.0,0.0,0,0,0,0,0,1,1,0,0,0
454708658,16.3165,16.2977,92.6466,92.6381,0.0,11620.7,0.806802,1.03082,0.0,4,0.0,0.0,0.0,0.0,0.0,0,0,0,0,0,1,1,0,0,0
454720658,16.3421,16.2981,92.6466,92.6383,0.0,11621.0,0.806973,1.03079,0.0,4,0.0,0.0,0.0,0.0,0.0,0,0,0,0,0,1,1,0,0,0
454732658,16.2655,16.2978,92.588,92.6373,0.0,11621.4,0.806847,1.03081,0.0,4,0.0,0.0,0.0,0.0,0.0,0,0,0,0,0,1,1,0,0,0
454744704,16.3038,16.2979,92.6466,92.6375,0.0,11621.7,0.80687,1.03081,0.0,4,0.0,0.0,0.0,0.0,0.0,0,0,0,0,0,1,1,0,0,0
454756685,16.2399,16.2973,92.6466,92.6377,0.0,11622.0,0.806647,1.03085,0.0,4,0.0,0.0,0.0,0.0,0.0,0,0,0,0,0,1,1,0,0,0
454768798,16.1506,16.2958,92.588,92.6367,0.0,11622.3,0.806083,1.03094,0.0,4,0.0,0.0,0.0,0.0,0.0,0,0,0,0,0,1,1,0,0,0
454780660,16.1506,16.2944,92.6466,92.6369,0.0,11622.6,0.805524,1.03103,0.0,4,0.0,0.0,0.0,0.0,0.0,0,0,0,0,0,1,1,0,0,0
454792671,16.2144,16.2936,92.6173,92.6365,0.0,11622.9,0.805217,1.03108,0.0,4,0.0,0.0,0.0,0.0,0.0,0,0,0,0,0,1,1,0,0,0
454804659,16.3165,16.2938,92.6466,92.6367,0.0,11623.2,0.805306,1.03107,0.0,4,0.0,0.0,0.0,0.0,0.0,0,0,0,0,0,1,1,0,0,0
454816704,16.2016,16.2929,92.6759,92.6375,0.0,11623.5,0.804952,1.03113,0.0,4,0.0,0.0,0.0,0.0,0.0,0,0,0,0,0,1,1,0,0,0
454828654,16.4697,16.2946,92.6466,92.6377,0.0,11623.8,0.805632,1.03101,0.0,4,0.0,0.0,0.0,0.0,0.0,0,0,0,0,0,1,1,0,0,0
454840658,16.2782,16.2945,92.6759,92.6384,0.0,11624.1,0.805569,1.03102,0.0,4,0.0,0.0,0.0,0.0,0.0,0,0,0,0,0,1,1,0,0,0
454852673,16.3038,16.2946,92.7052,92.6398,0.0,11624.4,0.805604,1.03102,0.0,4,0.0,0.0,0.0,0.0,0.0,0,0,0,0,0,1,1,0,0,0
454865469,16.3804,16.2954,92.6173,92.6393,0.0,11624.8,0.805934,1.03096,0.0,4,0.0,0.0,0.0,0.0,0.0,0,0,0,0,0,1,1,0,0,0
454877463,16.2655,16.2951,92.6466,92.6395,0.0,11625.1,0.80582,1.03098,0.0,4,0.0,0.0,0.0,0.0,0.0,0,0,0,0,0,1,1,0,0,0
454889471,16.2782,16.295,92.6759,92.6402,0.0,11625.4,0.805754,1.03099,0.0,4,0.0,0.0,0.0,0.0,0.0,0,0,0,0,0,1,1,0,0,0
454901475,16.1633,16.2936,92.6173,92.6397,0.0,11625.7,0.805248,1.03108,0.0,4,0.0,0.0,0.0,0.0,0.0,0,0,0,0,0,1,1,0,0,0
454913456,16.4059,16.2948,92.6466,92.6399,0.0,11626.0,0.80568,1.03101,0.0,4,0.0,0.0,0.0,0.0,0.0,0,0,0,0,0,1,1,0,0,0
454925458,16.2399,16.2942,92.6466,92.64,0.0,11626.3,0.80547,1.03104,0.0,4,0.0,0.0,0.0,0.0,0.0,0,0,0,0,0,1,1,0,0,0
454937459,16.4442,16.2957,92.6173,92.6396,0.0,11626.6,0.806046,1.03095,0.0,4,0.0,0.0,0.0,0.0,0.0,0,0,0,0,0,1,1,0,0,0
454949461,16.2655,16.2954,92.6759,92.6403,0.0,11626.9,0.80593,1.03096,0.0,4,0.0,0.0,0.0,0.0,0.0,0,0,0,0,0,1,1,0,0,0
454961469,16.2655,16.2951,92.6466,92.6404,0.0,11627.2,0.805814,1.03098,0.0,4,0.0,0.0,0.0,0.0,0.0,0,0,0,0,0,1,1,0,0,0
454973449,16.125,16.2934,92.6173,92.64,0.0,11627.6,0.80516,1.03109,0.0,4,0.0,0.0,0.0,0.0,0.0,0,0,0,0,0,1,1,0,0,0
454985466,16.3165,16.2936,92.588,92.6389,0.0,11627.9,0.805249,1.03108,0.0,4,0.0,0.0,0.0,0.0,0.0,0,0,0,0,0,1,1,0,0,0
454997466,16.5463,16.2962,92.6173,92.6385,0.0,11628.2,0.806221,1.03092,0.0,4,0.0,0.0,0.0,0.0,0.0,0,0,0,0,0,1,1,0,0,0
455009464,16.2527,16.2957,92.6466,92.6386,0.0,11628.5,0.806054,1.03094,0.0,4,0.0,0.0,0.0,0.0,0.0,0,0,0,0,0,1,1,0,0,0
455021470,16.291,16.2957,92.6466,92.6388,0.0,11628.8,0.806035,1.03095,0.0,4,0.0,0.0,0.0,0.0,0.0,0,0,0,0,0,1,1,0,0,0
455033458,16.2655,16.2954,92.6466,92.639,0.0,11629.1,0.805919,1.03097,0.0,4,0.0,0.0,0.0,0.0,0.0,0,0,0,0,0,1,1,0,0,0
455045461,16.2782,16.2952,92.588,92.638,0.0,11629.4,0.805853,1.03098,0.0,4,0.0,0.0,0.0,0.0,0.0,0,0,0,0,0,1,1,0,0,0
455057455,16.291,16.2952,92.6466,92.6381,0.0,11629.7,0.805837,1.03098,0.0,4,0.0,0.0,0.0,0.0,0.0,0,0,0,0,0,1,1,0,0,0
455069458,16.457,16.2968,92.6759,92.6389,0.0,11630.0,0.806459,1.03088,0.0,4,0.0,0.0,0.0,0.0,0.0,0,0,0,0,0,1,1,0,0,0
455081459,16.0867,16.2947,92.6759,92.6396,0.0,11630.3,0.805652,1.03101,0.0,4,0.0,0.0,0.0,0.0,0.0,0,0,0,0,0,1,1,0,0,0
455154264,16.291,16.2922,92.6173,92.6366,0.0,11632.2,0.804699,1.03117,0.0,4,0.0,0.0,0.0,0.0,0.0,0,0,0,0,0,1,1,0,0,0
455166258,16.3038,16.2923,92.6759,92.6374,0.0,11632.5,0.804744,1.03116,0.0,4,0.0,0.0,0.0,0.0,0.0,0,0,0,0,0,1,1,0,0,0
455178258,16.2272,16.2917,92.6173,92.637,0.0,11632.8,0.804493,1.0312,0.0,4,0.0,0.0,0.0,0.0,0.0,0,0,0,0,0,1,1,0,0,0
455190270,16.2655,16.2914,92.6466,92.6372,0.0,11633.1,0.804393,1.03122,0.0,4,0.0,0.0,0.0,0.0,0.0,0,0,0,0,0,1,1,0,0,0
455202262,16.4825,16.2933,92.6173,92.6368,0.0,11633.4,0.805128,1.0311,0.0,4,0.0,0.0,0.0,0.0,0.0,0,0,0,0,0,1,1,0,0,0
455214263,16.4314,16.2947,92.6466,92.637,0.0,11633.7,0.805659,1.03101,0.0,4,0.0,0.0,0.0,0.0,0.0,0,0,0,0,0,1,1,0,0,0
455226288,16.2016,16.2938,92.6173,92.6366,0.0,11634.1,0.805301,1.03107,0.0,4,0.0,0.0,0.0,0.0,0.0,0,0,0,0,0,1,1,0,0,0
455238276,16.4697,16.2955,92.6466,92.6368,0.0,11634.4,0.805978,1.03096,0.0,4,0.0,0.0,0.0,0.0,0.0,0,0,0,0,0,1,1,0,0,0
455250285,16.4059,16.2966,92.6466,92.637,0.0,11634.7,0.806403,1.03089,0.0,4,0.0,0.0,0.0,0.0,0.0,0,0,0,0,0,1,1,0,0,0
455262271,16.0995,16.2947,92.588,92.636,0.0,11635.0,0.805644,1.03101,0.0,4,0.0,0.0,0.0,0.0,0.0,0,0,0,0,0,1,1,0,0,0
455274266,16.4187,16.2959,92.6466,92.6362,0.0,11635.3,0.806121,1.03093,0.0,4,0.0,0.0,0.0,0.0,0.0,0,0,0,0,0,1,1,0,0,0
455286269,15.9718,16.2927,92.6466,92.6364,0.0,11635.6,0.804874,1.03114,0.0,4,0.0,0.0,0.0,0.0,0.0,0,0,0,0,0,1,1,0,0,0
455298259,16.457,16.2943,92.6173,92.636,0.0,11635.9,0.805506,1.03103,0.0,4,0.0,0.0,0.0,0.0,0.0,0,0,0,0,0,1,1,0,0,0
455310281,16.4314,16.2957,92.6173,92.6357,0.0,11636.2,0.806034,1.03095,0.0,4,0.0,0.0,0.0,0.0,0.0,0,0,0,0,0,1,1,0,0,0
455322265,16.4953,16.2977,92.6173,92.6353,0.0,11636.5,0.806802,1.03082,0.0,4,0.0,0.0,0.0,0.0,0.0,0,0,0,0,0,1,1,0,0,0
455334262,16.2527,16.2972,92.6173,92.6349,0.0,11636.8,0.806629,1.03085,0.0,4,0.0,0.0,0.0,0.0,0.0,0,0,0,0,0,1,1,0,0,0
455346260,16.3038,16.2973,92.6466,92.6352,0.0,11637.1,0.806653,1.03085,0.0,4,0.0,0.0,0.0,0.0,0.0,0,0,0,0,0,1,1,0,0,0
455370272,16.4953,16.2977,92.588,92.635,0.0,11637.8,0.806808,1.03082,0.0,4,0.0,0.0,0.0,0.0,0.0,0,0,0,0,0,1,1,0,0,0
455383075,16.2527,16.2972,92.6759,92.6359,0.0,11638.1,0.806634,1.03085,0.0,4,0.0,0.0,0.0,0.0,0.0,0,0,0,0,0,1,1,0,0,0
455395073,16.4187,16.2985,92.6466,92.6361,0.0,11638.4,0.807102,1.03077,0.0,4,0.0,0.0,0.0,0.0,0.0,0,0,0,0,0,1,1,0,0,0
455407062,16.3165,16.2986,92.6173,92.6357,0.0,11638.7,0.807171,1.03076,0.0,4,0.0,0.0,0.0,0.0,0.0,0,0,0,0,0,1,1,0,0,0
455419057,16.4697,16.3004,92.6173,92.6353,0.0,11639.0,0.807829,1.03065,0.0,4,0.0,0.0,0.0,0.0,0.0,0,0,0,0,0,1,1,0,0,0
455431055,16.3676,16.301,92.588,92.6344,0.0,11639.3,0.808088,1.03061,0.0,4,0.0,0.0,0.0,0.0,0.0,0,0,0,0,0,1,1,0,0,0
455443067,16.2782,16.3008,92.588,92.6335,0.0,11639.6,0.808001,1.03062,0.0,4,0.0,0.0,0.0,0.0,0.0,0,0,0,0,0,1,1,0,0,0
455455070,16.4442,16.3022,92.6173,92.6331,0.0,11639.9,0.808553,1.03053,0.0,4,0.0,0.0,0.0,0.0,0.0,0,0,0,0,0,1,1,0,0,0
455467067,16.3931,16.3031,92.6759,92.634,0.0,11640.3,0.808903,1.03048,0.0,4,0.0,0.0,0.0,0.0,0.0,0,0,0,0,0,1,1,0,0,0
455479059,16.2399,16.3025,92.6759,92.6348,0.0,11640.6,0.80866,1.03052,0.0,4,0.0,0.0,0.0,0.0,0.0,0,0,0,0,0,1,1,0,0,0
455491058,16.2782,16.3023,92.6759,92.6357,0.0,11640.9,0.808567,1.03053,0.0,4,0.0,0.0,0.0,0.0,0.0,0,0,0,0,0,1,1,0,0,0
455503055,16.508,16.3043,92.6466,92.6359,0.0,11641.2,0.809358,1.0304,0.0,4,0.0,0.0,0.0,0.0,0.0,0,0,0,0,0,1,1,0,0,0
455515059,16.457,16.3059,92.588,92.6349,0.0,11641.5,0.809945,1.0303,0.0,4,0.0,0.0,0.0,0.0,0.0,0,0,0,0,0,1,1,0,0,0
455527077,16.4697,16.3075,92.588,92.634,0.0,11641.8,0.810575,1.0302,0.0,4,0.0,0.0,0.0,0.0,0.0,0,0,0,0,0,1,1,0,0,0
455539065,16.2144,16.3066,92.6173,92.6337,0.0,11642.1,0.810217,1.03026,0.0,4,0.0,0.0,0.0,0.0,0.0,0,0,0,0,0,1,1,0,0,0
455551054,16.457,16.3081,92.6173,92.6333,0.0,11642.4,0.810796,1.03016,0.0,4,0.0,0.0,0.0,0.0,0.0,0,0,0,0,0,1,1,0,0,0
455611074,16.0995,16.3079,92.6466,92.6374,0.0,11644.0,0.810746,1.03017,0.0,4,0.0,0.0,0.0,0.0,0.0,0,0,0,0,0,1,1,0,0,0
455623865,16.2655,16.3075,92.6466,92.6376,0.0,11644.3,0.810583,1.0302,0.0,4,0.0,0.0,0.0,0.0,0.0,0,0,0,0,0,1,1,0,0,0
455635871,16.4442,16.3089,92.6173,92.6372,0.0,11644.6,0.811109,1.03011,0.0,4,0.0,0.0,0.0,0.0,0.0,0,0,0,0,0,1,1,0,0,0
455647872,16.3165,16.309,92.6173,92.6368,0.0,11644.9,0.811138,1.03011,0.0,4,0.0,0.0,0.0,0.0,0.0,0,0,0,0,0,1,1,0,0,0
455659865,16.3038,16.3089,92.6173,92.6364,0.0,11645.2,0.811118,1.03011,0.0,4,0.0,0.0,0.0,0.0,0.0,0,0,0,0,0,1,1,0,0,0
455671854,16.291,16.3087,92.6173,92.636,0.0,11645.5,0.811049,1.03012,0.0,4,0.0,0.0,0.0,0.0,0.0,0,0,0,0,0,1,1,0,0,0
455683872,16.2527,16.3082,92.588,92.6351,0.0,11645.8,0.810833,1.03016,0.0,4,0.0,0.0,0.0,0.0,0.0,0,0,0,0,0,1,1,0,0,0
455695858,16.3038,16.3081,92.6173,92.6347,0.0,11646.1,0.810817,1.03016,0.0,4,0.0,0.0,0.0,0.0,0.0,0,0,0,0,0,1,1,0,0,0
455707868,16.3548,16.3086,92.6173,92.6344,0.0,11646.4,0.810997,1.03013,0.0,4,0.0,0.0,0.0,0.0,0.0,0,0,0,0,0,1,1,0,0,0
455719857,16.3676,16.3092,92.588,92.6335,0.0,11646.8,0.811223,1.03009,0.0,4,0.0,0.0,0.0,0.0,0.0,0,0,0,0,0,1,1,0,0,0
455731857,16.3421,16.3095,92.588,92.6326,0.0,11647.1,0.81135,1.03007,0.0,4,0.0,0.0,0.0,0.0,0.0,0,0,0,0,0,1,1,0,0,0
455743866,16.4697,16.3111,92.6466,92.6328,0.0,11647.4,0.811966,1.02997,0.0,4,0.0,0.0,0.0,0.0,0.0,0,0,0,0,0,1,1,0,0,0
455755872,16.0995,16.309,92.6759,92.6337,0.0,11647.7,0.811152,1.03011,0.0,4,0.0,0.0,0.0,0.0,0.0,0,0,0,0,0,1,1,0,0,0
455767867,16.2782,16.3087,92.6173,92.6334,0.0,11648.0,0.811035,1.03013,0.0,4,0.0,0.0,0.0,0.0,0.0,0,0,0,0,0,1,1,0,0,0
455779851,16.457,16.3102,92.6173,92.6331,0.0,11648.3,0.811605,1.03003,0.0,4,0.0,0.0,0.0,0.0,0.0,0,0,0,0,0,1,1,0,0,0
455791859,16.4825,16.3119,92.6466,92.6333,0.0,11648.6,0.812268,1.02992,0.0,4,0.0,0.0,0.0,0.0,0.0,0,0,0,0,0,1,1,0,0,0
455803879,16.3548,16.3123,92.6759,92.6342,0.0,11648.9,0.812434,1.0299,0.0,4,0.0,0.0,0.0,0.0,0.0,0,0,0,0,0,1,1,0,0,0
455851856,16.3038,16.311,92.588,92.6334,0.0,11650.2,0.811922,1.02998,0.0,4,0.0,0.0,0.0,0.0,0.0,0,0,0,0,0,1,1,0,0,0
455863862,16.4825,16.3127,92.6173,92.6331,0.0,11650.5,0.812581,1.02987,0.0,4,0.0,0.0,0.0,0.0,0.0,0,0,0,0,0,1,1,0,0,0
455875864,16.291,16.3125,92.6759,92.6339,0.0,11650.8,0.812497,1.02989,0.0,4,0.0,0.0,0.0,0.0,0.0,0,0,0,0,0,1,1,0,0,0
455887867,16.3038,16.3124,92.6173,92.6336,0.0,11651.1,0.812464,1.02989,0.0,4,0.0,0.0,0.0,0.0,0.0,0,0,0,0,0,1,1,0,0,0
455900679,16.3038,16.3123,92.6173,92.6333,0.0,11651.4,0.81243,1.0299,0.0,4,0.0,0.0,0.0,0.0,0.0,0,0,0,0,0,1,1,0,0,0
455912682,16.2144,16.3113,92.6173,92.633,0.0,11651.7,0.812054,1.02996,0.0,4,0.0,0.0,0.0,0.0,0.0,0,0,0,0,0,1,1,0,0,0
455924651,16.1761,16.31,92.6759,92.6338,0.0,11652.0,0.811534,1.03004,0.0,4,0.0,0.0,0.0,0.0,0.0,0,0,0,0,0,1,1,0,0,0
455936670,16.2782,16.3097,92.588,92.6329,0.0,11652.3,0.811412,1.03006,0.0,4,0.0,0.0,0.0,0.0,0.0,0,0,0,0,0,1,1,0,0,0
455948661,16.2782,16.3094,92.6173,92.6326,0.0,11652.6,0.811291,1.03008,0.0,4,0.0,0.0,0.0,0.0,0.0,0,0,0,0,0,1,1,0,0,0
455960673,16.2782,16.309,92.6759,92.6335,0.0,11653.0,0.811172,1.0301,0.0,4,0.0,0.0,0.0,0.0,0.0,0,0,0,0,0,1,1,0,0,0
455972656,16.2782,16.3087,92.588,92.6326,0.0,11653.3,0.811054,1.03012,0.0,4,0.0,0.0,0.0,0.0,0.0,0,0,0,0,0,1,1,0,0,0
455984684,16.4697,16.3103,92.6759,92.6334,0.0,11653.6,0.811673,1.03002,0.0,4,0.0,0.0,0.0,0.0,0.0,0,0,0,0,0,1,1,0,0,0
455996686,16.3931,16.3112,92.6466,92.6337,0.0,11653.9,0.811991,1.02997,0.0,4,0.0,0.0,0.0,0.0,0.0,0,0,0,0,0,1,1,0,0,0
456008780,16.4953,16.313,92.588,92.6328,0.0,11654.2,0.812699,1.02985,0.0,4,0.0,0.0,0.0,0.0,0.0,0,0,0,0,0,1,1,0,0,0
456020713,16.1506,16.3114,92.6759,92.6337,0.0,11654.5,0.812074,1.02996,0.0,4,0.0,0.0,0.0,0.0,0.0,0,0,0,0,0,1,1,0,0,0
456032670,16.2144,16.3104,92.6466,92.6339,0.0,11654.8,0.811701,1.03002,0.0,4,0.0,0.0,0.0,0.0,0.0,0,0,0,0,0,1,1,0,0,0
456080658,16.1506,16.3053,92.6759,92.635,0.0,11656.0,0.809749,1.03034,0.0,4,0.0,0.0,0.0,0.0,0.0,0,0,0,0,0,1,1,0,0,0
456092662,16.2655,16.3049,92.588,92.634,0.0,11656.3,0.809596,1.03036,0.0,4,0.0,0.0,0.0,0.0,0.0,0,0,0,0,0,1,1,0,0,0
456104668,16.4059,16.306,92.6173,92.6337,0.0,11656.7,0.809984,1.0303,0.0,4,0.0,0.0,0.0,0.0,0.0,0,0,0,0,0,1,1,0,0,0
456116711,16.3038,16.3059,92.6759,92.6345,0.0,11657.0,0.809976,1.0303,0.0,4,0.0,0.0,0.0,0.0,0.0,0,0,0,0,0,1,1,0,0,0
456128676,16.2782,16.3057,92.6759,92.6354,0.0,11657.3,0.80987,1.03032,0.0,4,0.0,0.0,0.0,0.0,0.0,0,0,0,0,0,1,1,0,0,0
456140665,16.2527,16.3051,92.6466,92.6356,0.0,11657.6,0.809666,1.03035,0.0,4,0.0,0.0,0.0,0.0,0.0,0,0,0,0,0,1,1,0,0,0
456152697,16.1123,16.3032,92.6173,92.6352,0.0,11657.9,0.808924,1.03047,0.0,4,0.0,0.0,0.0,0.0,0.0,0,0,0,0,0,1,1,0,0,0
456165446,16.2782,16.303,92.6466,92.6355,0.0,11658.2,0.808828,1.03049,0.0,4,0.0,0.0,0.0,0.0,0.0,0,0,0,0,0,1,1,0,0,0
