timestamp,voltage_v,voltage_filtered_v,current_a,current_filtered_a,average_current_a,discharged_mah,remaining,scale,temperature,cell_count,voltage_cell_v[0],voltage_cell_v[1],voltage_cell_v[2],voltage_cell_v[3],max_cell_voltage_delta,capacity,cycle_count,run_time_to_empty,average_time_to_empty,serial_number,connected,system_source,priority,is_powering_off,warning
14177461,16.4825,16.5048,92.4122,92.436,0.0,292.649,1.0,1.0,0.0,4,0.0,0.0,0.0,0.0,0.0,0,0,0,0,0,1,1,0,0,0
14189456,16.6868,16.5066,92.4708,92.4367,0.0,292.957,1.0,1.0,0.0,4,0.0,0.0,0.0,0.0,0.0,0,0,0,0,0,1,1,0,0,0
14201454,16.4825,16.5064,92.4415,92.4368,0.0,293.265,1.0,1.0,0.0,4,0.0,0.0,0.0,0.0,0.0,0,0,0,0,0,1,1,0,0,0
14213454,16.4697,16.506,92.4122,92.4363,0.0,293.573,1.0,1.0,0.0,4,0.0,0.0,0.0,0.0,0.0,0,0,0,0,0,1,1,0,0,0
14225458,16.4953,16.5059,92.4415,92.4364,0.0,293.882,1.0,1.0,0.0,4,0.0,0.0,0.0,0.0,0.0,0,0,0,0,0,1,1,0,0,0
14237451,16.6229,16.5071,92.4415,92.4365,0.0,294.19,1.0,1.0,0.0,4,0.0,0.0,0.0,0.0,0.0,0,0,0,0,0,1,1,0,0,0
14249475,16.4825,16.5068,92.4415,92.4366,0.0,294.498,1.0,1.0,0.0,4,0.0,0.0,0.0,0.0,0.0,0,0,0,0,0,1,1,0,0,0
14261473,16.2144,16.5039,92.4708,92.4373,0.0,294.807,1.0,1.0,0.0,4,0.0,0.0,0.0,0.0,0.0,0,0,0,0,0,1,1,0,0,0
14273469,16.4825,16.5037,92.4708,92.438,0.0,295.115,1.0,1.0,0.0,4,0.0,0.0,0.0,0.0,0.0,0,0,0,0,0,1,1,0,0,0
14285460,16.6485,16.5051,92.4415,92.4381,0.0,295.423,1.0,1.0,0.0,4,0.0,0.0,0.0,0.0,0.0,0,0,0,0,0,1,1,0,0,0
14297459,16.5208,16.5053,92.4708,92.4387,0.0,295.731,1.0,1.0,0.0,4,0.0,0.0,0.0,0.0,0.0,0,0,0,0,0,1,1,0,0,0
14309449,16.4953,16.5052,92.5001,92.4399,0.0,296.039,1.0,1.0,0.0,4,0.0,0.0,0.0,0.0,0.0,0,0,0,0,0,1,1,0,0,0
14321456,16.6229,16.5064,92.4708,92.4406,0.0,296.347,1.0,1.0,0.0,4,0.0,0.0,0.0,0.0,0.0,0,0,0,0,0,1,1,0,0,0
14334277,16.5463,16.5068,92.4122,92.44,0.0,296.676,1.0,1.0,0.0,4,0.0,0.0,0.0,0.0,0.0,0,0,0,0,0,1,1,0,0,0
14346274,16.4953,16.5067,92.4415,92.44,0.0,296.984,1.0,1.0,0.0,4,0.0,0.0,0.0,0.0,0.0,0,0,0,0,0,1,1,0,0,0
14358268,16.4697,16.5063,92.4708,92.4407,0.0,297.293,1.0,1.0,0.0,4,0.0,0.0,0.0,0.0,0.0,0,0,0,0,0,1,1,0,0,0
14370278,16.5208,16.5064,92.4708,92.4413,0.0,297.601,1.0,1.0,0.0,4,0.0,0.0,0.0,0.0,0.0,0,0,0,0,0,1,1,0,0,0
14454274,16.6102,16.5104,92.4415,92.4419,0.0,299.758,1.0,1.0,0.0,4,0.0,0.0,0.0,0.0,0.0,0,0,0,0,0,1,1,0,0,0
14466283,16.4825,16.5101,92.4122,92.4413,0.0,300.066,1.0,1.0,0.0,4,0.0,0.0,0.0,0.0,0.0,0,0,0,0,0,1,1,0,0,0
14478294,16.6612,16.5116,92.4415,92.4413,0.0,300.375,1.0,1.0,0.0,4,0.0,0.0,0.0,0.0,0.0,0,0,0,0,0,1,1,0,0,0
14490268,16.4697,16.5112,92.4708,92.4419,0.0,300.682,1.0,1.0,0.0,4,0.0,0.0,0.0,0.0,0.0,0,0,0,0,0,1,1,0,0,0
14502259,16.3676,16.5098,92.3829,92.4407,0.0,300.99,1.0,1.0,0.0,4,0.0,0.0,0.0,0.0,0.0,0,0,0,0,0,1,1,0,0,0
14514258,16.4697,16.5094,92.4415,92.4408,0.0,301.298,1.0,1.0,0.0,4,0.0,0.0,0.0,0.0,0.0,0,0,0,0,0,1,1,0,0,0
14527070,16.6485,16.5108,92.4708,92.4414,0.0,301.627,1.0,1.0,0.0,4,0.0,0.0,0.0,0.0,0.0,0,0,0,0,0,1,1,0,0,0
14539062,16.6612,16.5123,92.4122,92.4408,0.0,301.935,1.0,1.0,0.0,4,0.0,0.0,0.0,0.0,0.0,0,0,0,0,0,1,1,0,0,0
14551053,16.3421,16.5106,92.4415,92.4408,0.0,302.243,1.0,1.0,0.0,4,0.0,0.0,0.0,0.0,0.0,0,0,0,0,0,1,1,0,0,0
14563059,16.4314,16.5098,92.3829,92.4396,0.0,302.551,1.0,1.0,0.0,4,0.0,0.0,0.0,0.0,0.0,0,0,0,0,0,1,1,0,0,0
14575065,16.4442,16.5091,92.4122,92.4391,0.0,302.859,1.0,1.0,0.0,4,0.0,0.0,0.0,0.0,0.0,0,0,0,0,0,1,1,0,0,0
14587069,16.5719,16.5098,92.4708,92.4397,0.0,303.168,1.0,1.0,0.0,4,0.0,0.0,0.0,0.0,0.0,0,0,0,0,0,1,1,0,0,0
14599074,16.4825,16.5095,92.4122,92.4392,0.0,303.476,1.0,1.0,0.0,4,0.0,0.0,0.0,0.0,0.0,0,0,0,0,0,1,1,0,0,0
14611079,16.4825,16.5092,92.4122,92.4386,0.0,303.784,1.0,1.0,0.0,4,0.0,0.0,0.0,0.0,0.0,0,0,0,0,0,1,1,0,0,0
14623070,16.508,16.5092,92.4708,92.4393,0.0,304.092,1.0,1.0,0.0,4,0.0,0.0,0.0,0.0,0.0,0,0,0,0,0,1,1,0,0,0
14635065,16.6996,16.5111,92.4415,92.4393,0.0,304.4,1.0,1.0,0.0,4,0.0,0.0,0.0,0.0,0.0,0,0,0,0,0,1,1,0,0,0
14647074,16.4697,16.5107,92.4122,92.4388,0.0,304.708,1.0,1.0,0.0,4,0.0,0.0,0.0,0.0,0.0,0,0,0,0,0,1,1,0,0,0
14659055,16.4442,16.51,92.4708,92.4394,0.0,305.016,1.0,1.0,0.0,4,0.0,0.0,0.0,0.0,0.0,0,0,0,0,0,1,1,0,0,0
14671062,16.674,16.5117,92.4415,92.4395,0.0,305.324,1.0,1.0,0.0,4,0.0,0.0,0.0,0.0,0.0,0,0,0,0,0,1,1,0,0,0
14683063,16.6102,16.5127,92.4122,92.4389,0.0,305.632,1.0,1.0,0.0,4,0.0,0.0,0.0,0.0,0.0,0,0,0,0,0,1,1,0,0,0
14695072,16.4953,16.5125,92.4415,92.439,0.0,305.941,1.0,1.0,0.0,4,0.0,0.0,0.0,0.0,0.0,0,0,0,0,0,1,1,0,0,0
14707864,16.5208,16.5126,92.4708,92.4396,0.0,306.269,1.0,1.0,0.0,4,0.0,0.0,0.0,0.0,0.0,0,0,0,0,0,1,1,0,0,0
14719869,16.4953,16.5124,92.4415,92.4397,0.0,306.578,1.0,1.0,0.0,4,0.0,0.0,0.0,0.0,0.0,0,0,0,0,0,1,1,0,0,0
14731871,16.4953,16.5122,92.4708,92.4403,0.0,306.886,1.0,1.0,0.0,4,0.0,0.0,0.0,0.0,0.0,0,0,0,0,0,1,1,0,0,0
14743869,16.674,16.5138,92.4122,92.4397,0.0,307.194,1.0,1.0,0.0,4,0.0,0.0,0.0,0.0,0.0,0,0,0,0,0,1,1,0,0,0
14755857,16.6996,16.5157,92.5001,92.4409,0.0,307.502,1.0,1.0,0.0,4,0.0,0.0,0.0,0.0,0.0,0,0,0,0,0,1,1,0,0,0
14767854,16.6996,16.5175,92.4122,92.4404,0.0,307.81,1.0,1.0,0.0,4,0.0,0.0,0.0,0.0,0.0,0,0,0,0,0,1,1,0,0,0
14779871,16.4187,16.5166,92.5001,92.4416,0.0,308.119,1.0,1.0,0.0,4,0.0,0.0,0.0,0.0,0.0,0,0,0,0,0,1,1,0,0,0
14791864,16.6102,16.5175,92.4415,92.4416,0.0,308.427,1.0,1.0,0.0,4,0.0,0.0,0.0,0.0,0.0,0,0,0,0,0,1,1,0,0,0
14803870,16.2782,16.5151,92.4122,92.441,0.0,308.735,1.0,1.0,0.0,4,0.0,0.0,0.0,0.0,0.0,0,0,0,0,0,1,1,0,0,0
14815870,16.3548,16.5135,92.4415,92.441,0.0,309.043,1.0,1.0,0.0,4,0.0,0.0,0.0,0.0,0.0,0,0,0,0,0,1,1,0,0,0
14827870,16.4697,16.5131,92.4122,92.4404,0.0,309.351,1.0,1.0,0.0,4,0.0,0.0,0.0,0.0,0.0,0,0,0,0,0,1,1,0,0,0
14899856,16.4442,16.5124,92.4415,92.4373,0.0,311.199,1.0,1.0,0.0,4,0.0,0.0,0.0,0.0,0.0,0,0,0,0,0,1,1,0,0,0
14912670,16.4697,16.512,92.4415,92.4374,0.0,311.528,1.0,1.0,0.0,4,0.0,0.0,0.0,0.0,0.0,0,0,0,0,0,1,1,0,0,0
14924665,16.674,16.5136,92.4415,92.4375,0.0,311.836,1.0,1.0,0.0,4,0.0,0.0,0.0,0.0,0.0,0,0,0,0,0,1,1,0,0,0
14936689,16.4059,16.5125,92.4708,92.4381,0.0,312.145,1.0,1.0,0.0,4,0.0,0.0,0.0,0.0,0.0,0,0,0,0,0,1,1,0,0,0
14948659,16.4825,16.5122,92.4708,92.4388,0.0,312.452,1.0,1.0,0.0,4,0.0,0.0,0.0,0.0,0.0,0,0,0,0,0,1,1,0,0,0
14960658,16.3676,16.5108,92.4708,92.4394,0.0,312.76,1.0,1.0,0.0,4,0.0,0.0,0.0,0.0,0.0,0,0,0,0,0,1,1,0,0,0
14972656,16.4059,16.5097,92.4122,92.4389,0.0,313.068,1.0,1.0,0.0,4,0.0,0.0,0.0,0.0,0.0,0,0,0,0,0,1,1,0,0,0
14984656,16.5336,16.5099,92.4708,92.4395,0.0,313.377,1.0,1.0,0.0,4,0.0,0.0,0.0,0.0,0.0,0,0,0,0,0,1,1,0,0,0
14996657,16.5974,16.5108,92.5001,92.4407,0.0,313.685,1.0,1.0,0.0,4,0.0,0.0,0.0,0.0,0.0,0,0,0,0,0,1,1,0,0,0
15008775,16.5463,16.5112,92.4708,92.4413,0.0,313.996,1.0,1.0,0.0,4,0.0,0.0,0.0,0.0,0.0,0,0,0,0,0,1,1,0,0,0
15020712,16.4187,16.5103,92.4708,92.4419,0.0,314.303,1.0,1.0,0.0,4,0.0,0.0,0.0,0.0,0.0,0,0,0,0,0,1,1,0,0,0
15032672,16.5974,16.5111,92.4122,92.4413,0.0,314.61,1.0,1.0,0.0,4,0.0,0.0,0.0,0.0,0.0,0,0,0,0,0,1,1,0,0,0
15044663,16.6485,16.5125,92.4415,92.4413,0.0,314.918,1.0,1.0,0.0,4,0.0,0.0,0.0,0.0,0.0,0,0,0,0,0,1,1,0,0,0
15056707,16.457,16.5119,92.4708,92.4419,0.0,315.227,1.0,1.0,0.0,4,0.0,0.0,0.0,0.0,0.0,0,0,0,0,0,1,1,0,0,0
15068660,16.4442,16.5113,92.4415,92.4419,0.0,315.534,1.0,1.0,0.0,4,0.0,0.0,0.0,0.0,0.0,0,0,0,0,0,1,1,0,0,0
15080698,16.4697,16.5108,92.4415,92.4419,0.0,315.843,1.0,1.0,0.0,4,0.0,0.0,0.0,0.0,0.0,0,0,0,0,0,1,1,0,0,0
15092665,16.457,16.5103,92.3829,92.4407,0.0,316.15,1.0,1.0,0.0,4,0.0,0.0,0.0,0.0,0.0,0,0,0,0,0,1,1,0,0,0
15129459,16.3293,16.5081,92.4415,92.4419,0.0,317.095,1.0,1.0,0.0,4,0.0,0.0,0.0,0.0,0.0,0,0,0,0,0,1,1,0,0,0
15141455,16.6357,16.5093,92.4122,92.4413,0.0,317.403,1.0,1.0,0.0,4,0.0,0.0,0.0,0.0,0.0,0,0,0,0,0,1,1,0,0,0
15153449,16.3165,16.5074,92.4415,92.4413,0.0,317.711,1.0,1.0,0.0,4,0.0,0.0,0.0,0.0,0.0,0,0,0,0,0,1,1,0,0,0
15165465,16.457,16.5069,92.4415,92.4413,0.0,318.02,1.0,1.0,0.0,4,0.0,0.0,0.0,0.0,0.0,0,0,0,0,0,1,1,0,0,0
15177472,16.457,16.5064,92.4708,92.4419,0.0,318.328,1.0,1.0,0.0,4,0.0,0.0,0.0,0.0,0.0,0,0,0,0,0,1,1,0,0,0
15189468,16.457,16.5059,92.4708,92.4425,0.0,318.636,1.0,1.0,0.0,4,0.0,0.0,0.0,0.0,0.0,0,0,0,0,0,1,1,0,0,0
15201481,16.4825,16.5057,92.4415,92.4425,0.0,318.945,1.0,1.0,0.0,4,0.0,0.0,0.0,0.0,0.0,0,0,0,0,0,1,1,0,0,0
15213488,16.6996,16.5076,92.4415,92.4425,0.0,319.253,1.0,1.0,0.0,4,0.0,0.0,0.0,0.0,0.0,0,0,0,0,0,1,1,0,0,0
15225473,16.1889,16.5044,92.4708,92.443,0.0,319.561,1.0,1.0,0.0,4,0.0,0.0,0.0,0.0,0.0,0,0,0,0,0,1,1,0,0,0
15237454,16.6612,16.506,92.4122,92.4424,0.0,319.868,1.0,1.0,0.0,4,0.0,0.0,0.0,0.0,0.0,0,0,0,0,0,1,1,0,0,0
15249458,16.508,16.506,92.4415,92.4424,0.0,320.177,1.0,1.0,0.0,4,0.0,0.0,0.0,0.0,0.0,0,0,0,0,0,1,1,0,0,0
15261455,16.6229,16.5072,92.4122,92.4418,0.0,320.485,1.0,1.0,0.0,4,0.0,0.0,0.0,0.0,0.0,0,0,0,0,0,1,1,0,0,0
15273454,16.4697,16.5068,92.4708,92.4424,0.0,320.793,1.0,1.0,0.0,4,0.0,0.0,0.0,0.0,0.0,0,0,0,0,0,1,1,0,0,0
15285456,16.5336,16.5071,92.4122,92.4418,0.0,321.101,1.0,1.0,0.0,4,0.0,0.0,0.0,0.0,0.0,0,0,0,0,0,1,1,0,0,0
15370262,16.6357,16.5102,92.3829,92.4395,0.0,323.278,1.0,1.0,0.0,4,0.0,0.0,0.0,0.0,0.0,0,0,0,0,0,1,1,0,0,0
15382264,16.3165,16.5083,92.4708,92.4401,0.0,323.587,1.0,1.0,0.0,4,0.0,0.0,0.0,0.0,0.0,0,0,0,0,0,1,1,0,0,0
15394267,16.6612,16.5098,92.4122,92.4396,0.0,323.895,1.0,1.0,0.0,4,0.0,0.0,0.0,0.0,0.0,0,0,0,0,0,1,1,0,0,0
15406265,16.5974,16.5107,92.4415,92.4396,0.0,324.203,1.0,1.0,0.0,4,0.0,0.0,0.0,0.0,0.0,0,0,0,0,0,1,1,0,0,0
15418259,16.3038,16.5086,92.4415,92.4397,0.0,324.511,1.0,1.0,0.0,4,0.0,0.0,0.0,0.0,0.0,0,0,0,0,0,1,1,0,0,0
15430299,16.2655,16.5062,92.4122,92.4391,0.0,324.82,1.0,1.0,0.0,4,0.0,0.0,0.0,0.0,0.0,0,0,0,0,0,1,1,0,0,0
15442272,16.4059,16.5052,92.4708,92.4397,0.0,325.127,1.0,1.0,0.0,4,0.0,0.0,0.0,0.0,0.0,0,0,0,0,0,1,1,0,0,0
15454268,16.3676,16.5038,92.4122,92.4392,0.0,325.435,1.0,1.0,0.0,4,0.0,0.0,0.0,0.0,0.0,0,0,0,0,0,1,1,0,0,0
15466268,16.6357,16.5051,92.4122,92.4387,0.0,325.743,1.0,1.0,0.0,4,0.0,0.0,0.0,0.0,0.0,0,0,0,0,0,1,1,0,0,0
15478263,16.5463,16.5055,92.3536,92.437,0.0,326.051,1.0,1.0,0.0,4,0.0,0.0,0.0,0.0,0.0,0,0,0,0,0,1,1,0,0,0
15490261,16.2144,16.5026,92.4122,92.4365,0.0,326.359,1.0,1.0,0.0,4,0.0,0.0,0.0,0.0,0.0,0,0,0,0,0,1,1,0,0,0
15503057,16.3676,16.5013,92.4122,92.436,0.0,326.688,1.0,1.0,0.0,4,0.0,0.0,0.0,0.0,0.0,0,0,0,0,0,1,1,0,0,0
15515060,16.7762,16.504,92.4415,92.4361,0.0,326.996,1.0,1.0,0.0,4,0.0,0.0,0.0,0.0,0.0,0,0,0,0,0,1,1,0,0,0
15527066,16.5208,16.5042,92.4415,92.4362,0.0,327.304,1.0,1.0,0.0,4,0.0,0.0,0.0,0.0,0.0,0,0,0,0,0,1,1,0,0,0
15539065,16.5208,16.5043,92.4122,92.4357,0.0,327.612,1.0,1.0,0.0,4,0.0,0.0,0.0,0.0,0.0,0,0,0,0,0,1,1,0,0,0
15551085,16.3676,16.503,92.4708,92.4364,0.0,327.921,1.0,1.0,0.0,4,0.0,0.0,0.0,0.0,0.0,0,0,0,0,0,1,1,0,0,0
15563086,16.3548,16.5015,92.4415,92.4365,0.0,328.229,1.0,1.0,0.0,4,0.0,0.0,0.0,0.0,0.0,0,0,0,0,0,1,1,0,0,0
15695873,16.6229,16.4976,92.4708,92.4398,0.0,331.639,1.0,1.0,0.0,4,0.0,0.0,0.0,0.0,0.0,0,0,0,0,0,1,1,0,0,0
15707857,16.4697,16.4973,92.4708,92.4404,0.0,331.947,1.0,1.0,0.0,4,0.0,0.0,0.0,0.0,0.0,0,0,0,0,0,1,1,0,0,0
15719856,16.4697,16.497,92.4122,92.4398,0.0,332.255,1.0,1.0,0.0,4,0.0,0.0,0.0,0.0,0.0,0,0,0,0,0,1,1,0,0,0
15731859,16.4442,16.4965,92.5001,92.441,0.0,332.563,1.0,1.0,0.0,4,0.0,0.0,0.0,0.0,0.0,0,0,0,0,0,1,1,0,0,0
15743863,16.508,16.4966,92.4415,92.441,0.0,332.872,1.0,1.0,0.0,4,0.0,0.0,0.0,0.0,0.0,0,0,0,0,0,1,1,0,0,0
15755856,16.4953,16.4966,92.4708,92.4416,0.0,333.18,1.0,1.0,0.0,4,0.0,0.0,0.0,0.0,0.0,0,0,0,0,0,1,1,0,0,0
15767857,16.6357,16.498,92.4415,92.4416,0.0,333.488,1.0,1.0,0.0,4,0.0,0.0,0.0,0.0,0.0,0,0,0,0,0,1,1,0,0,0
15779875,16.4697,16.4977,92.4122,92.441,0.0,333.796,1.0,1.0,0.0,4,0.0,0.0,0.0,0.0,0.0,0,0,0,0,0,1,1,0,0,0
15791868,16.3804,16.4965,92.4708,92.4416,0.0,334.104,1.0,1.0,0.0,4,0.0,0.0,0.0,0.0,0.0,0,0,0,0,0,1,1,0,0,0
15803862,16.3804,16.4953,92.4708,92.4422,0.0,334.412,1.0,1.0,0.0,4,0.0,0.0,0.0,0.0,0.0,0,0,0,0,0,1,1,0,0,0
15815866,16.3676,16.4941,92.4708,92.4428,0.0,334.721,1.0,1.0,0.0,4,0.0,0.0,0.0,0.0,0.0,0,0,0,0,0,1,1,0,0,0
15827871,16.6485,16.4956,92.4708,92.4434,0.0,335.029,1.0,1.0,0.0,4,0.0,0.0,0.0,0.0,0.0,0,0,0,0,0,1,1,0,0,0
15839875,16.4442,16.4951,92.4122,92.4427,0.0,335.337,1.0,1.0,0.0,4,0.0,0.0,0.0,0.0,0.0,0,0,0,0,0,1,1,0,0,0
15851855,16.6612,16.4968,92.4122,92.4421,0.0,335.645,1.0,1.0,0.0,4,0.0,0.0,0.0,0.0,0.0,0,0,0,0,0,1,1,0,0,0
15863858,16.674,16.4985,92.4415,92.4421,0.0,335.953,1.0,1.0,0.0,4,0.0,0.0,0.0,0.0,0.0,0,0,0,0,0,1,1,0,0,0
16056674,16.5463,16.4969,92.4708,92.4419,0.0,340.904,1.0,1.0,0.0,4,0.0,0.0,0.0,0.0,0.0,0,0,0,0,0,1,1,0,0,0
16068661,16.6612,16.4986,92.4122,92.4413,0.0,341.212,1.0,1.0,0.0,4,0.0,0.0,0.0,0.0,0.0,0,0,0,0,0,1,1,0,0,0
16081473,16.508,16.4987,92.4122,92.4407,0.0,341.541,1.0,1.0,0.0,4,0.0,0.0,0.0,0.0,0.0,0,0,0,0,0,1,1,0,0,0
16093460,16.6229,16.4999,92.4708,92.4413,0.0,341.849,1.0,1.0,0.0,4,0.0,0.0,0.0,0.0,0.0,0,0,0,0,0,1,1,0,0,0
16105458,16.4697,16.4996,92.5001,92.4425,0.0,342.157,1.0,1.0,0.0,4,0.0,0.0,0.0,0.0,0.0,0,0,0,0,0,1,1,0,0,0
16117461,16.3038,16.4976,92.4708,92.443,0.0,342.465,1.0,1.0,0.0,4,0.0,0.0,0.0,0.0,0.0,0,0,0,0,0,1,1,0,0,0
16129461,16.6485,16.4992,92.4708,92.4436,0.0,342.773,1.0,1.0,0.0,4,0.0,0.0,0.0,0.0,0.0,0,0,0,0,0,1,1,0,0,0
16141457,16.5463,16.4996,92.4708,92.4441,0.0,343.082,1.0,1.0,0.0,4,0.0,0.0,0.0,0.0,0.0,0,0,0,0,0,1,1,0,0,0
16153458,16.4953,16.4996,92.4415,92.4441,0.0,343.39,1.0,1.0,0.0,4,0.0,0.0,0.0,0.0,0.0,0,0,0,0,0,1,1,0,0,0
16165458,16.4442,16.499,92.4122,92.4435,0.0,343.698,1.0,1.0,0.0,4,0.0,0.0,0.0,0.0,0.0,0,0,0,0,0,1,1,0,0,0
16177473,16.4442,16.4985,92.4415,92.4434,0.0,344.006,1.0,1.0,0.0,4,0.0,0.0,0.0,0.0,0.0,0,0,0,0,0,1,1,0,0,0
16189473,16.8145,16.5016,92.4415,92.4434,0.0,344.314,1.0,1.0,0.0,4,0.0,0.0,0.0,0.0,0.0,0,0,0,0,0,1,1,0,0,0
16201461,16.6229,16.5029,92.4415,92.4433,0.0,344.622,1.0,1.0,0.0,4,0.0,0.0,0.0,0.0,0.0,0,0,0,0,0,1,1,0,0,0
16213457,16.4697,16.5025,92.4708,92.4439,0.0,344.93,1.0,1.0,0.0,4,0.0,0.0,0.0,0.0,0.0,0,0,0,0,0,1,1,0,0,0
16225455,16.3931,16.5014,92.4708,92.4444,0.0,345.239,1.0,1.0,0.0,4,0.0,0.0,0.0,0.0,0.0,0,0,0,0,0,1,1,0,0,0
16237457,16.457,16.501,92.4122,92.4438,0.0,345.547,1.0,1.0,0.0,4,0.0,0.0,0.0,0.0,0.0,0,0,0,0,0,1,1,0,0,0
16249456,16.291,16.4989,92.4415,92.4437,0.0,345.855,1.0,1.0,0.0,4,0.0,0.0,0.0,0.0,0.0,0,0,0,0,0,1,1,0,0,0
16274285,16.3165,16.4965,92.4122,92.4442,0.0,346.492,1.0,1.0,0.0,4,0.0,0.0,0.0,0.0,0.0,0,0,0,0,0,1,1,0,0,0
16286260,16.3931,16.4955,92.4708,92.4448,0.0,346.8,1.0,1.0,0.0,4,0.0,0.0,0.0,0.0,0.0,0,0,0,0,0,1,1,0,0,0
16298288,16.6102,16.4966,92.4415,92.4447,0.0,347.109,1.0,1.0,0.0,4,0.0,0.0,0.0,0.0,0.0,0,0,0,0,0,1,1,0,0,0
16310261,16.5974,16.4976,92.4122,92.444,0.0,347.416,1.0,1.0,0.0,4,0.0,0.0,0.0,0.0,0.0,0,0,0,0,0,1,1,0,0,0
16322261,16.674,16.4994,92.3829,92.4428,0.0,347.724,1.0,1.0,0.0,4,0.0,0.0,0.0,0.0,0.0,0,0,0,0,0,1,1,0,0,0
16334261,16.6485,16.5009,92.4708,92.4434,0.0,348.032,1.0,1.0,0.0,4,0.0,0.0,0.0,0.0,0.0,0,0,0,0,0,1,1,0,0,0
16346259,16.5208,16.5011,92.4122,92.4428,0.0,348.34,1.0,1.0,0.0,4,0.0,0.0,0.0,0.0,0.0,0,0,0,0,0,1,1,0,0,0
16358260,16.4825,16.5009,92.4122,92.4422,0.0,348.649,1.0,1.0,0.0,4,0.0,0.0,0.0,0.0,0.0,0,0,0,0,0,1,1,0,0,0
16370273,16.4825,16.5007,92.4415,92.4421,0.0,348.957,1.0,1.0,0.0,4,0.0,0.0,0.0,0.0,0.0,0,0,0,0,0,1,1,0,0,0
16382293,16.4953,16.5007,92.3536,92.4404,0.0,349.265,1.0,1.0,0.0,4,0.0,0.0,0.0,0.0,0.0,0,0,0,0,0,1,1,0,0,0
16394283,16.3421,16.4991,92.4122,92.4398,0.0,349.573,1.0,1.0,0.0,4,0.0,0.0,0.0,0.0,0.0,0,0,0,0,0,1,1,0,0,0
16406272,16.457,16.4987,92.4708,92.4404,0.0,349.881,1.0,1.0,0.0,4,0.0,0.0,0.0,0.0,0.0,0,0,0,0,0,1,1,0,0,0
16418288,16.4953,16.4986,92.4122,92.4399,0.0,350.19,1.0,1.0,0.0,4,0.0,0.0,0.0,0.0,0.0,0,0,0,0,0,1,1,0,0,0
16430271,16.4953,16.4986,92.4415,92.4399,0.0,350.497,1.0,1.0,0.0,4,0.0,0.0,0.0,0.0,0.0,0,0,0,0,0,1,1,0,0,0
16442260,16.508,16.4987,92.4708,92.4405,0.0,350.805,1.0,1.0,0.0,4,0.0,0.0,0.0,0.0,0.0,0,0,0,0,0,1,1,0,0,0
16454259,16.6229,16.4999,92.4122,92.4399,0.0,351.113,1.0,1.0,0.0,4,0.0,0.0,0.0,0.0,0.0,0,0,0,0,0,1,1,0,0,0
16515067,16.508,16.4965,92.4415,92.4401,0.0,352.675,1.0,1.0,0.0,4,0.0,0.0,0.0,0.0,0.0,0,0,0,0,0,1,1,0,0,0
16527055,16.4442,16.496,92.4708,92.4407,0.0,352.983,1.0,1.0,0.0,4,0.0,0.0,0.0,0.0,0.0,0,0,0,0,0,1,1,0,0,0
16539063,16.674,16.4978,92.4122,92.4402,0.0,353.291,1.0,1.0,0.0,4,0.0,0.0,0.0,0.0,0.0,0,0,0,0,0,1,1,0,0,0
16551054,16.6357,16.4992,92.4122,92.4396,0.0,353.599,1.0,1.0,0.0,4,0.0,0.0,0.0,0.0,0.0,0,0,0,0,0,1,1,0,0,0
16563066,16.6485,16.5007,92.4708,92.4402,0.0,353.907,1.0,1.0,0.0,4,0.0,0.0,0.0,0.0,0.0,0,0,0,0,0,1,1,0,0,0
16575072,16.6612,16.5023,92.5001,92.4414,0.0,354.216,1.0,1.0,0.0,4,0.0,0.0,0.0,0.0,0.0,0,0,0,0,0,1,1,0,0,0
16587070,16.457,16.5018,92.4415,92.4414,0.0,354.524,1.0,1.0,0.0,4,0.0,0.0,0.0,0.0,0.0,0,0,0,0,0,1,1,0,0,0
16599084,16.6102,16.5029,92.4415,92.4414,0.0,354.832,1.0,1.0,0.0,4,0.0,0.0,0.0,0.0,0.0,0,0,0,0,0,1,1,0,0,0
16611059,16.4442,16.5023,92.4122,92.4408,0.0,355.14,1.0,1.0,0.0,4,0.0,0.0,0.0,0.0,0.0,0,0,0,0,0,1,1,0,0,0
16623058,16.3293,16.5006,92.4122,92.4403,0.0,355.448,1.0,1.0,0.0,4,0.0,0.0,0.0,0.0,0.0,0,0,0,0,0,1,1,0,0,0
16635058,16.457,16.5002,92.4122,92.4397,0.0,355.756,1.0,1.0,0.0,4,0.0,0.0,0.0,0.0,0.0,0,0,0,0,0,1,1,0,0,0
16647061,16.4825,16.5,92.4415,92.4398,0.0,356.064,1.0,1.0,0.0,4,0.0,0.0,0.0,0.0,0.0,0,0,0,0,0,1,1,0,0,0
16659858,16.6485,16.5015,92.4415,92.4398,0.0,356.393,1.0,1.0,0.0,4,0.0,0.0,0.0,0.0,0.0,0,0,0,0,0,1,1,0,0,0
16671876,16.6996,16.5034,92.4415,92.4398,0.0,356.701,1.0,1.0,0.0,4,0.0,0.0,0.0,0.0,0.0,0,0,0,0,0,1,1,0,0,0
16683862,16.4825,16.5032,92.4708,92.4404,0.0,357.009,1.0,1.0,0.0,4,0.0,0.0,0.0,0.0,0.0,0,0,0,0,0,1,1,0,0,0
16695868,16.4697,16.5029,92.4708,92.4411,0.0,357.317,1.0,1.0,0.0,4,0.0,0.0,0.0,0.0,0.0,0,0,0,0,0,1,1,0,0,0
16707877,16.6612,16.5045,92.4708,92.4417,0.0,357.626,1.0,1.0,0.0,4,0.0,0.0,0.0,0.0,0.0,0,0,0,0,0,1,1,0,0,0
16827869,16.6485,16.5042,92.4708,92.4401,0.0,360.707,1.0,1.0,0.0,4,0.0,0.0,0.0,0.0,0.0,0,0,0,0,0,1,1,0,0,0
16839875,16.291,16.5021,92.4415,92.4402,0.0,361.015,1.0,1.0,0.0,4,0.0,0.0,0.0,0.0,0.0,0,0,0,0,0,1,1,0,0,0
16852672,16.2144,16.4992,92.4122,92.4396,0.0,361.344,1.0,1.0,0.0,4,0.0,0.0,0.0,0.0,0.0,0,0,0,0,0,1,1,0,0,0
16864681,16.6485,16.5007,92.4415,92.4397,0.0,361.652,1.0,1.0,0.0,4,0.0,0.0,0.0,0.0,0.0,0,0,0,0,0,1,1,0,0,0
16876668,16.4442,16.5001,92.5001,92.4409,0.0,361.96,1.0,1.0,0.0,4,0.0,0.0,0.0,0.0,0.0,0,0,0,0,0,1,1,0,0,0
16888651,16.674,16.5018,92.4122,92.4403,0.0,362.268,1.0,1.0,0.0,4,0.0,0.0,0.0,0.0,0.0,0,0,0,0,0,1,1,0,0,0
16900711,16.5208,16.502,92.4122,92.4397,0.0,362.577,1.0,1.0,0.0,4,0.0,0.0,0.0,0.0,0.0,0,0,0,0,0,1,1,0,0,0
16912658,16.4442,16.5015,92.4415,92.4398,0.0,362.884,1.0,1.0,0.0,4,0.0,0.0,0.0,0.0,0.0,0,0,0,0,0,1,1,0,0,0
16924667,16.457,16.501,92.4708,92.4404,0.0,363.192,1.0,1.0,0.0,4,0.0,0.0,0.0,0.0,0.0,0,0,0,0,0,1,1,0,0,0
16936696,16.457,16.5006,92.4708,92.441,0.0,363.501,1.0,1.0,0.0,4,0.0,0.0,0.0,0.0,0.0,0,0,0,0,0,1,1,0,0,0
16948666,16.4825,16.5004,92.4708,92.4416,0.0,363.809,1.0,1.0,0.0,4,0.0,0.0,0.0,0.0,0.0,0,0,0,0,0,1,1,0,0,0
16960666,16.4697,16.5001,92.4415,92.4416,0.0,364.117,1.0,1.0,0.0,4,0.0,0.0,0.0,0.0,0.0,0,0,0,0,0,1,1,0,0,0
16972672,16.6102,16.5012,92.4415,92.4416,0.0,364.425,1.0,1.0,0.0,4,0.0,0.0,0.0,0.0,0.0,0,0,0,0,0,1,1,0,0,0
16984665,16.6612,16.5028,92.4122,92.441,0.0,364.733,1.0,1.0,0.0,4,0.0,0.0,0.0,0.0,0.0,0,0,0,0,0,1,1,0,0,0
16996664,16.4697,16.5025,92.4708,92.4416,0.0,365.041,1.0,1.0,0.0,4,0.0,0.0,0.0,0.0,0.0,0,0,0,0,0,1,1,0,0,0
17201470,16.6612,16.4978,92.5001,92.4429,0.0,370.301,0.99056,1.00146,0.0,4,0.0,0.0,0.0,0.0,0.0,0,0,0,0,0,1,1,0,0,0
17213456,16.4697,16.4975,92.4708,92.4434,0.0,370.609,0.989384,1.00165,0.0,4,0.0,0.0,0.0,0.0,0.0,0,0,0,0,0,1,1,0,0,0
17225455,16.457,16.4971,92.4415,92.4434,0.0,370.917,0.988171,1.00183,0.0,4,0.0,0.0,0.0,0.0,0.0,0,0,0,0,0,1,1,0,0,0
17237465,16.4953,16.4971,92.4415,92.4434,0.0,371.225,0.987117,1.002,0.0,4,0.0,0.0,0.0,0.0,0.0,0,0,0,0,0,1,1,0,0,0
17250293,16.2655,16.4947,92.4122,92.4427,0.0,371.554,0.985191,1.0023,0.0,4,0.0,0.0,0.0,0.0,0.0,0,0,0,0,0,1,1,0,0,0
17262268,16.4953,16.4947,92.4708,92.4433,0.0,371.862,0.984167,1.00246,0.0,4,0.0,0.0,0.0,0.0,0.0,0,0,0,0,0,1,1,0,0,0
17274273,16.7251,16.497,92.4708,92.4439,0.0,372.17,0.984038,1.00248,0.0,4,0.0,0.0,0.0,0.0,0.0,0,0,0,0,0,1,1,0,0,0
17286262,16.4825,16.4969,92.4122,92.4432,0.0,372.478,0.982976,1.00264,0.0,4,0.0,0.0,0.0,0.0,0.0,0,0,0,0,0,1,1,0,0,0
17298259,16.4697,16.4966,92.4122,92.4426,0.0,372.786,0.981876,1.00281,0.0,4,0.0,0.0,0.0,0.0,0.0,0,0,0,0,0,1,1,0,0,0
17310258,16.5591,16.4973,92.4708,92.4432,0.0,373.094,0.981131,1.00293,0.0,4,0.0,0.0,0.0,0.0,0.0,0,0,0,0,0,1,1,0,0,0
17322266,16.2782,16.4951,92.4708,92.4437,0.0,373.403,0.979313,1.00321,0.0,4,0.0,0.0,0.0,0.0,0.0,0,0,0,0,0,1,1,0,0,0
17334280,16.6485,16.4966,92.4122,92.4431,0.0,373.711,0.978938,1.00327,0.0,4,0.0,0.0,0.0,0.0,0.0,0,0,0,0,0,1,1,0,0,0
17346261,16.457,16.4962,92.4122,92.4425,0.0,374.019,0.977829,1.00344,0.0,4,0.0,0.0,0.0,0.0,0.0,0,0,0,0,0,1,1,0,0,0
17358276,16.6996,16.4982,92.4708,92.4431,0.0,374.327,0.977664,1.00347,0.0,4,0.0,0.0,0.0,0.0,0.0,0,0,0,0,0,1,1,0,0,0
17370279,16.508,16.4983,92.4415,92.443,0.0,374.635,0.976764,1.00361,0.0,4,0.0,0.0,0.0,0.0,0.0,0,0,0,0,0,1,1,0,0,0
17382269,16.4442,16.4978,92.4708,92.4436,0.0,374.943,0.975628,1.00379,0.0,4,0.0,0.0,0.0,0.0,0.0,0,0,0,0,0,1,1,0,0,0
17394275,16.5463,16.4983,92.4415,92.4435,0.0,375.252,0.974896,1.0039,0.0,4,0.0,0.0,0.0,0.0,0.0,0,0,0,0,0,1,1,0,0,0
17430259,16.5463,16.4972,92.4415,92.4446,0.0,376.176,0.971771,1.00439,0.0,4,0.0,0.0,0.0,0.0,0.0,0,0,0,0,0,1,1,0,0,0
17443060,16.4442,16.4966,92.4708,92.4451,0.0,376.505,0.970685,1.00456,0.0,4,0.0,0.0,0.0,0.0,0.0,0,0,0,0,0,1,1,0,0,0
17455057,16.3804,16.4955,92.3829,92.4438,0.0,376.813,0.969364,1.00476,0.0,4,0.0,0.0,0.0,0.0,0.0,0,0,0,0,0,1,1,0,0,0
17467067,16.4825,16.4954,92.4708,92.4444,0.0,377.121,0.968449,1.00491,0.0,4,0.0,0.0,0.0,0.0,0.0,0,0,0,0,0,1,1,0,0,0
17479061,16.6612,16.497,92.4708,92.4449,0.0,377.429,0.968231,1.00494,0.0,4,0.0,0.0,0.0,0.0,0.0,0,0,0,0,0,1,1,0,0,0
17491068,16.4442,16.4965,92.4708,92.4454,0.0,377.738,0.96718,1.00511,0.0,4,0.0,0.0,0.0,0.0,0.0,0,0,0,0,0,1,1,0,0,0
17503074,16.457,16.4961,92.4415,92.4454,0.0,378.046,0.966189,1.00526,0.0,4,0.0,0.0,0.0,0.0,0.0,0,0,0,0,0,1,1,0,0,0
17515069,16.457,16.4957,92.4415,92.4453,0.0,378.354,0.965208,1.00541,0.0,4,0.0,0.0,0.0,0.0,0.0,0,0,0,0,0,1,1,0,0,0
17527063,16.4953,16.4957,92.4415,92.4452,0.0,378.662,0.964384,1.00554,0.0,4,0.0,0.0,0.0,0.0,0.0,0,0,0,0,0,1,1,0,0,0
17539063,16.4442,16.4952,92.4122,92.4445,0.0,378.97,0.963372,1.0057,0.0,4,0.0,0.0,0.0,0.0,0.0,0,0,0,0,0,1,1,0,0,0
17551069,16.457,16.4948,92.4122,92.4439,0.0,379.278,0.96242,1.00585,0.0,4,0.0,0.0,0.0,0.0,0.0,0,0,0,0,0,1,1,0,0,0
17563064,16.6996,16.4968,92.4122,92.4433,0.0,379.586,0.962409,1.00585,0.0,4,0.0,0.0,0.0,0.0,0.0,0,0,0,0,0,1,1,0,0,0
17575063,16.4697,16.4966,92.4122,92.4426,0.0,379.894,0.961515,1.00599,0.0,4,0.0,0.0,0.0,0.0,0.0,0,0,0,0,0,1,1,0,0,0
17587055,16.4953,16.4966,92.4708,92.4432,0.0,380.202,0.960728,1.00612,0.0,4,0.0,0.0,0.0,0.0,0.0,0,0,0,0,0,1,1,0,0,0
17599058,16.3548,16.4951,92.4122,92.4426,0.0,380.51,0.959408,1.00632,0.0,4,0.0,0.0,0.0,0.0,0.0,0,0,0,0,0,1,1,0,0,0
17611066,16.4442,16.4946,92.4708,92.4432,0.0,380.819,0.958446,1.00647,0.0,4,0.0,0.0,0.0,0.0,0.0,0,0,0,0,0,1,1,0,0,0
17659867,16.4953,16.4933,92.4415,92.4447,0.0,382.072,0.954948,1.00702,0.0,4,0.0,0.0,0.0,0.0,0.0,0,0,0,0,0,1,1,0,0,0
17671858,16.3804,16.4922,92.4708,92.4452,0.0,382.38,0.953785,1.0072,0.0,4,0.0,0.0,0.0,0.0,0.0,0,0,0,0,0,1,1,0,0,0
17683858,16.4953,16.4922,92.4415,92.4452,0.0,382.688,0.953075,1.00732,0.0,4,0.0,0.0,0.0,0.0,0.0,0,0,0,0,0,1,1,0,0,0
17695859,16.4314,16.4916,92.4708,92.4457,0.0,382.996,0.952127,1.00746,0.0,4,0.0,0.0,0.0,0.0,0.0,0,0,0,0,0,1,1,0,0,0
17707860,16.6868,16.4936,92.4708,92.4462,0.0,383.305,0.952169,1.00746,0.0,4,0.0,0.0,0.0,0.0,0.0,0,0,0,0,0,1,1,0,0,0
17719879,16.674,16.4954,92.4708,92.4467,0.0,383.613,0.952163,1.00746,0.0,4,0.0,0.0,0.0,0.0,0.0,0,0,0,0,0,1,1,0,0,0
17731865,16.6485,16.4969,92.4122,92.446,0.0,383.921,0.952059,1.00747,0.0,4,0.0,0.0,0.0,0.0,0.0,0,0,0,0,0,1,1,0,0,0
17743873,16.6612,16.4985,92.3829,92.4447,0.0,384.229,0.952005,1.00748,0.0,4,0.0,0.0,0.0,0.0,0.0,0,0,0,0,0,1,1,0,0,0
17755873,16.4442,16.498,92.4415,92.4447,0.0,384.537,0.951116,1.00762,0.0,4,0.0,0.0,0.0,0.0,0.0,0,0,0,0,0,1,1,0,0,0
17767875,16.4825,16.4978,92.4415,92.4446,0.0,384.846,0.950384,1.00774,0.0,4,0.0,0.0,0.0,0.0,0.0,0,0,0,0,0,1,1,0,0,0
17779857,16.6485,16.4994,92.5001,92.4457,0.0,385.153,0.950298,1.00775,0.0,4,0.0,0.0,0.0,0.0,0.0,0,0,0,0,0,1,1,0,0,0
17791855,16.5463,16.4998,92.4122,92.445,0.0,385.461,0.949819,1.00783,0.0,4,0.0,0.0,0.0,0.0,0.0,0,0,0,0,0,1,1,0,0,0
17803869,16.291,16.4977,92.4122,92.4444,0.0,385.77,0.948363,1.00806,0.0,4,0.0,0.0,0.0,0.0,0.0,0,0,0,0,0,1,1,0,0,0
17815863,16.4442,16.4972,92.4708,92.4449,0.0,386.078,0.947511,1.00819,0.0,4,0.0,0.0,0.0,0.0,0.0,0,0,0,0,0,1,1,0,0,0
17828691,16.4825,16.4971,92.4122,92.4443,0.0,386.407,0.946815,1.0083,0.0,4,0.0,0.0,0.0,0.0,0.0,0,0,0,0,0,1,1,0,0,0
17840672,16.6612,16.4987,92.4415,92.4442,0.0,386.715,0.946813,1.0083,0.0,4,0.0,0.0,0.0,0.0,0.0,0,0,0,0,0,1,1,0,0,0
17852678,16.3931,16.4976,92.4415,92.4441,0.0,387.023,0.94578,1.00846,0.0,4,0.0,0.0,0.0,0.0,0.0,0,0,0,0,0,1,1,0,0,0
18008677,16.6485,16.4945,92.4122,92.4415,0.0,391.029,0.936985,1.00985,0.0,4,0.0,0.0,0.0,0.0,0.0,0,0,0,0,0,1,1,0,0,0
18021475,16.3804,16.4934,92.3829,92.4403,0.0,391.357,0.936001,1.01,0.0,4,0.0,0.0,0.0,0.0,0.0,0,0,0,0,0,1,1,0,0,0
18033458,16.4953,16.4934,92.4708,92.4409,0.0,391.665,0.935469,1.01009,0.0,4,0.0,0.0,0.0,0.0,0.0,0,0,0,0,0,1,1,0,0,0
18045458,16.6229,16.4947,92.5001,92.4421,0.0,391.973,0.935433,1.01009,0.0,4,0.0,0.0,0.0,0.0,0.0,0,0,0,0,0,1,1,0,0,0
18057457,16.6612,16.4964,92.4122,92.4415,0.0,392.281,0.935545,1.01008,0.0,4,0.0,0.0,0.0,0.0,0.0,0,0,0,0,0,1,1,0,0,0
18069459,16.3548,16.495,92.4708,92.4421,0.0,392.589,0.934478,1.01024,0.0,4,0.0,0.0,0.0,0.0,0.0,0,0,0,0,0,1,1,0,0,0
18081493,16.508,16.4951,92.5001,92.4432,0.0,392.899,0.934011,1.01032,0.0,4,0.0,0.0,0.0,0.0,0.0,0,0,0,0,0,1,1,0,0,0
18093461,16.4825,16.495,92.4415,92.4432,0.0,393.206,0.93345,1.01041,0.0,4,0.0,0.0,0.0,0.0,0.0,0,0,0,0,0,1,1,0,0,0
18105458,16.5463,16.4955,92.4122,92.4426,0.0,393.514,0.933139,1.01046,0.0,4,0.0,0.0,0.0,0.0,0.0,0,0,0,0,0,1,1,0,0,0
18117473,16.4187,16.4947,92.4708,92.4432,0.0,393.822,0.932341,1.01058,0.0,4,0.0,0.0,0.0,0.0,0.0,0,0,0,0,0,1,1,0,0,0
18129459,16.6868,16.4966,92.4122,92.4425,0.0,394.13,0.932582,1.01054,0.0,4,0.0,0.0,0.0,0.0,0.0,0,0,0,0,0,1,1,0,0,0
18141454,16.4697,16.4964,92.4708,92.4431,0.0,394.438,0.931986,1.01064,0.0,4,0.0,0.0,0.0,0.0,0.0,0,0,0,0,0,1,1,0,0,0
18153459,16.4825,16.4962,92.4415,92.4431,0.0,394.746,0.931445,1.01072,0.0,4,0.0,0.0,0.0,0.0,0.0,0,0,0,0,0,1,1,0,0,0
18165459,16.4953,16.4962,92.4122,92.4425,0.0,395.055,0.930958,1.0108,0.0,4,0.0,0.0,0.0,0.0,0.0,0,0,0,0,0,1,1,0,0,0
18177450,16.4442,16.4957,92.3829,92.4413,0.0,395.362,0.93028,1.01091,0.0,4,0.0,0.0,0.0,0.0,0.0,0,0,0,0,0,1,1,0,0,0
18358266,16.457,16.4924,92.4708,92.4443,0.0,400.006,0.922381,1.01216,0.0,4,0.0,0.0,0.0,0.0,0.0,0,0,0,0,0,1,1,0,0,0
18370294,16.6229,16.4937,92.4415,92.4442,0.0,400.315,0.922477,1.01214,0.0,4,0.0,0.0,0.0,0.0,0.0,0,0,0,0,0,1,1,0,0,0
18382273,16.4442,16.4932,92.5001,92.4453,0.0,400.622,0.921884,1.01224,0.0,4,0.0,0.0,0.0,0.0,0.0,0,0,0,0,0,1,1,0,0,0
18394264,16.6996,16.4953,92.4708,92.4458,0.0,400.93,0.922278,1.01217,0.0,4,0.0,0.0,0.0,0.0,0.0,0,0,0,0,0,1,1,0,0,0
18406263,16.4697,16.495,92.5001,92.4469,0.0,401.239,0.921785,1.01225,0.0,4,0.0,0.0,0.0,0.0,0.0,0,0,0,0,0,1,1,0,0,0
18419071,16.508,16.4951,92.4122,92.4462,0.0,401.568,0.921444,1.01231,0.0,4,0.0,0.0,0.0,0.0,0.0,0,0,0,0,0,1,1,0,0,0
18431054,16.8272,16.4984,92.3829,92.445,0.0,401.875,0.922335,1.01217,0.0,4,0.0,0.0,0.0,0.0,0.0,0,0,0,0,0,1,1,0,0,0
18443061,16.674,16.5002,92.4415,92.4449,0.0,402.183,0.922627,1.01212,0.0,4,0.0,0.0,0.0,0.0,0.0,0,0,0,0,0,1,1,0,0,0
18455065,16.5974,16.5012,92.4415,92.4448,0.0,402.492,0.922622,1.01212,0.0,4,0.0,0.0,0.0,0.0,0.0,0,0,0,0,0,1,1,0,0,0
18467074,16.5463,16.5016,92.4708,92.4453,0.0,402.8,0.92242,1.01215,0.0,4,0.0,0.0,0.0,0.0,0.0,0,0,0,0,0,1,1,0,0,0
18479079,16.5974,16.5026,92.4708,92.4458,0.0,403.108,0.922416,1.01215,0.0,4,0.0,0.0,0.0,0.0,0.0,0,0,0,0,0,1,1,0,0,0
18491056,16.5719,16.5033,92.4708,92.4464,0.0,403.416,0.922315,1.01217,0.0,4,0.0,0.0,0.0,0.0,0.0,0,0,0,0,0,1,1,0,0,0
18503066,16.4697,16.5029,92.5001,92.4474,0.0,403.725,0.921822,1.01225,0.0,4,0.0,0.0,0.0,0.0,0.0,0,0,0,0,0,1,1,0,0,0
18515065,16.2655,16.5006,92.4708,92.4479,0.0,404.033,0.920547,1.01245,0.0,4,0.0,0.0,0.0,0.0,0.0,0,0,0,0,0,1,1,0,0,0
18527069,16.4314,16.4999,92.4122,92.4472,0.0,404.341,0.919924,1.01255,0.0,4,0.0,0.0,0.0,0.0,0.0,0,0,0,0,0,1,1,0,0,0
18539059,16.457,16.4994,92.4415,92.4471,0.0,404.649,0.919406,1.01263,0.0,4,0.0,0.0,0.0,0.0,0.0,0,0,0,0,0,1,1,0,0,0
18551059,16.3548,16.498,92.4415,92.447,0.0,404.957,0.9185,1.01277,0.0,4,0.0,0.0,0.0,0.0,0.0,0,0,0,0,0,1,1,0,0,0
18599881,16.2399,16.4967,92.4708,92.4483,0.0,406.211,0.916648,1.01307,0.0,4,0.0,0.0,0.0,0.0,0.0,0,0,0,0,0,1,1,0,0,0
18611870,16.4442,16.4962,92.4415,92.4481,0.0,406.519,0.916113,1.01315,0.0,4,0.0,0.0,0.0,0.0,0.0,0,0,0,0,0,1,1,0,0,0
18623866,16.4825,16.4961,92.4708,92.4486,0.0,406.827,0.915731,1.01321,0.0,4,0.0,0.0,0.0,0.0,0.0,0,0,0,0,0,1,1,0,0,0
18635856,16.6612,16.4977,92.4708,92.449,0.0,407.135,0.91604,1.01316,0.0,4,0.0,0.0,0.0,0.0,0.0,0,0,0,0,0,1,1,0,0,0
18647856,16.4953,16.4977,92.4415,92.4489,0.0,407.443,0.915708,1.01322,0.0,4,0.0,0.0,0.0,0.0,0.0,0,0,0,0,0,1,1,0,0,0
18659859,16.3676,16.4964,92.4708,92.4493,0.0,407.751,0.914887,1.01335,0.0,4,0.0,0.0,0.0,0.0,0.0,0,0,0,0,0,1,1,0,0,0
18671866,16.5974,16.4974,92.4122,92.4486,0.0,408.06,0.91496,1.01334,0.0,4,0.0,0.0,0.0,0.0,0.0,0,0,0,0,0,1,1,0,0,0
18683861,16.4059,16.4965,92.3829,92.4473,0.0,408.367,0.914294,1.01344,0.0,4,0.0,0.0,0.0,0.0,0.0,0,0,0,0,0,1,1,0,0,0
18695863,16.3804,16.4953,92.4415,92.4472,0.0,408.676,0.913537,1.01356,0.0,4,0.0,0.0,0.0,0.0,0.0,0,0,0,0,0,1,1,0,0,0
18707862,16.6612,16.497,92.4122,92.4465,0.0,408.984,0.913868,1.01351,0.0,4,0.0,0.0,0.0,0.0,0.0,0,0,0,0,0,1,1,0,0,0
18719878,16.4825,16.4968,92.4415,92.4464,0.0,409.292,0.913508,1.01357,0.0,4,0.0,0.0,0.0,0.0,0.0,0,0,0,0,0,1,1,0,0,0
18731872,16.3676,16.4956,92.4122,92.4457,0.0,409.6,0.91271,1.01369,0.0,4,0.0,0.0,0.0,0.0,0.0,0,0,0,0,0,1,1,0,0,0
18743907,16.5591,16.4962,92.4415,92.4456,0.0,409.909,0.912657,1.0137,0.0,4,0.0,0.0,0.0,0.0,0.0,0,0,0,0,0,1,1,0,0,0
18755864,16.6485,16.4977,92.5001,92.4467,0.0,410.216,0.912947,1.01366,0.0,4,0.0,0.0,0.0,0.0,0.0,0,0,0,0,0,1,1,0,0,0
18767858,16.4697,16.4974,92.4122,92.446,0.0,410.524,0.912548,1.01372,0.0,4,0.0,0.0,0.0,0.0,0.0,0,0,0,0,0,1,1,0,0,0
18828802,16.5974,16.4974,92.4708,92.4468,0.0,412.089,0.9111,1.01395,0.0,4,0.0,0.0,0.0,0.0,0.0,0,0,0,0,0,1,1,0,0,0
18840662,16.6102,16.4985,92.4415,92.4466,0.0,412.394,0.911259,1.01392,0.0,4,0.0,0.0,0.0,0.0,0.0,0,0,0,0,0,1,1,0,0,0
18852664,16.5208,16.4987,92.3829,92.4454,0.0,412.702,0.911073,1.01395,0.0,4,0.0,0.0,0.0,0.0,0.0,0,0,0,0,0,1,1,0,0,0
18864664,16.457,16.4983,92.4708,92.4459,0.0,413.01,0.910643,1.01402,0.0,4,0.0,0.0,0.0,0.0,0.0,0,0,0,0,0,1,1,0,0,0
18876659,16.4697,16.498,92.4122,92.4452,0.0,413.318,0.910266,1.01408,0.0,4,0.0,0.0,0.0,0.0,0.0,0,0,0,0,0,1,1,0,0,0
18888656,16.6357,16.4994,92.4415,92.4451,0.0,413.626,0.910532,1.01404,0.0,4,0.0,0.0,0.0,0.0,0.0,0,0,0,0,0,1,1,0,0,0
18900655,16.457,16.499,92.4415,92.4451,0.0,413.934,0.910107,1.01411,0.0,4,0.0,0.0,0.0,0.0,0.0,0,0,0,0,0,1,1,0,0,0
18912662,16.4697,16.4987,92.4708,92.4456,0.0,414.243,0.909736,1.01417,0.0,4,0.0,0.0,0.0,0.0,0.0,0,0,0,0,0,1,1,0,0,0
18924703,16.3676,16.4974,92.4415,92.4455,0.0,414.552,0.908976,1.01429,0.0,4,0.0,0.0,0.0,0.0,0.0,0,0,0,0,0,1,1,0,0,0
18936684,16.4953,16.4973,92.4708,92.446,0.0,414.86,0.908713,1.01433,0.0,4,0.0,0.0,0.0,0.0,0.0,0,0,0,0,0,1,1,0,0,0
18948673,16.4697,16.4971,92.4122,92.4453,0.0,415.167,0.908356,1.01439,0.0,4,0.0,0.0,0.0,0.0,0.0,0,0,0,0,0,1,1,0,0,0
18960666,16.4697,16.4968,92.4708,92.4459,0.0,415.475,0.908003,1.01444,0.0,4,0.0,0.0,0.0,0.0,0.0,0,0,0,0,0,1,1,0,0,0
18972686,16.6357,16.4982,92.3829,92.4446,0.0,415.784,0.90829,1.0144,0.0,4,0.0,0.0,0.0,0.0,0.0,0,0,0,0,0,1,1,0,0,0
18984664,16.6485,16.4997,92.4708,92.4451,0.0,416.092,0.908625,1.01434,0.0,4,0.0,0.0,0.0,0.0,0.0,0,0,0,0,0,1,1,0,0,0
18997473,16.6612,16.5013,92.4708,92.4456,0.0,416.421,0.909005,1.01428,0.0,4,0.0,0.0,0.0,0.0,0.0,0,0,0,0,0,1,1,0,0,0
19009457,16.674,16.503,92.4122,92.445,0.0,416.728,0.909431,1.01422,0.0,4,0.0,0.0,0.0,0.0,0.0,0,0,0,0,0,1,1,0,0,0
19214264,16.3931,16.501,92.4708,92.4443,0.0,421.987,0.904928,1.01493,0.0,4,0.0,0.0,0.0,0.0,0.0,0,0,0,0,0,1,1,0,0,0
19226268,16.4442,16.5004,92.4415,92.4442,0.0,422.295,0.90451,1.015,0.0,4,0.0,0.0,0.0,0.0,0.0,0,0,0,0,0,1,1,0,0,0
19238289,16.6868,16.5023,92.4122,92.4436,0.0,422.604,0.905029,1.01492,0.0,4,0.0,0.0,0.0,0.0,0.0,0,0,0,0,0,1,1,0,0,0
19250273,16.4442,16.5017,92.4708,92.4441,0.0,422.912,0.904611,1.01498,0.0,4,0.0,0.0,0.0,0.0,0.0,0,0,0,0,0,1,1,0,0,0
19262277,16.3931,16.5006,92.4122,92.4435,0.0,423.22,0.904,1.01508,0.0,4,0.0,0.0,0.0,0.0,0.0,0,0,0,0,0,1,1,0,0,0
19274274,16.4442,16.5,92.4708,92.444,0.0,423.528,0.903592,1.01515,0.0,4,0.0,0.0,0.0,0.0,0.0,0,0,0,0,0,1,1,0,0,0
19286265,16.3165,16.4982,92.4122,92.4434,0.0,423.836,0.902697,1.01529,0.0,4,0.0,0.0,0.0,0.0,0.0,0,0,0,0,0,1,1,0,0,0
19298259,16.3038,16.4963,92.4415,92.4434,0.0,424.144,0.901761,1.01544,0.0,4,0.0,0.0,0.0,0.0,0.0,0,0,0,0,0,1,1,0,0,0
19310260,16.4953,16.4963,92.4708,92.4439,0.0,424.452,0.901572,1.01547,0.0,4,0.0,0.0,0.0,0.0,0.0,0,0,0,0,0,1,1,0,0,0
19322283,16.5591,16.4969,92.4415,92.4439,0.0,424.761,0.90163,1.01546,0.0,4,0.0,0.0,0.0,0.0,0.0,0,0,0,0,0,1,1,0,0,0
19334262,16.6612,16.4985,92.4708,92.4444,0.0,425.069,0.90208,1.01539,0.0,4,0.0,0.0,0.0,0.0,0.0,0,0,0,0,0,1,1,0,0,0
19346258,16.3038,16.4966,92.4708,92.4449,0.0,425.377,0.901151,1.01554,0.0,4,0.0,0.0,0.0,0.0,0.0,0,0,0,0,0,1,1,0,0,0
19358259,16.6996,16.4986,92.4708,92.4455,0.0,425.685,0.901752,1.01544,0.0,4,0.0,0.0,0.0,0.0,0.0,0,0,0,0,0,1,1,0,0,0
19370259,16.4697,16.4983,92.4415,92.4454,0.0,425.993,0.901465,1.01549,0.0,4,0.0,0.0,0.0,0.0,0.0,0,0,0,0,0,1,1,0,0,0
19383059,16.1889,16.4952,92.4708,92.4459,0.0,426.322,0.9001,1.0157,0.0,4,0.0,0.0,0.0,0.0,0.0,0,0,0,0,0,1,1,0,0,0
19551064,16.3421,16.4906,92.4708,92.4454,0.0,430.636,0.896031,1.01635,0.0,4,0.0,0.0,0.0,0.0,0.0,0,0,0,0,0,1,1,0,0,0
19563064,16.3421,16.4891,92.4122,92.4448,0.0,430.944,0.89531,1.01647,0.0,4,0.0,0.0,0.0,0.0,0.0,0,0,0,0,0,1,1,0,0,0
19575885,16.4442,16.4886,92.4708,92.4453,0.0,431.273,0.894989,1.01652,0.0,4,0.0,0.0,0.0,0.0,0.0,0,0,0,0,0,1,1,0,0,0
19587854,16.4697,16.4884,92.4415,92.4452,0.0,431.581,0.894769,1.01656,0.0,4,0.0,0.0,0.0,0.0,0.0,0,0,0,0,0,1,1,0,0,0
19599857,16.6229,16.4898,92.5001,92.4463,0.0,431.889,0.89514,1.0165,0.0,4,0.0,0.0,0.0,0.0,0.0,0,0,0,0,0,1,1,0,0,0
19611858,16.3548,16.4884,92.4708,92.4468,0.0,432.197,0.894477,1.0166,0.0,4,0.0,0.0,0.0,0.0,0.0,0,0,0,0,0,1,1,0,0,0
19623855,16.5974,16.4895,92.4708,92.4473,0.0,432.506,0.894753,1.01656,0.0,4,0.0,0.0,0.0,0.0,0.0,0,0,0,0,0,1,1,0,0,0
19635854,16.5719,16.4903,92.4415,92.4472,0.0,432.814,0.894927,1.01653,0.0,4,0.0,0.0,0.0,0.0,0.0,0,0,0,0,0,1,1,0,0,0
19647866,16.4953,16.4904,92.4415,92.4471,0.0,433.122,0.894806,1.01655,0.0,4,0.0,0.0,0.0,0.0,0.0,0,0,0,0,0,1,1,0,0,0
19659857,16.4825,16.4903,92.4708,92.4475,0.0,433.43,0.894637,1.01658,0.0,4,0.0,0.0,0.0,0.0,0.0,0,0,0,0,0,1,1,0,0,0
19671854,16.5208,16.4906,92.4708,92.448,0.0,433.738,0.894618,1.01658,0.0,4,0.0,0.0,0.0,0.0,0.0,0,0,0,0,0,1,1,0,0,0
19683864,16.6229,16.4919,92.4415,92.4479,0.0,434.047,0.89499,1.01652,0.0,4,0.0,0.0,0.0,0.0,0.0,0,0,0,0,0,1,1,0,0,0
19695883,16.2272,16.4893,92.4122,92.4472,0.0,434.355,0.893837,1.0167,0.0,4,0.0,0.0,0.0,0.0,0.0,0,0,0,0,0,1,1,0,0,0
19707868,16.4314,16.4887,92.4415,92.4471,0.0,434.663,0.893482,1.01676,0.0,4,0.0,0.0,0.0,0.0,0.0,0,0,0,0,0,1,1,0,0,0
19719865,16.4442,16.4883,92.4415,92.4469,0.0,434.971,0.893179,1.01681,0.0,4,0.0,0.0,0.0,0.0,0.0,0,0,0,0,0,1,1,0,0,0
19731868,16.4953,16.4883,92.4415,92.4468,0.0,435.279,0.893075,1.01683,0.0,4,0.0,0.0,0.0,0.0,0.0,0,0,0,0,0,1,1,0,0,0
19743869,16.6357,16.4898,92.4415,92.4467,0.0,435.587,0.893513,1.01676,0.0,4,0.0,0.0,0.0,0.0,0.0,0,0,0,0,0,1,1,0,0,0
19792658,16.457,16.4884,92.5001,92.4492,0.0,436.841,0.892461,1.01692,0.0,4,0.0,0.0,0.0,0.0,0.0,0,0,0,0,0,1,1,0,0,0
19804704,16.6612,16.4901,92.4415,92.449,0.0,437.15,0.893003,1.01684,0.0,4,0.0,0.0,0.0,0.0,0.0,0,0,0,0,0,1,1,0,0,0
19816695,16.6229,16.4915,92.4415,92.4489,0.0,437.458,0.893392,1.01678,0.0,4,0.0,0.0,0.0,0.0,0.0,0,0,0,0,0,1,1,0,0,0
19828789,16.3548,16.4901,92.5001,92.4499,0.0,437.769,0.892746,1.01688,0.0,4,0.0,0.0,0.0,0.0,0.0,0,0,0,0,0,1,1,0,0,0
19840688,16.6357,16.4915,92.4708,92.4503,0.0,438.074,0.893187,1.01681,0.0,4,0.0,0.0,0.0,0.0,0.0,0,0,0,0,0,1,1,0,0,0
19852661,16.4187,16.4908,92.4122,92.4496,0.0,438.382,0.892789,1.01687,0.0,4,0.0,0.0,0.0,0.0,0.0,0,0,0,0,0,1,1,0,0,0
19864673,16.6612,16.4925,92.4415,92.4494,0.0,438.69,0.893327,1.01679,0.0,4,0.0,0.0,0.0,0.0,0.0,0,0,0,0,0,1,1,0,0,0
19876665,16.457,16.4922,92.4122,92.4487,0.0,438.998,0.893075,1.01683,0.0,4,0.0,0.0,0.0,0.0,0.0,0,0,0,0,0,1,1,0,0,0
19888779,16.3421,16.4907,92.4415,92.4485,0.0,439.309,0.892383,1.01694,0.0,4,0.0,0.0,0.0,0.0,0.0,0,0,0,0,0,1,1,0,0,0
19900654,16.3165,16.4889,92.3829,92.4472,0.0,439.614,0.8916,1.01706,0.0,4,0.0,0.0,0.0,0.0,0.0,0,0,0,0,0,1,1,0,0,0
19912657,16.4697,16.4887,92.4415,92.4471,0.0,439.922,0.891413,1.01709,0.0,4,0.0,0.0,0.0,0.0,0.0,0,0,0,0,0,1,1,0,0,0
19924653,16.457,16.4884,92.4708,92.4476,0.0,440.23,0.89118,1.01713,0.0,4,0.0,0.0,0.0,0.0,0.0,0,0,0,0,0,1,1,0,0,0
19936701,16.6868,16.4904,92.4708,92.448,0.0,440.54,0.891833,1.01703,0.0,4,0.0,0.0,0.0,0.0,0.0,0,0,0,0,0,1,1,0,0,0
19948665,16.4697,16.4902,92.4708,92.4485,0.0,440.847,0.891644,1.01706,0.0,4,0.0,0.0,0.0,0.0,0.0,0,0,0,0,0,1,1,0,0,0
19960682,16.3548,16.4888,92.3829,92.4472,0.0,441.155,0.891016,1.01716,0.0,4,0.0,0.0,0.0,0.0,0.0,0,0,0,0,0,1,1,0,0,0
19973476,16.4825,16.4888,92.4415,92.4471,0.0,441.484,0.890884,1.01718,0.0,4,0.0,0.0,0.0,0.0,0.0,0,0,0,0,0,1,1,0,0,0
20033456,16.6102,16.4885,92.4708,92.4472,0.0,443.024,0.890268,1.01728,0.0,4,0.0,0.0,0.0,0.0,0.0,0,0,0,0,0,1,1,0,0,0
20045473,16.508,16.4887,92.4415,92.447,0.0,443.333,0.890243,1.01728,0.0,4,0.0,0.0,0.0,0.0,0.0,0,0,0,0,0,1,1,0,0,0
20057476,16.6996,16.4908,92.4415,92.4469,0.0,443.641,0.890953,1.01717,0.0,4,0.0,0.0,0.0,0.0,0.0,0,0,0,0,0,1,1,0,0,0
20069466,16.2016,16.4879,92.4415,92.4468,0.0,443.949,0.889742,1.01736,0.0,4,0.0,0.0,0.0,0.0,0.0,0,0,0,0,0,1,1,0,0,0
20081464,16.6868,16.4899,92.4415,92.4467,0.0,444.257,0.890409,1.01725,0.0,4,0.0,0.0,0.0,0.0,0.0,0,0,0,0,0,1,1,0,0,0
20093455,16.4314,16.4893,92.4122,92.446,0.0,444.565,0.890088,1.0173,0.0,4,0.0,0.0,0.0,0.0,0.0,0,0,0,0,0,1,1,0,0,0
20105460,16.6485,16.4909,92.4708,92.4465,0.0,444.873,0.890604,1.01722,0.0,4,0.0,0.0,0.0,0.0,0.0,0,0,0,0,0,1,1,0,0,0
20117460,16.6357,16.4924,92.4415,92.4464,0.0,445.181,0.891066,1.01715,0.0,4,0.0,0.0,0.0,0.0,0.0,0,0,0,0,0,1,1,0,0,0
20129459,16.4697,16.4921,92.4708,92.4469,0.0,445.489,0.890885,1.01718,0.0,4,0.0,0.0,0.0,0.0,0.0,0,0,0,0,0,1,1,0,0,0
20141475,16.457,16.4918,92.4122,92.4462,0.0,445.798,0.890657,1.01721,0.0,4,0.0,0.0,0.0,0.0,0.0,0,0,0,0,0,1,1,0,0,0
20153468,16.6229,16.4931,92.4708,92.4467,0.0,446.106,0.89107,1.01715,0.0,4,0.0,0.0,0.0,0.0,0.0,0,0,0,0,0,1,1,0,0,0
20166269,16.674,16.4949,92.4122,92.446,0.0,446.435,0.891675,1.01705,0.0,4,0.0,0.0,0.0,0.0,0.0,0,0,0,0,0,1,1,0,0,0
20178259,16.4442,16.4944,92.4708,92.4465,0.0,446.742,0.89139,1.0171,0.0,4,0.0,0.0,0.0,0.0,0.0,0,0,0,0,0,1,1,0,0,0
20190280,16.5208,16.4947,92.4415,92.4464,0.0,447.051,0.891401,1.01709,0.0,4,0.0,0.0,0.0,0.0,0.0,0,0,0,0,0,1,1,0,0,0
20202262,16.5208,16.4949,92.4415,92.4463,0.0,447.359,0.891414,1.01709,0.0,4,0.0,0.0,0.0,0.0,0.0,0,0,0,0,0,1,1,0,0,0
20214261,16.674,16.4967,92.4122,92.4457,0.0,447.667,0.892015,1.017,0.0,4,0.0,0.0,0.0,0.0,0.0,0,0,0,0,0,1,1,0,0,0
20226296,16.4059,16.4958,92.4122,92.445,0.0,447.976,0.89158,1.01707,0.0,4,0.0,0.0,0.0,0.0,0.0,0,0,0,0,0,1,1,0,0,0
20395074,16.3421,16.5023,92.4122,92.4457,0.0,452.31,0.892965,1.01684,0.0,4,0.0,0.0,0.0,0.0,0.0,0,0,0,0,0,1,1,0,0,0
20407072,16.3165,16.5005,92.4415,92.4456,0.0,452.618,0.892177,1.01697,0.0,4,0.0,0.0,0.0,0.0,0.0,0,0,0,0,0,1,1,0,0,0
20419071,16.3804,16.4993,92.4708,92.4461,0.0,452.926,0.891641,1.01706,0.0,4,0.0,0.0,0.0,0.0,0.0,0,0,0,0,0,1,1,0,0,0
20431071,16.2527,16.4968,92.5001,92.4472,0.0,453.235,0.890619,1.01722,0.0,4,0.0,0.0,0.0,0.0,0.0,0,0,0,0,0,1,1,0,0,0
20443068,16.5208,16.4971,92.4415,92.4471,0.0,453.543,0.890639,1.01722,0.0,4,0.0,0.0,0.0,0.0,0.0,0,0,0,0,0,1,1,0,0,0
20455059,16.3421,16.4955,92.4708,92.4476,0.0,453.851,0.889972,1.01732,0.0,4,0.0,0.0,0.0,0.0,0.0,0,0,0,0,0,1,1,0,0,0
20467060,16.4187,16.4947,92.4415,92.4474,0.0,454.159,0.889605,1.01738,0.0,4,0.0,0.0,0.0,0.0,0.0,0,0,0,0,0,1,1,0,0,0
20479056,16.4697,16.4945,92.4415,92.4473,0.0,454.467,0.889439,1.01741,0.0,4,0.0,0.0,0.0,0.0,0.0,0,0,0,0,0,1,1,0,0,0
20491074,16.5336,16.4949,92.4415,92.4472,0.0,454.775,0.88952,1.0174,0.0,4,0.0,0.0,0.0,0.0,0.0,0,0,0,0,0,1,1,0,0,0
20503066,16.6485,16.4964,92.4708,92.4477,0.0,455.083,0.890041,1.01731,0.0,4,0.0,0.0,0.0,0.0,0.0,0,0,0,0,0,1,1,0,0,0
20515062,16.4697,16.4962,92.4122,92.447,0.0,455.391,0.889871,1.01734,0.0,4,0.0,0.0,0.0,0.0,0.0,0,0,0,0,0,1,1,0,0,0
20527868,16.6612,16.4978,92.4708,92.4475,0.0,455.72,0.890439,1.01725,0.0,4,0.0,0.0,0.0,0.0,0.0,0,0,0,0,0,1,1,0,0,0
20539861,16.6357,16.4992,92.4415,92.4473,0.0,456.028,0.890903,1.01717,0.0,4,0.0,0.0,0.0,0.0,0.0,0,0,0,0,0,1,1,0,0,0
20551855,16.2272,16.4965,92.4708,92.4478,0.0,456.336,0.889791,1.01735,0.0,4,0.0,0.0,0.0,0.0,0.0,0,0,0,0,0,1,1,0,0,0
20563866,16.6229,16.4977,92.4708,92.4483,0.0,456.645,0.890212,1.01728,0.0,4,0.0,0.0,0.0,0.0,0.0,0,0,0,0,0,1,1,0,0,0
20575855,16.6357,16.4991,92.5001,92.4493,0.0,456.953,0.890678,1.01721,0.0,4,0.0,0.0,0.0,0.0,0.0,0,0,0,0,0,1,1,0,0,0
20671856,16.6485,16.4982,92.4708,92.4504,0.0,459.419,0.889848,1.01734,0.0,4,0.0,0.0,0.0,0.0,0.0,0,0,0,0,0,1,1,0,0,0
20683861,16.4825,16.4981,92.4708,92.4508,0.0,459.727,0.889729,1.01736,0.0,4,0.0,0.0,0.0,0.0,0.0,0,0,0,0,0,1,1,0,0,0
20695863,16.4825,16.4979,92.4708,92.4512,0.0,460.035,0.889611,1.01738,0.0,4,0.0,0.0,0.0,0.0,0.0,0,0,0,0,0,1,1,0,0,0
20707860,16.6357,16.4993,92.4122,92.4504,0.0,460.343,0.890082,1.01731,0.0,4,0.0,0.0,0.0,0.0,0.0,0,0,0,0,0,1,1,0,0,0
20719856,16.4825,16.4991,92.4122,92.4497,0.0,460.651,0.889961,1.01732,0.0,4,0.0,0.0,0.0,0.0,0.0,0,0,0,0,0,1,1,0,0,0
20731861,16.457,16.4987,92.4708,92.4501,0.0,460.959,0.889741,1.01736,0.0,4,0.0,0.0,0.0,0.0,0.0,0,0,0,0,0,1,1,0,0,0
20743869,16.6996,16.5007,92.3829,92.4488,0.0,461.268,0.890458,1.01725,0.0,4,0.0,0.0,0.0,0.0,0.0,0,0,0,0,0,1,1,0,0,0
20756681,16.508,16.5008,92.4122,92.448,0.0,461.596,0.89043,1.01725,0.0,4,0.0,0.0,0.0,0.0,0.0,0,0,0,0,0,1,1,0,0,0
20768660,16.4825,16.5006,92.4708,92.4485,0.0,461.904,0.890305,1.01727,0.0,4,0.0,0.0,0.0,0.0,0.0,0,0,0,0,0,1,1,0,0,0
20780666,16.3931,16.4995,92.4708,92.4489,0.0,462.213,0.889837,1.01734,0.0,4,0.0,0.0,0.0,0.0,0.0,0,0,0,0,0,1,1,0,0,0
20792655,16.6868,16.5014,92.4708,92.4494,0.0,462.521,0.890503,1.01724,0.0,4,0.0,0.0,0.0,0.0,0.0,0,0,0,0,0,1,1,0,0,0
20804658,16.4825,16.5012,92.4122,92.4486,0.0,462.829,0.890378,1.01726,0.0,4,0.0,0.0,0.0,0.0,0.0,0,0,0,0,0,1,1,0,0,0
20816713,16.4442,16.5007,92.4415,92.4485,0.0,463.138,0.890105,1.0173,0.0,4,0.0,0.0,0.0,0.0,0.0,0,0,0,0,0,1,1,0,0,0
20828678,16.4953,16.5006,92.4122,92.4478,0.0,463.445,0.890033,1.01731,0.0,4,0.0,0.0,0.0,0.0,0.0,0,0,0,0,0,1,1,0,0,0
20840661,16.508,16.5007,92.4708,92.4482,0.0,463.753,0.890009,1.01732,0.0,4,0.0,0.0,0.0,0.0,0.0,0,0,0,0,0,1,1,0,0,0
20852661,16.6357,16.502,92.4415,92.4481,0.0,464.061,0.890477,1.01724,0.0,4,0.0,0.0,0.0,0.0,0.0,0,0,0,0,0,1,1,0,0,0
20864721,16.4442,16.5014,92.5001,92.4492,0.0,464.371,0.890204,1.01729,0.0,4,0.0,0.0,0.0,0.0,0.0,0,0,0,0,0,1,1,0,0,0
20876673,16.4187,16.5006,92.4708,92.4496,0.0,464.678,0.889835,1.01735,0.0,4,0.0,0.0,0.0,0.0,0.0,0,0,0,0,0,1,1,0,0,0
20888681,16.6485,16.5021,92.4122,92.4488,0.0,464.986,0.890354,1.01726,0.0,4,0.0,0.0,0.0,0.0,0.0,0,0,0,0,0,1,1,0,0,0
20900677,16.4825,16.5019,92.4415,92.4487,0.0,465.294,0.890229,1.01728,0.0,4,0.0,0.0,0.0,0.0,0.0,0,0,0,0,0,1,1,0,0,0
20912665,16.6996,16.5039,92.4708,92.4491,0.0,465.602,0.89094,1.01717,0.0,4,0.0,0.0,0.0,0.0,0.0,0,0,0,0,0,1,1,0,0,0
20924654,16.5208,16.504,92.4122,92.4484,0.0,465.91,0.890958,1.01717,0.0,4,0.0,0.0,0.0,0.0,0.0,0,0,0,0,0,1,1,0,0,0
20936657,16.3038,16.502,92.4415,92.4483,0.0,466.218,0.890139,1.0173,0.0,4,0.0,0.0,0.0,0.0,0.0,0,0,0,0,0,1,1,0,0,0
20949460,16.5463,16.5025,92.5001,92.4493,0.0,466.547,0.890262,1.01728,0.0,4,0.0,0.0,0.0,0.0,0.0,0,0,0,0,0,1,1,0,0,0
20961458,16.457,16.502,92.4708,92.4497,0.0,466.856,0.89004,1.01731,0.0,4,0.0,0.0,0.0,0.0,0.0,0,0,0,0,0,1,1,0,0,0
20973464,16.4442,16.5015,92.5001,92.4507,0.0,467.164,0.889771,1.01736,0.0,4,0.0,0.0,0.0,0.0,0.0,0,0,0,0,0,1,1,0,0,0
20985467,16.4697,16.5011,92.4415,92.4506,0.0,467.472,0.889604,1.01738,0.0,4,0.0,0.0,0.0,0.0,0.0,0,0,0,0,0,1,1,0,0,0
20997463,16.508,16.5012,92.4122,92.4498,0.0,467.78,0.889585,1.01739,0.0,4,0.0,0.0,0.0,0.0,0.0,0,0,0,0,0,1,1,0,0,0
21009467,16.4442,16.5006,92.4708,92.4502,0.0,468.089,0.889319,1.01743,0.0,4,0.0,0.0,0.0,0.0,0.0,0,0,0,0,0,1,1,0,0,0
21021456,16.3421,16.4991,92.4415,92.45,0.0,468.396,0.888666,1.01753,0.0,4,0.0,0.0,0.0,0.0,0.0,0,0,0,0,0,1,1,0,0,0
21033457,16.3293,16.4974,92.4708,92.4505,0.0,468.705,0.887968,1.01764,0.0,4,0.0,0.0,0.0,0.0,0.0,0,0,0,0,0,1,1,0,0,0
21045468,16.4697,16.4971,92.4122,92.4497,0.0,469.013,0.887818,1.01767,0.0,4,0.0,0.0,0.0,0.0,0.0,0,0,0,0,0,1,1,0,0,0
21057460,16.5719,16.4978,92.5001,92.4507,0.0,469.321,0.888063,1.01763,0.0,4,0.0,0.0,0.0,0.0,0.0,0,0,0,0,0,1,1,0,0,0
21117469,16.4697,16.4989,92.4708,92.4527,0.0,470.863,0.888273,1.0176,0.0,4,0.0,0.0,0.0,0.0,0.0,0,0,0,0,0,1,1,0,0,0
21129468,16.6485,16.5004,92.4122,92.4519,0.0,471.171,0.888807,1.01751,0.0,4,0.0,0.0,0.0,0.0,0.0,0,0,0,0,0,1,1,0,0,0
21142288,16.6229,16.5016,92.4415,92.4517,0.0,471.5,0.889238,1.01744,0.0,4,0.0,0.0,0.0,0.0,0.0,0,0,0,0,0,1,1,0,0,0
21154265,16.6996,16.5036,92.4122,92.4509,0.0,471.807,0.88996,1.01733,0.0,4,0.0,0.0,0.0,0.0,0.0,0,0,0,0,0,1,1,0,0,0
21166265,16.4697,16.5033,92.4122,92.4501,0.0,472.115,0.88979,1.01735,0.0,4,0.0,0.0,0.0,0.0,0.0,0,0,0,0,0,1,1,0,0,0
21178263,16.5463,16.5037,92.4708,92.4505,0.0,472.423,0.889916,1.01733,0.0,4,0.0,0.0,0.0,0.0,0.0,0,0,0,0,0,1,1,0,0,0
21190261,16.4059,16.5027,92.4708,92.4509,0.0,472.732,0.889502,1.0174,0.0,4,0.0,0.0,0.0,0.0,0.0,0,0,0,0,0,1,1,0,0,0
21202261,16.291,16.5006,92.4708,92.4513,0.0,473.04,0.888648,1.01754,0.0,4,0.0,0.0,0.0,0.0,0.0,0,0,0,0,0,1,1,0,0,0
21214267,16.674,16.5023,92.4708,92.4517,0.0,473.348,0.889277,1.01743,0.0,4,0.0,0.0,0.0,0.0,0.0,0,0,0,0,0,1,1,0,0,0
21226293,16.3931,16.5013,92.4415,92.4515,0.0,473.657,0.88882,1.01751,0.0,4,0.0,0.0,0.0,0.0,0.0,0,0,0,0,0,1,1,0,0,0
21238278,16.4825,16.5011,92.4122,92.4507,0.0,473.965,0.888711,1.01753,0.0,4,0.0,0.0,0.0,0.0,0.0,0,0,0,0,0,1,1,0,0,0
21250273,16.3293,16.4994,92.4122,92.4499,0.0,474.273,0.888014,1.01764,0.0,4,0.0,0.0,0.0,0.0,0.0,0,0,0,0,0,1,1,0,0,0
21262272,16.5846,16.5002,92.4122,92.4492,0.0,474.581,0.888306,1.01759,0.0,4,0.0,0.0,0.0,0.0,0.0,0,0,0,0,0,1,1,0,0,0
21274259,16.4825,16.5,92.4708,92.4496,0.0,474.889,0.888201,1.01761,0.0,4,0.0,0.0,0.0,0.0,0.0,0,0,0,0,0,1,1,0,0,0
21286262,16.5719,16.5007,92.4708,92.4501,0.0,475.197,0.888442,1.01757,0.0,4,0.0,0.0,0.0,0.0,0.0,0,0,0,0,0,1,1,0,0,0
21298262,16.291,16.4986,92.5001,92.451,0.0,475.505,0.8876,1.0177,0.0,4,0.0,0.0,0.0,0.0,0.0,0,0,0,0,0,1,1,0,0,0
21310285,16.6485,16.5001,92.4122,92.4503,0.0,475.814,0.888141,1.01762,0.0,4,0.0,0.0,0.0,0.0,0.0,0,0,0,0,0,1,1,0,0,0
21347064,16.508,16.4962,92.4708,92.4503,0.0,476.758,0.886531,1.01787,0.0,4,0.0,0.0,0.0,0.0,0.0,0,0,0,0,0,1,1,0,0,0
21359070,16.6102,16.4974,92.4122,92.4496,0.0,477.067,0.886936,1.01781,0.0,4,0.0,0.0,0.0,0.0,0.0,0,0,0,0,0,1,1,0,0,0
21371050,16.4825,16.4972,92.4122,92.4488,0.0,477.374,0.886846,1.01782,0.0,4,0.0,0.0,0.0,0.0,0.0,0,0,0,0,0,1,1,0,0,0
21383060,16.4442,16.4967,92.4122,92.4481,0.0,477.682,0.886609,1.01786,0.0,4,0.0,0.0,0.0,0.0,0.0,0,0,0,0,0,1,1,0,0,0
21395060,16.6485,16.4982,92.4415,92.448,0.0,477.99,0.88716,1.01777,0.0,4,0.0,0.0,0.0,0.0,0.0,0,0,0,0,0,1,1,0,0,0
21407073,16.4825,16.4981,92.4708,92.4484,0.0,478.299,0.887067,1.01779,0.0,4,0.0,0.0,0.0,0.0,0.0,0,0,0,0,0,1,1,0,0,0
21419070,16.4953,16.498,92.4122,92.4477,0.0,478.607,0.887025,1.0178,0.0,4,0.0,0.0,0.0,0.0,0.0,0,0,0,0,0,1,1,0,0,0
21431065,16.5336,16.4984,92.4122,92.447,0.0,478.915,0.88713,1.01778,0.0,4,0.0,0.0,0.0,0.0,0.0,0,0,0,0,0,1,1,0,0,0
21443071,16.4697,16.4981,92.4708,92.4475,0.0,479.223,0.886989,1.0178,0.0,4,0.0,0.0,0.0,0.0,0.0,0,0,0,0,0,1,1,0,0,0
21455054,16.6485,16.4996,92.4122,92.4468,0.0,479.531,0.887536,1.01771,0.0,4,0.0,0.0,0.0,0.0,0.0,0,0,0,0,0,1,1,0,0,0
21467055,16.5336,16.4999,92.5001,92.4478,0.0,479.839,0.887637,1.0177,0.0,4,0.0,0.0,0.0,0.0,0.0,0,0,0,0,0,1,1,0,0,0
21479068,16.3804,16.4987,92.4708,92.4483,0.0,480.148,0.887146,1.01778,0.0,4,0.0,0.0,0.0,0.0,0.0,0,0,0,0,0,1,1,0,0,0
21491074,16.6229,16.5,92.4708,92.4487,0.0,480.456,0.887593,1.0177,0.0,4,0.0,0.0,0.0,0.0,0.0,0,0,0,0,0,1,1,0,0,0
21503073,16.6612,16.5016,92.4122,92.448,0.0,480.764,0.888184,1.01761,0.0,4,0.0,0.0,0.0,0.0,0.0,0,0,0,0,0,1,1,0,0,0
21515858,16.5974,16.5026,92.4708,92.4485,0.0,481.093,0.888523,1.01756,0.0,4,0.0,0.0,0.0,0.0,0.0,0,0,0,0,0,1,1,0,0,0
21587866,16.2527,16.5005,92.4415,92.4504,0.0,482.942,0.887574,1.01771,0.0,4,0.0,0.0,0.0,0.0,0.0,0,0,0,0,0,1,1,0,0,0
21599855,16.4825,16.5004,92.4122,92.4497,0.0,483.25,0.887477,1.01772,0.0,4,0.0,0.0,0.0,0.0,0.0,0,0,0,0,0,1,1,0,0,0
21611857,16.4953,16.5003,92.4415,92.4495,0.0,483.558,0.887431,1.01773,0.0,4,0.0,0.0,0.0,0.0,0.0,0,0,0,0,0,1,1,0,0,0
21623859,16.6485,16.5018,92.4415,92.4494,0.0,483.866,0.887973,1.01764,0.0,4,0.0,0.0,0.0,0.0,0.0,0,0,0,0,0,1,1,0,0,0
21635860,16.4697,16.5015,92.4415,92.4492,0.0,484.174,0.887824,1.01767,0.0,4,0.0,0.0,0.0,0.0,0.0,0,0,0,0,0,1,1,0,0,0
21647867,16.5336,16.5018,92.4708,92.4496,0.0,484.483,0.88792,1.01765,0.0,4,0.0,0.0,0.0,0.0,0.0,0,0,0,0,0,1,1,0,0,0
21659857,16.6996,16.5038,92.4415,92.4495,0.0,484.791,0.888655,1.01753,0.0,4,0.0,0.0,0.0,0.0,0.0,0,0,0,0,0,1,1,0,0,0
21671861,16.6485,16.5052,92.4122,92.4487,0.0,485.099,0.889186,1.01745,0.0,4,0.0,0.0,0.0,0.0,0.0,0,0,0,0,0,1,1,0,0,0
21683863,16.3165,16.5033,92.4415,92.4486,0.0,485.407,0.888435,1.01757,0.0,4,0.0,0.0,0.0,0.0,0.0,0,0,0,0,0,1,1,0,0,0
21695865,16.5591,16.5039,92.4122,92.4479,0.0,485.715,0.888624,1.01754,0.0,4,0.0,0.0,0.0,0.0,0.0,0,0,0,0,0,1,1,0,0,0
21707874,16.674,16.5056,92.4708,92.4483,0.0,486.024,0.889254,1.01744,0.0,4,0.0,0.0,0.0,0.0,0.0,0,0,0,0,0,1,1,0,0,0
21720654,16.6612,16.5071,92.5001,92.4494,0.0,486.352,0.889827,1.01735,0.0,4,0.0,0.0,0.0,0.0,0.0,0,0,0,0,0,1,1,0,0,0
21732655,16.4953,16.507,92.5001,92.4504,0.0,486.66,0.889757,1.01736,0.0,4,0.0,0.0,0.0,0.0,0.0,0,0,0,0,0,1,1,0,0,0
21744671,16.6229,16.5082,92.5001,92.4514,0.0,486.969,0.890179,1.01729,0.0,4,0.0,0.0,0.0,0.0,0.0,0,0,0,0,0,1,1,0,0,0
21756703,16.457,16.5077,92.5001,92.4524,0.0,487.278,0.889958,1.01733,0.0,4,0.0,0.0,0.0,0.0,0.0,0,0,0,0,0,1,1,0,0,0
21768690,16.4825,16.5074,92.4708,92.4527,0.0,487.586,0.889837,1.01734,0.0,4,0.0,0.0,0.0,0.0,0.0,0,0,0,0,0,1,1,0,0,0
21780669,16.4187,16.5065,92.5001,92.4537,0.0,487.894,0.889472,1.0174,0.0,4,0.0,0.0,0.0,0.0,0.0,0,0,0,0,0,1,1,0,0,0
21804665,16.3676,16.5065,92.4122,92.4526,0.0,488.51,0.889432,1.01741,0.0,4,0.0,0.0,0.0,0.0,0.0,0,0,0,0,0,1,1,0,0,0
21816672,16.3931,16.5054,92.5001,92.4536,0.0,488.819,0.888972,1.01748,0.0,4,0.0,0.0,0.0,0.0,0.0,0,0,0,0,0,1,1,0,0,0
21828768,16.5846,16.5062,92.3829,92.4521,0.0,489.129,0.889254,1.01744,0.0,4,0.0,0.0,0.0,0.0,0.0,0,0,0,0,0,1,1,0,0,0
21840654,16.4953,16.5061,92.4415,92.4519,0.0,489.434,0.88919,1.01745,0.0,4,0.0,0.0,0.0,0.0,0.0,0,0,0,0,0,1,1,0,0,0
21852666,16.4825,16.5059,92.4415,92.4517,0.0,489.743,0.889076,1.01747,0.0,4,0.0,0.0,0.0,0.0,0.0,0,0,0,0,0,1,1,0,0,0
21864662,16.6229,16.507,92.4415,92.4515,0.0,490.051,0.889504,1.0174,0.0,4,0.0,0.0,0.0,0.0,0.0,0,0,0,0,0,1,1,0,0,0
21876690,16.291,16.5049,92.3829,92.4501,0.0,490.359,0.888651,1.01753,0.0,4,0.0,0.0,0.0,0.0,0.0,0,0,0,0,0,1,1,0,0,0
21888665,16.4697,16.5045,92.5001,92.4511,0.0,490.667,0.888495,1.01756,0.0,4,0.0,0.0,0.0,0.0,0.0,0,0,0,0,0,1,1,0,0,0
21900679,16.457,16.504,92.4122,92.4504,0.0,490.975,0.888291,1.01759,0.0,4,0.0,0.0,0.0,0.0,0.0,0,0,0,0,0,1,1,0,0,0
21912667,16.4697,16.5037,92.4122,92.4496,0.0,491.283,0.888138,1.01762,0.0,4,0.0,0.0,0.0,0.0,0.0,0,0,0,0,0,1,1,0,0,0
21925474,16.5463,16.5041,92.4415,92.4494,0.0,491.612,0.888281,1.01759,0.0,4,0.0,0.0,0.0,0.0,0.0,0,0,0,0,0,1,1,0,0,0
21937458,16.457,16.5037,92.4708,92.4499,0.0,491.92,0.888079,1.01763,0.0,4,0.0,0.0,0.0,0.0,0.0,0,0,0,0,0,1,1,0,0,0
21949457,16.5463,16.5041,92.4415,92.4497,0.0,492.228,0.888223,1.0176,0.0,4,0.0,0.0,0.0,0.0,0.0,0,0,0,0,0,1,1,0,0,0
21961473,16.4697,16.5037,92.4415,92.4495,0.0,492.536,0.88807,1.01763,0.0,4,0.0,0.0,0.0,0.0,0.0,0,0,0,0,0,1,1,0,0,0
21973461,16.4953,16.5037,92.4708,92.45,0.0,492.844,0.888018,1.01764,0.0,4,0.0,0.0,0.0,0.0,0.0,0,0,0,0,0,1,1,0,0,0
22045451,16.2272,16.5073,92.4708,92.4507,0.0,494.693,0.889306,1.01743,0.0,4,0.0,0.0,0.0,0.0,0.0,0,0,0,0,0,1,1,0,0,0
22057467,16.5974,16.5082,92.4415,92.4506,0.0,495.002,0.889634,1.01738,0.0,4,0.0,0.0,0.0,0.0,0.0,0,0,0,0,0,1,1,0,0,0
22069462,16.6485,16.5096,92.4415,92.4504,0.0,495.31,0.890155,1.01729,0.0,4,0.0,0.0,0.0,0.0,0.0,0,0,0,0,0,1,1,0,0,0
22081464,16.4697,16.5092,92.4122,92.4496,0.0,495.618,0.889983,1.01732,0.0,4,0.0,0.0,0.0,0.0,0.0,0,0,0,0,0,1,1,0,0,0
22093466,16.6485,16.5106,92.4415,92.4494,0.0,495.926,0.890501,1.01724,0.0,4,0.0,0.0,0.0,0.0,0.0,0,0,0,0,0,1,1,0,0,0
22105491,16.6612,16.5121,92.4415,92.4493,0.0,496.235,0.891062,1.01715,0.0,4,0.0,0.0,0.0,0.0,0.0,0,0,0,0,0,1,1,0,0,0
22118276,16.6102,16.5131,92.4122,92.4485,0.0,496.563,0.891421,1.01709,0.0,4,0.0,0.0,0.0,0.0,0.0,0,0,0,0,0,1,1,0,0,0
22130271,16.6612,16.5146,92.4122,92.4478,0.0,496.871,0.891973,1.017,0.0,4,0.0,0.0,0.0,0.0,0.0,0,0,0,0,0,1,1,0,0,0
22142268,16.4825,16.5143,92.4708,92.4483,0.0,497.179,0.891833,1.01703,0.0,4,0.0,0.0,0.0,0.0,0.0,0,0,0,0,0,1,1,0,0,0
22154276,16.5208,16.5143,92.4708,92.4487,0.0,497.488,0.89184,1.01702,0.0,4,0.0,0.0,0.0,0.0,0.0,0,0,0,0,0,1,1,0,0,0
22166265,16.4825,16.514,92.4415,92.4486,0.0,497.796,0.891701,1.01705,0.0,4,0.0,0.0,0.0,0.0,0.0,0,0,0,0,0,1,1,0,0,0
22178283,16.457,16.5134,92.4708,92.449,0.0,498.104,0.891464,1.01708,0.0,4,0.0,0.0,0.0,0.0,0.0,0,0,0,0,0,1,1,0,0,0
22190262,16.5208,16.5135,92.4708,92.4495,0.0,498.412,0.891476,1.01708,0.0,4,0.0,0.0,0.0,0.0,0.0,0,0,0,0,0,1,1,0,0,0
22202259,16.4825,16.5132,92.4708,92.4499,0.0,498.72,0.891341,1.0171,0.0,4,0.0,0.0,0.0,0.0,0.0,0,0,0,0,0,1,1,0,0,0
22214259,16.6868,16.5149,92.4122,92.4491,0.0,499.028,0.891991,1.017,0.0,4,0.0,0.0,0.0,0.0,0.0,0,0,0,0,0,1,1,0,0,0
22226285,16.5208,16.515,92.4708,92.4496,0.0,499.337,0.891998,1.017,0.0,4,0.0,0.0,0.0,0.0,0.0,0,0,0,0,0,1,1,0,0,0
22238280,16.508,16.5149,92.4415,92.4494,0.0,499.645,0.891955,1.01701,0.0,4,0.0,0.0,0.0,0.0,0.0,0,0,0,0,0,1,1,0,0,0
22250274,16.5336,16.5151,92.4122,92.4487,0.0,499.953,0.892011,1.017,0.0,4,0.0,0.0,0.0,0.0,0.0,0,0,0,0,0,1,1,0,0,0
22262282,16.3931,16.5139,92.4122,92.4479,0.0,500.261,0.891527,1.01707,0.0,4,0.0,0.0,0.0,0.0,0.0,0,0,0,0,0,1,1,0,0,0
22274263,16.3931,16.5127,92.4708,92.4484,0.0,500.569,0.891047,1.01715,0.0,4,0.0,0.0,0.0,0.0,0.0,0,0,0,0,0,1,1,0,0,0
22286261,16.4697,16.5123,92.4708,92.4489,0.0,500.877,0.890866,1.01718,0.0,4,0.0,0.0,0.0,0.0,0.0,0,0,0,0,0,1,1,0,0,0
22298258,16.4825,16.512,92.4415,92.4487,0.0,501.185,0.890736,1.0172,0.0,4,0.0,0.0,0.0,0.0,0.0,0,0,0,0,0,1,1,0,0,0
22311077,16.4442,16.5113,92.4708,92.4492,0.0,501.514,0.89046,1.01724,0.0,4,0.0,0.0,0.0,0.0,0.0,0,0,0,0,0,1,1,0,0,0
22323077,16.674,16.5129,92.5001,92.4502,0.0,501.823,0.891071,1.01715,0.0,4,0.0,0.0,0.0,0.0,0.0,0,0,0,0,0,1,1,0,0,0
22335065,16.4697,16.5125,92.4708,92.4506,0.0,502.131,0.890891,1.01718,0.0,4,0.0,0.0,0.0,0.0,0.0,0,0,0,0,0,1,1,0,0,0
22347062,16.4697,16.512,92.4708,92.451,0.0,502.439,0.890711,1.0172,0.0,4,0.0,0.0,0.0,0.0,0.0,0,0,0,0,0,1,1,0,0,0
22359057,16.5591,16.5125,92.3829,92.4496,0.0,502.747,0.890878,1.01718,0.0,4,0.0,0.0,0.0,0.0,0.0,0,0,0,0,0,1,1,0,0,0
22371065,16.457,16.512,92.5001,92.4506,0.0,503.055,0.89065,1.01721,0.0,4,0.0,0.0,0.0,0.0,0.0,0,0,0,0,0,1,1,0,0,0
22383061,16.4314,16.5112,92.4415,92.4505,0.0,503.363,0.890326,1.01727,0.0,4,0.0,0.0,0.0,0.0,0.0,0,0,0,0,0,1,1,0,0,0
22395073,16.4953,16.511,92.4708,92.4509,0.0,503.672,0.890251,1.01728,0.0,4,0.0,0.0,0.0,0.0,0.0,0,0,0,0,0,1,1,0,0,0
22407058,16.6612,16.5125,92.3829,92.4495,0.0,503.979,0.890815,1.01719,0.0,4,0.0,0.0,0.0,0.0,0.0,0,0,0,0,0,1,1,0,0,0
22419066,16.4825,16.5122,92.4708,92.4499,0.0,504.288,0.890686,1.01721,0.0,4,0.0,0.0,0.0,0.0,0.0,0,0,0,0,0,1,1,0,0,0
22431061,16.508,16.5122,92.4122,92.4492,0.0,504.596,0.890656,1.01721,0.0,4,0.0,0.0,0.0,0.0,0.0,0,0,0,0,0,1,1,0,0,0
22503872,16.4187,16.508,92.5001,92.4528,0.0,506.466,0.888976,1.01748,0.0,4,0.0,0.0,0.0,0.0,0.0,0,0,0,0,0,1,1,0,0,0
22515860,16.3676,16.5066,92.4415,92.4526,0.0,506.774,0.888423,1.01757,0.0,4,0.0,0.0,0.0,0.0,0.0,0,0,0,0,0,1,1,0,0,0
22527872,16.2527,16.5041,92.5001,92.4535,0.0,507.083,0.887434,1.01773,0.0,4,0.0,0.0,0.0,0.0,0.0,0,0,0,0,0,1,1,0,0,0
22539876,16.4697,16.5037,92.4415,92.4533,0.0,507.391,0.887289,1.01775,0.0,4,0.0,0.0,0.0,0.0,0.0,0,0,0,0,0,1,1,0,0,0
22551869,16.4825,16.5035,92.4415,92.453,0.0,507.699,0.887195,1.01777,0.0,4,0.0,0.0,0.0,0.0,0.0,0,0,0,0,0,1,1,0,0,0
22563865,16.674,16.5052,92.5294,92.4546,0.0,508.007,0.887839,1.01766,0.0,4,0.0,0.0,0.0,0.0,0.0,0,0,0,0,0,1,1,0,0,0
22575856,16.4825,16.505,92.4122,92.4537,0.0,508.315,0.887739,1.01768,0.0,4,0.0,0.0,0.0,0.0,0.0,0,0,0,0,0,1,1,0,0,0
22587860,16.3038,16.503,92.5001,92.4547,0.0,508.623,0.886954,1.01781,0.0,4,0.0,0.0,0.0,0.0,0.0,0,0,0,0,0,1,1,0,0,0
22599858,16.6485,16.5044,92.4122,92.4538,0.0,508.931,0.887501,1.01772,0.0,4,0.0,0.0,0.0,0.0,0.0,0,0,0,0,0,1,1,0,0,0
22611857,16.6229,16.5056,92.5001,92.4547,0.0,509.24,0.887945,1.01765,0.0,4,0.0,0.0,0.0,0.0,0.0,0,0,0,0,0,1,1,0,0,0
22623879,16.4059,16.5046,92.4122,92.4539,0.0,509.548,0.887549,1.01771,0.0,4,0.0,0.0,0.0,0.0,0.0,0,0,0,0,0,1,1,0,0,0
22635866,16.6485,16.5061,92.4708,92.4542,0.0,509.856,0.888091,1.01762,0.0,4,0.0,0.0,0.0,0.0,0.0,0,0,0,0,0,1,1,0,0,0
22647863,16.4953,16.5059,92.4415,92.454,0.0,510.164,0.888039,1.01763,0.0,4,0.0,0.0,0.0,0.0,0.0,0,0,0,0,0,1,1,0,0,0
22659868,16.6485,16.5074,92.4415,92.4537,0.0,510.473,0.888575,1.01755,0.0,4,0.0,0.0,0.0,0.0,0.0,0,0,0,0,0,1,1,0,0,0
22671876,16.6485,16.5088,92.4708,92.4541,0.0,510.781,0.889107,1.01746,0.0,4,0.0,0.0,0.0,0.0,0.0,0,0,0,0,0,1,1,0,0,0
22683869,16.6357,16.51,92.4415,92.4538,0.0,511.089,0.889585,1.01739,0.0,4,0.0,0.0,0.0,0.0,0.0,0,0,0,0,0,1,1,0,0,0
22695865,16.6229,16.5112,92.5001,92.4548,0.0,511.397,0.890007,1.01732,0.0,4,0.0,0.0,0.0,0.0,0.0,0,0,0,0,0,1,1,0,0,0
22732670,16.291,16.5075,92.4415,92.454,0.0,512.342,0.88857,1.01755,0.0,4,0.0,0.0,0.0,0.0,0.0,0,0,0,0,0,1,1,0,0,0
22744654,16.5208,16.5077,92.4415,92.4537,0.0,512.65,0.888612,1.01754,0.0,4,0.0,0.0,0.0,0.0,0.0,0,0,0,0,0,1,1,0,0,0
22756719,16.508,16.5077,92.5001,92.4547,0.0,512.96,0.888603,1.01754,0.0,4,0.0,0.0,0.0,0.0,0.0,0,0,0,0,0,1,1,0,0,0
22768668,16.6485,16.5091,92.4415,92.4544,0.0,513.267,0.889134,1.01746,0.0,4,0.0,0.0,0.0,0.0,0.0,0,0,0,0,0,1,1,0,0,0
22780666,16.4697,16.5087,92.4708,92.4547,0.0,513.575,0.888972,1.01748,0.0,4,0.0,0.0,0.0,0.0,0.0,0,0,0,0,0,1,1,0,0,0
22792672,16.4825,16.5084,92.4708,92.455,0.0,513.883,0.888862,1.0175,0.0,4,0.0,0.0,0.0,0.0,0.0,0,0,0,0,0,1,1,0,0,0
22804713,16.6612,16.5099,92.4122,92.4542,0.0,514.192,0.889439,1.01741,0.0,4,0.0,0.0,0.0,0.0,0.0,0,0,0,0,0,1,1,0,0,0
22816669,16.5463,16.5103,92.4708,92.4545,0.0,514.5,0.889569,1.01739,0.0,4,0.0,0.0,0.0,0.0,0.0,0,0,0,0,0,1,1,0,0,0
22828661,16.674,16.5119,92.4708,92.4548,0.0,514.808,0.890189,1.01729,0.0,4,0.0,0.0,0.0,0.0,0.0,0,0,0,0,0,1,1,0,0,0
22840702,16.508,16.5119,92.4122,92.454,0.0,515.117,0.890164,1.01729,0.0,4,0.0,0.0,0.0,0.0,0.0,0,0,0,0,0,1,1,0,0,0
22852657,16.4059,16.5108,92.4708,92.4543,0.0,515.424,0.889747,1.01736,0.0,4,0.0,0.0,0.0,0.0,0.0,0,0,0,0,0,1,1,0,0,0
22864698,16.3804,16.5095,92.4122,92.4535,0.0,515.733,0.889235,1.01744,0.0,4,0.0,0.0,0.0,0.0,0.0,0,0,0,0,0,1,1,0,0,0
