timestamp,indicated_airspeed_m_s,equivalent_airspeed_m_s,true_airspeed_m_s,equivalent_ground_minus_wind_m_s,true_ground_minus_wind_m_s,airspeed_sensor_measurement_valid,selected_airspeed_index
1925591062,2.33172,2.33172,2.42092,0.28181,0.301405,1,1
1925691029,2.07823,2.07823,2.15782,0.281804,0.301393,1,1
1926091036,2.04023,2.04023,2.11841,0.282111,0.301729,1,1
1926491016,2.03335,2.03335,2.11131,0.281301,0.300867,1,1
1926591024,1.92355,1.92355,1.99718,0.281242,0.300805,1,1
1926791038,2.25395,2.25395,2.34033,0.280943,0.300483,1,1
1926891048,2.51596,2.51596,2.61229,0.281302,0.300866,1,1
1927391604,2.431,2.431,2.52408,0.283986,0.303739,1,1
1927491643,2.21705,2.21705,2.30205,0.284014,0.303765,1,1
1927891219,2.16265,2.16265,2.24547,0.282629,0.302289,1,1
1928291224,2.14849,2.14849,2.23086,0.284273,0.30405,1,1
1928791024,1.82813,1.82813,1.89814,0.286042,0.305944,1,1
1928891021,1.88766,1.88766,1.95995,0.286366,0.306295,1,1
1929291031,2.36526,2.36526,2.45579,0.287827,0.307858,1,1
1929691030,1.71197,1.71197,1.77758,0.288174,0.308226,1,1
1931191018,2.16774,2.16774,2.25067,0.285389,0.305254,1,1
1931291026,2.19329,2.19329,2.27718,0.285131,0.30498,1,1
1931691016,1.8866,1.8866,1.95881,0.28613,0.306057,1,1
1932091016,1.99056,1.99056,2.06686,0.286853,0.306828,1,1
1932191032,1.9942,1.9942,2.07082,0.287279,0.307283,1,1
1932591017,2.11318,2.11318,2.19411,0.286603,0.306563,1,1
1932991019,1.76991,1.76991,1.8377,0.287342,0.307354,1,1
1933491076,2.20454,2.20454,2.28944,0.28716,0.307167,1,1
1933891476,2.268,2.268,2.35522,0.286957,0.306958,1,1
1934391080,2.02501,2.02501,2.10258,0.287967,0.308038,1,1
1934491223,2.00592,2.00592,2.08276,0.287968,0.308041,1,1
1934891018,1.70121,1.70121,1.76638,0.287791,0.307854,1,1
1935291018,2.03011,2.03011,2.10788,0.288967,0.309114,1,1
1935791018,2.06885,2.06885,2.14845,0.288181,0.308279,1,1
1935891017,1.83506,1.83506,1.90568,0.287673,0.307738,1,1
1936191016,1.6866,1.6866,1.75147,0.286551,0.306538,1,1
1936691016,2.11954,2.11954,2.20105,0.28417,0.303987,1,1
1936791016,2.38391,2.38391,2.47561,0.283557,0.303337,1,1
1937191016,2.27367,2.27367,2.36109,0.28136,0.300988,1,1
1937591018,2.34418,2.34418,2.43438,0.280152,0.299704,1,1
1937691018,2.32257,2.32257,2.41181,0.279661,0.299178,1,1
1938091072,2.19035,2.19035,2.27461,0.278794,0.298252,1,1
1938191019,1.94502,1.94502,2.01981,0.27839,0.297822,1,1
1938591017,1.77608,1.77608,1.84435,0.277441,0.296807,1,1
1938991020,2.22678,2.22678,2.31241,0.275145,0.294354,1,1
1939091049,2.27922,2.27922,2.36689,0.274659,0.293834,1,1
1939491018,2.1662,2.1662,2.24959,0.272235,0.291244,1,1
1939591016,2.16968,2.16968,2.25277,0.272017,0.291017,1,1
1939891810,1.92677,1.92677,2.00053,0.270696,0.289599,1,1
1940391170,2.81561,2.81561,2.92391,0.266359,0.284968,1,1
1940491153,3.08568,3.08568,3.2037,0.265469,0.284013,1,1
1940791130,3.64699,3.64699,3.78724,0.263377,0.28178,1,1
1941291022,4.9578,4.9578,5.14782,0.259308,0.277435,1,1
1941791023,5.99754,5.99754,6.22852,0.260522,0.278738,1,1
1941891140,6.18545,6.18545,6.42346,0.261273,0.27954,1,1
1942191017,6.91761,6.91761,7.18393,0.263943,0.282404,1,1
1942691019,7.96582,7.96582,8.27088,0.267532,0.286248,1,1
1942791072,8.15356,8.15356,8.46727,0.269089,0.287912,1,1
1943191017,8.56464,8.56464,8.8941,0.273441,0.292577,1,1
1943591027,8.64519,8.64519,8.97608,0.279666,0.299239,1,1
1944091049,8.84791,8.84791,9.18864,0.285087,0.305046,1,1
1944191019,8.94898,8.94898,9.29348,0.286668,0.306736,1,1
1944491031,8.92183,8.92183,9.26541,0.286641,0.306712,1,1
1944991018,9.00201,9.00201,9.34883,0.295177,0.315851,1,1
1945491016,8.99109,8.99109,9.33761,0.299704,0.320704,1,1
1945591016,8.92032,8.92032,9.26385,0.301339,0.322454,1,1
1945991092,8.73739,8.73739,9.0739,0.304271,0.325598,1,1
1946391463,8.98486,8.98486,9.33072,0.310272,0.332021,1,1
1946891075,8.95854,8.95854,9.30366,0.314096,0.336116,1,1
1946991057,8.93825,8.93825,9.28299,0.314937,0.337016,1,1
1947291019,8.87875,8.87875,9.22094,0.315351,0.337463,1,1
1947791019,8.97811,8.97811,9.3239,0.320247,0.342708,1,1
1947891019,9.02029,9.02029,9.36795,0.319674,0.342095,1,1
1948191057,9.21224,9.21224,9.56555,0.324231,0.346977,1,1
1948291016,9.18564,9.18564,9.53815,0.325574,0.34842,1,1
1948691019,8.95031,8.95031,9.2953,0.325541,0.348384,1,1
1948791018,8.96299,8.96299,9.30855,0.326995,0.349947,1,1
1949191016,9.08362,9.08362,9.43377,0.331131,0.354374,1,1
1949291018,9.12061,9.12061,9.47215,0.332466,0.3558,1,1
1949591023,9.12936,9.12936,9.48122,0.334815,0.358319,1,1
1950091017,9.10074,9.10074,9.45136,0.335567,0.359127,1,1
1950191018,9.02063,9.02063,9.36842,0.336467,0.360089,1,1
1950491017,9.03619,9.03619,9.3847,0.336501,0.36014,1,1
1950991038,9.13233,9.13233,9.48307,0.33738,0.361083,1,1
1951491018,9.01405,9.01405,9.36164,0.33811,0.36186,1,1
1951591016,9.02976,9.02976,9.37766,0.334865,0.35838,1,1
1951891018,9.01974,9.01974,9.36736,0.3312,0.354459,1,1
1952391048,9.19829,9.19829,9.55127,0.322226,0.344859,1,1
1952491646,9.20615,9.20615,9.56102,0.320468,0.342978,1,1
1952891391,8.99772,8.99772,9.34454,0.314539,0.336636,1,1
1953391053,9.07858,9.07858,9.42836,0.304263,0.325647,1,1
1953491019,8.98237,8.98237,9.32868,0.303339,0.324655,1,1
1953891018,9.18219,9.18219,9.53565,0.294986,0.315718,1,1
1954291019,9.0454,9.0454,9.39402,0.29336,0.313977,1,1
1954391021,9.01041,9.01041,9.35639,0.289919,0.310292,1,1
1954791019,9.12523,9.12523,9.47708,0.281994,0.301824,1,1
1954891018,9.19231,9.19231,9.54663,0.279791,0.299467,1,1
1955291017,9.23829,9.23829,9.59433,0.276142,0.295561,1,1
1955691017,9.09929,9.09929,9.45019,0.272917,0.292109,1,1
1955791122,9.06717,9.06717,9.41524,0.273155,0.292365,1,1
1956091016,9.3239,9.3239,9.6832,0.271068,0.290136,1,1
1956591016,9.1314,9.1314,9.48176,0.268797,0.287711,1,1
1956691028,9.09333,9.09333,9.44445,0.268394,0.287276,1,1
1957091012,9.10854,9.10854,9.45973,0.264733,0.283355,1,1
1957491022,9.22564,9.22564,9.57953,0.262325,0.280781,1,1
1957991023,9.29767,9.29767,9.65456,0.258866,0.277078,1,1
1958091016,9.34542,9.34542,9.70613,0.256606,0.27466,1,1
1958391031,9.17171,9.17171,9.52555,0.252101,0.269842,1,1
1958891555,9.17251,9.17251,9.5262,0.247415,0.264825,1,1
1958991315,9.11117,9.11117,9.46249,0.246635,0.263991,1,1
1959391223,9.22532,9.22532,9.58087,0.239228,0.256065,1,1
1959791063,9.08762,9.08762,9.438,0.231333,0.247615,1,1
1959891018,9.09564,9.09564,9.44623,0.230218,0.246425,1,1
1960291021,9.12071,9.12071,9.47067,0.226247,0.242167,1,1
1960391020,9.11835,9.11835,9.47029,0.225106,0.24095,1,1
1960791018,9.17194,9.17194,9.52385,0.217835,0.233168,1,1
1961291016,9.17934,9.17934,9.53329,0.209526,0.224277,1,1
1961391052,9.21958,9.21958,9.57491,0.209822,0.224591,1,1
1961791019,9.21555,9.21555,9.57085,0.201611,0.215803,1,1
1962191017,9.20677,9.20677,9.55979,0.19927,0.213297,1,1
1962691026,9.25038,9.25038,9.6068,0.194214,0.20789,1,1
1962791016,9.28467,9.28467,9.64261,0.193048,0.206637,1,1
1963191132,9.24877,9.24877,9.60545,0.189607,0.202961,1,1
1963591019,8.93883,8.93883,9.2836,0.187579,0.200789,1,1
1964091017,9.28937,9.28937,9.64637,0.185013,0.198042,1,1
1964191047,9.32754,9.32754,9.68596,0.185166,0.198206,1,1
1964491016,9.27066,9.27066,9.62815,0.18199,0.194806,1,1
1964991028,9.34464,9.34464,9.70483,0.177824,0.190347,1,1
1965091679,9.27349,9.27349,9.63091,0.175279,0.187626,1,1
1965391393,9.13454,9.13454,9.48632,0.174533,0.186825,1,1
1965891247,9.11993,9.11993,9.47161,0.168627,0.180506,1,1
1966391049,9.21743,9.21743,9.57323,0.167636,0.179444,1,1
1966491018,9.21301,9.21301,9.56842,0.167379,0.179165,1,1
1966791018,9.18564,9.18564,9.5397,0.164447,0.176028,1,1
1967291018,9.25548,9.25548,9.61225,0.157871,0.168989,1,1
1967391017,9.21238,9.21238,9.56758,0.158322,0.169472,1,1
1967791020,9.19261,9.19261,9.54701,0.153276,0.164072,1,1
1968191017,9.19181,9.19181,9.54628,0.150666,0.16128,1,1
1968691018,9.30878,9.30878,9.66817,0.145414,0.155658,1,1
1968791041,9.21109,9.21109,9.56615,0.146837,0.157182,1,1
1969091020,9.18216,9.18216,9.53639,0.146289,0.1566,1,1
1969291018,9.28915,9.28915,9.64769,0.15151,0.162188,1,1
1969591018,9.21382,9.21382,9.56933,0.153146,0.163941,1,1
1970091019,9.21282,9.21282,9.5689,0.164988,0.176621,1,1
1970191018,9.26791,9.26791,9.62583,0.173424,0.185654,1,1
1970591018,9.33392,9.33392,9.69464,0.18328,0.196209,1,1
1970991019,9.1697,9.1697,9.52415,0.199557,0.213635,1,1
1971491041,9.29851,9.29851,9.65825,0.209418,0.224194,1,1
1971591147,9.27439,9.27439,9.63135,0.232448,0.248851,1,1
1971991536,9.07466,9.07466,9.42586,0.247856,0.265348,1,1
1972391079,9.36929,9.36929,9.73054,0.260962,0.279383,1,1
1972891019,9.29991,9.29991,9.65989,0.315828,0.338123,1,1
1972991083,9.31042,9.31042,9.67034,0.326489,0.349545,1,1
1973391018,9.40292,9.40292,9.76675,0.352651,0.377552,1,1
1973791016,9.32255,9.32255,9.68331,0.403767,0.432273,1,1
1974291058,9.46603,9.46603,9.83234,0.474101,0.507562,1,1
1974391016,9.42492,9.42492,9.78982,0.485528,0.519811,1,1
1974791018,9.24448,9.24448,9.60197,0.535275,0.573067,1,1
1975191018,9.34367,9.34367,9.70372,0.595863,0.637938,1,1
1976591075,9.15469,9.15469,9.50873,0.858019,0.91862,1,1
1977091016,9.21319,9.21319,9.56952,0.965717,1.0339,1,1
1977191017,9.29562,9.29562,9.65526,0.986217,1.05586,1,1
1977491018,9.29178,9.29178,9.65148,1.03998,1.11343,1,1
1977991166,9.39222,9.39222,9.75594,1.15134,1.23265,1,1
1978091083,9.39561,9.39561,9.75778,1.18108,1.26447,1,1
1978491359,9.26176,9.26176,9.61759,1.20192,1.28663,1,1
1978591112,9.29484,9.29484,9.65344,1.17869,1.26175,1,1
1978891031,9.24625,9.24625,9.60282,1.04644,1.12017,1,1
1979391135,9.33946,9.33946,9.69792,0.793083,0.848949,1,1
1979491083,9.25909,9.25909,9.61629,0.738696,0.790742,1,1
1979891018,9.27396,9.27396,9.63192,0.528533,0.565761,1,1
1980291064,9.31272,9.31272,9.67138,0.332704,0.356135,1,1
1980391019,9.36106,9.36106,9.72213,0.289356,0.30974,1,1
1980791021,9.06269,9.06269,9.41206,0.115507,0.123643,1,1
1980891016,9.15037,9.15037,9.50168,0.0771361,0.0825692,1,1
1981191016,9.26804,9.26804,9.62541,0.0422367,0.0452115,1,1
1981691018,9.23244,9.23244,9.5882,0.206759,0.221324,1,1
1981791019,9.24056,9.24056,9.59648,0.23687,0.253553,1,1
1982191017,9.2262,9.2262,9.58051,0.339419,0.36332,1,1
1982291019,9.2362,9.2362,9.59184,0.360589,0.385976,1,1
1982691016,9.20278,9.20278,9.55761,0.442963,0.474152,1,1
1983091021,9.05936,9.05936,9.40874,0.506066,0.541703,1,1
1983591050,9.03781,9.03781,9.38489,0.556939,0.596162,1,1
1983691021,9.08251,9.08251,9.43284,0.563885,0.603601,1,1
1983991024,9.28376,9.28376,9.64184,0.578155,0.618872,1,1
1984491554,9.37204,9.37204,9.73341,0.587085,0.62843,1,1
1984591504,9.3525,9.3525,9.71321,0.587386,0.628745,1,1
1984991101,9.22218,9.22218,9.57641,0.577267,0.617915,1,1
1985391020,9.20015,9.20015,9.55485,0.556945,0.596155,1,1
1985891019,9.33367,9.33367,9.69411,0.527993,0.565164,1,1
1985991023,9.33212,9.33212,9.69219,0.519061,0.555617,1,1
1986291017,9.23731,9.23731,9.59335,0.494087,0.528879,1,1
1986791016,9.11621,9.11621,9.46787,0.447088,0.478562,1,1
1987291072,9.28935,9.28935,9.64813,0.38881,0.416185,1,1
1987391018,9.23396,9.23396,9.59061,0.37957,0.406295,1,1
1987691018,9.16789,9.16789,9.52163,0.34449,0.368735,1,1
1988191018,9.25375,9.25375,9.61065,0.287173,0.307389,1,1
1988291020,9.34029,9.34029,9.70052,0.276761,0.296233,1,1
1988691025,9.26334,9.26334,9.62045,0.230216,0.246414,1,1
1989091025,8.95067,8.95067,9.29582,0.184075,0.19703,1,1
1989591017,9.16614,9.16614,9.51979,0.131272,0.140508,1,1
1989691018,9.18938,9.18938,9.54377,0.12093,0.129441,1,1
1989991019,9.18638,9.18638,9.54054,0.0837444,0.089636,1,1
1990491150,8.9616,8.9616,9.30693,0.0289777,0.0310163,1,1
1990991415,9.10511,9.10511,9.45621,0.0245646,0.0262928,1,1
1991091258,9.04844,9.04844,9.39712,0.0346832,0.0371234,1,1
1991391062,9.35222,9.35222,9.7129,0.0723082,0.0773955,1,1
1991891018,9.06452,9.06452,9.41445,0.126381,0.135271,1,1
1991991115,9.07205,9.07205,9.42189,0.138978,0.148755,1,1
1992291020,9.18447,9.18447,9.53841,0.172058,0.184159,1,1
1992791054,9.1861,9.1861,9.54028,0.226591,0.242526,1,1
1992891018,9.14367,9.14367,9.49637,0.237129,0.25381,1,1
1993291016,9.2796,9.2796,9.63715,0.270528,0.289557,1,1
1993391021,9.22131,9.22131,9.577,0.278872,0.298486,1,1
1993791049,9.16684,9.16684,9.52007,0.315211,0.337379,1,1
1994191016,9.29432,9.29432,9.65277,0.348633,0.373151,1,1
1994291016,9.3018,9.3018,9.66042,0.358225,0.383412,1,1
1994691017,9.20118,9.20118,9.55609,0.389348,0.416727,1,1
1994791017,9.26226,9.26226,9.61939,0.396448,0.424328,1,1
1995091016,9.2906,9.2906,9.64853,0.415298,0.444505,1,1
1995591017,9.35194,9.35194,9.71274,0.453423,0.485305,1,1
1995691018,9.36775,9.36775,9.72908,0.456637,0.488743,1,1
1996091017,9.41979,9.41979,9.78322,0.479534,0.51325,1,1
1996191033,9.37364,9.37364,9.73524,0.484514,0.518586,1,1
1996491034,9.21774,9.21774,9.57296,0.498931,0.534015,1,1
1996991629,9.16293,9.16293,9.51612,0.522314,0.559037,1,1
1997391381,9.21357,9.21357,9.5689,0.531685,0.569056,1,1
1997891037,9.05859,9.05859,9.40827,0.546649,0.585073,1,1
1997991018,9.09666,9.09666,9.44747,0.547722,0.58622,1,1
1998391019,9.17343,9.17343,9.52709,0.55239,0.591212,1,1
1998791016,9.09698,9.09698,9.44775,0.552183,0.590984,1,1
1999291021,9.21589,9.21589,9.5716,0.55516,0.594174,1,1
1999391018,9.30005,9.30005,9.65893,0.554588,0.593552,1,1
1999691017,9.09853,9.09853,9.44905,0.553163,0.592034,1,1
2000191017,9.28423,9.28423,9.64195,0.546446,0.584834,1,1
2000291021,9.28609,9.28609,9.64389,0.544501,0.582755,1,1
2000691026,9.21601,9.21601,9.57142,0.538588,0.576419,1,1
2001091016,9.19785,9.19785,9.55226,0.529618,0.566824,1,1
2001191042,9.23098,9.23098,9.58686,0.529221,0.5664,1,1
2001591023,9.24809,9.24809,9.605,0.520532,0.557101,1,1
2001691031,9.20773,9.20773,9.56286,0.519836,0.556358,1,1
2001991018,9.19057,9.19057,9.54479,0.514073,0.550191,1,1
2002491017,9.36201,9.36201,9.7227,0.502944,0.53826,1,1
2002991203,9.08464,9.08464,9.43493,0.489734,0.524128,1,1
2003091085,9.22308,9.22308,9.57843,0.484997,0.519062,1,1
2003491437,9.16437,9.16437,9.51771,0.472636,0.50583,1,1
2003891088,9.24691,9.24691,9.60359,0.462666,0.495159,1,1
2003991032,9.32215,9.32215,9.68141,0.459488,0.491761,1,1
2004391341,9.11523,9.11523,9.4669,0.454113,0.486009,1,1
2004891020,9.22834,9.22834,9.58422,0.445217,0.476479,1,1
2004991018,9.1968,9.1968,9.5511,0.443949,0.475117,1,1
2005291016,9.10117,9.10117,9.45233,0.438487,0.469274,1,1
2005791016,9.14443,9.14443,9.49704,0.424446,0.454246,1,1
2006291018,9.10143,9.10143,9.45244,0.412481,0.441442,1,1
2006391019,9.12099,9.12099,9.47286,0.411571,0.44047,1,1
2006691018,9.1941,9.1941,9.54868,0.403333,0.431647,1,1
2007191016,9.28629,9.28629,9.64421,0.392441,0.419989,1,1
2007691092,9.08655,9.08655,9.43692,0.379914,0.406578,1,1
2007791116,9.14391,9.14391,9.49618,0.377223,0.403702,1,1
2008091016,9.21497,9.21497,9.57035,0.367943,0.393768,1,1
2008591019,9.17666,9.17666,9.53064,0.357526,0.382619,1,1
2008691047,9.2111,9.2111,9.5662,0.354855,0.379759,1,1
2008991017,9.26551,9.26551,9.62268,0.350134,0.374701,1,1
2009491041,9.18194,9.18194,9.5363,0.344037,0.368177,1,1
2009591726,9.20741,9.20741,9.5626,0.340865,0.364787,1,1
2009891319,9.37027,9.37027,9.73207,0.334723,0.358214,1,1
2010091168,9.34372,9.34372,9.70391,0.335411,0.35895,1,1
2010391031,9.26964,9.26964,9.62724,0.331635,0.354904,1,1
2010891037,9.07724,9.07724,9.42708,0.327876,0.35088,1,1
2010991018,9.09697,9.09697,9.44795,0.323375,0.346064,1,1
2011291019,9.17421,9.17421,9.52811,0.323181,0.345856,1,1
2011791017,9.22998,9.22998,9.58593,0.320511,0.342995,1,1
2011891017,9.19395,9.19395,9.54855,0.320231,0.342693,1,1
2012291018,9.15457,9.15457,9.50764,0.314558,0.336628,1,1
2012691019,9.11895,9.11895,9.47078,0.309967,0.331712,1,1
2013191018,9.12,9.12,9.47309,0.306447,0.327941,1,1
2013291016,9.0751,9.0751,9.42492,0.30475,0.326125,1,1
2014091050,9.23409,9.23409,9.59027,0.295224,0.315927,1,1
2014591017,9.27652,9.27652,9.63432,0.29382,0.314417,1,1
2014691016,9.26726,9.26726,9.62464,0.290333,0.31069,1,1
2014991018,9.33753,9.33753,9.69921,0.288814,0.309063,1,1
2015491152,9.28026,9.28026,9.63863,0.282084,0.301863,1,1
2015991482,9.19581,9.19581,9.55212,0.274441,0.293682,1,1
2016091395,9.27973,9.27973,9.63761,0.271837,0.290888,1,1
2016391158,9.31116,9.31116,9.67205,0.275034,0.294311,1,1
2016891019,9.3112,9.3112,9.67032,0.264896,0.283462,1,1
2016991023,9.31887,9.31887,9.67982,0.26618,0.284834,1,1
2017291020,9.35707,9.35707,9.71977,0.262781,0.281194,1,1
2017791045,9.20186,9.20186,9.5583,0.256312,0.274276,1,1
2017891020,9.186,9.186,9.54074,0.255291,0.273187,1,1
2018191017,9.21027,9.21027,9.56697,0.252219,0.269897,1,1
2018791018,9.11252,9.11252,9.46597,0.254347,0.272172,1,1
2018891024,9.04801,9.04801,9.39864,0.252328,0.270011,1,1
2019191019,9.05846,9.05846,9.40944,0.253031,0.270763,1,1
2019691037,9.2323,9.2323,9.59009,0.255192,0.273073,1,1
2019791016,9.17647,9.17647,9.53217,0.256852,0.274849,1,1
2020091019,9.21364,9.21364,9.57058,0.259009,0.277156,1,1
2020591018,9.17319,9.17319,9.52829,0.262833,0.281245,1,1
2020691017,9.12541,9.12541,9.47912,0.263235,0.281675,1,1
2020991017,9.2309,9.2309,9.58859,0.262331,0.280712,1,1
2022491281,9.13434,9.13434,9.4885,0.268906,0.287751,1,1
2022591111,9.11447,9.11447,9.4678,0.267627,0.286376,1,1
2022891057,9.09732,9.09732,9.44995,0.268744,0.287575,1,1
2023391020,9.25928,9.25928,9.61817,0.276007,0.295347,1,1
2023491017,9.33512,9.33512,9.69557,0.277771,0.297241,1,1
2023891021,9.37508,9.37508,9.73904,0.297089,0.317912,1,1
2024291019,9.26245,9.26245,9.62205,0.303621,0.324902,1,1
2024791017,9.35536,9.35536,9.71904,0.306105,0.327569,1,1
2024891039,9.38953,9.38953,9.75402,0.311631,0.333479,1,1
2025191051,9.28,9.28,9.64054,0.327901,0.350893,1,1
2025691020,9.15171,9.15171,9.50752,0.321113,0.343633,1,1
2026191032,9.39503,9.39503,9.75975,0.347692,0.372075,1,1
2026291016,9.30183,9.30183,9.66316,0.352975,0.377728,1,1
2026591088,9.16857,9.16857,9.52503,0.372517,0.398642,1,1
2027091018,9.39435,9.39435,9.7598,0.403146,0.43142,1,1
2027191017,9.37369,9.37369,9.7377,0.42708,0.457019,1,1
2027591041,9.40065,9.40065,9.76589,0.450255,0.481829,1,1
2027691017,9.3681,9.3681,9.73239,0.469702,0.502629,1,1
2028091054,9.17021,9.17021,9.52645,0.5037,0.539024,1,1
2028191055,9.17508,9.17508,9.53152,0.527199,0.564162,1,1
2028491789,9.17761,9.17761,9.53473,0.55726,0.596339,1,1
2028991019,9.41652,9.41652,9.78239,0.623474,0.667179,1,1
2029091019,9.32653,9.32653,9.6889,0.652591,0.698335,1,1
2029391019,9.29669,9.29669,9.65787,0.700079,0.749162,1,1
2029891018,9.20327,9.20327,9.56101,0.780996,0.835756,1,1
2029991016,9.18339,9.18339,9.54004,0.799516,0.855543,1,1
2030391016,9.16341,9.16341,9.51918,0.867014,0.92778,1,1
2030791018,9.2067,9.2067,9.56494,0.940781,1.00671,1,1
2031291019,9.30563,9.30563,9.6661,0.990738,1.06007,1,1
2031391021,9.24282,9.24282,9.60138,0.975644,1.04389,1,1
2031691026,9.17795,9.17795,9.53353,0.901868,0.964947,1,1
2032191019,9.16273,9.16273,9.51805,0.745137,0.797233,1,1
2032291019,9.16257,9.16257,9.51793,0.711066,0.760792,1,1
2032691095,9.16528,9.16528,9.5203,0.581152,0.621783,1,1
2032791017,9.19497,9.19497,9.55115,0.550239,0.588708,1,1
2033091031,9.35097,9.35097,9.71327,0.453719,0.485436,1,1
2033591017,9.10773,9.10773,9.46058,0.310267,0.331956,1,1
2033691031,9.15321,9.15321,9.50798,0.2819,0.301604,1,1
2033991108,9.16055,9.16055,9.51542,0.207533,0.222039,1,1
2034491110,9.21508,9.21508,9.57211,0.0933658,0.0998914,1,1
2034591860,9.21189,9.21189,9.5686,0.0735506,0.0786915,1,1
2034891247,9.17632,9.17632,9.53187,0.0229978,0.0246055,1,1
2035091017,9.18777,9.18777,9.54357,0.0197694,0.021151,1,1
2035391018,9.18354,9.18354,9.53925,0.0568479,0.0608209,1,1
2035891018,9.29789,9.29789,9.65847,0.118881,0.127188,1,1
2036391018,9.3287,9.3287,9.69,0.161505,0.172789,1,1
2036991017,9.2595,9.2595,9.61806,0.195542,0.209205,1,1
2037091016,9.16491,9.16491,9.51956,0.199441,0.213374,1,1
2037391016,9.08272,9.08272,9.43493,0.206811,0.221259,1,1
2037591022,9.21305,9.21305,9.57005,0.204353,0.21863,1,1
2037991044,9.20852,9.20852,9.5653,0.20546,0.219815,1,1
2038491017,9.12855,9.12855,9.4822,0.193581,0.207101,1,1
2038991020,9.21146,9.21146,9.56882,0.176539,0.188871,1,1
2039591018,9.09753,9.09753,9.45001,0.144588,0.154684,1,1
2039691017,9.10439,9.10439,9.45726,0.139738,0.149497,1,1
2040091048,9.25651,9.25651,9.61674,0.117308,0.1255,1,1
2040591069,9.12229,9.12229,9.47572,0.0820623,0.0877921,1,1
2041091608,9.29933,9.29933,9.65958,0.0487933,0.0521995,1,1
2041691050,9.36553,9.36553,9.72832,0.0166786,0.0178428,1,1
2041791019,9.30247,9.30247,9.66241,0.0155075,0.0165901,1,1
2042191054,9.30431,9.30431,9.66469,0.0417124,0.0446239,1,1
2042291018,9.29355,9.29355,9.65346,0.0476621,0.0509888,1,1
2042691019,9.27263,9.27263,9.63374,0.0791058,0.084626,1,1
2043291016,9.26175,9.26175,9.62052,0.125929,0.134717,1,1
2043391028,9.29382,9.29382,9.65578,0.132609,0.141863,1,1
2043791018,9.23652,9.23652,9.59585,0.160023,0.171188,1,1
2043891021,9.22884,9.22884,9.5864,0.168831,0.180612,1,1
2044291048,9.28115,9.28115,9.64082,0.200438,0.214427,1,1
2044791046,9.24284,9.24284,9.60061,0.234827,0.251211,1,1
2044991231,9.18717,9.18717,9.54286,0.24997,0.267414,1,1
2045391019,9.23022,9.23022,9.58781,0.274769,0.293936,1,1
2045891016,9.28007,9.28007,9.64098,0.30923,0.330803,1,1
2046391016,9.27443,9.27443,9.63557,0.336795,0.360278,1,1
2046891104,9.1926,9.1926,9.54997,0.364473,0.389889,1,1
2047091437,9.18275,9.18275,9.53979,0.374443,0.400559,1,1
2047491091,9.22181,9.22181,9.57938,0.394492,0.422004,1,1
2047591083,9.26823,9.26823,9.62876,0.397172,0.424868,1,1
2047991018,9.21499,9.21499,9.57347,0.412359,0.44111,1,1
2048491017,9.34354,9.34354,9.70706,0.434753,0.465065,1,1
2048991017,9.05724,9.05724,9.40965,0.451252,0.482711,1,1
2049191018,9.14512,9.14512,9.50101,0.453271,0.484873,1,1
2049591017,9.18892,9.18892,9.54638,0.463637,0.495952,1,1
2049691108,9.16695,9.16695,9.52351,0.469705,0.502442,1,1
2050091017,9.17974,9.17974,9.53688,0.47315,0.506128,1,1
2050591119,9.15826,9.15826,9.51468,0.482317,0.515931,1,1
2051091019,9.46593,9.46593,9.83426,0.491389,0.525635,1,1
2051291144,9.45296,9.45296,9.8209,0.491859,0.526145,1,1
2051691018,9.1286,9.1286,9.48415,0.493177,0.527549,1,1
2051791036,9.2248,9.2248,9.58372,0.493273,0.527654,1,1
2052191019,9.30115,9.30115,9.66309,0.497823,0.532517,1,1
2052691018,9.20979,9.20979,9.56819,0.50453,0.539681,1,1
2053191103,9.1563,9.1563,9.51263,0.503739,0.538844,1,1
2053391368,9.09909,9.09909,9.45308,0.504906,0.540084,1,1
2053791018,9.22883,9.22883,9.58783,0.501952,0.536932,1,1
2054291098,9.08142,9.08142,9.43464,0.494326,0.528765,1,1
2054491069,9.20701,9.20701,9.56566,0.491932,0.526206,1,1
2054891019,9.3397,9.3397,9.70321,0.490053,0.524195,1,1
2055391040,9.37253,9.37253,9.73766,0.485825,0.519671,1,1
2055591017,9.28566,9.28566,9.64684,0.485128,0.518918,1,1
2055991033,9.26841,9.26841,9.62882,0.481279,0.514799,1,1
2056491050,9.17374,9.17374,9.53066,0.471709,0.50456,1,1
2056691018,9.23406,9.23406,9.59336,0.46592,0.498366,1,1
2057091028,9.12985,9.12985,9.48491,0.458417,0.490347,1,1
2057591070,9.14837,9.14837,9.50439,0.446135,0.477203,1,1
2058191016,9.26443,9.26443,9.62518,0.438561,0.469105,1,1
2058391018,9.23277,9.23277,9.59198,0.436587,0.466987,1,1
2058691047,9.27521,9.27521,9.63626,0.432145,0.462235,1,1
2059291327,9.21617,9.21617,9.57485,0.428472,0.458301,1,1
2059491438,9.26743,9.26743,9.62784,0.427143,0.45688,1,1
2059791294,9.30678,9.30678,9.66852,0.422014,0.45139,1,1
2059991020,9.31571,9.31571,9.67855,0.422066,0.451448,1,1
2060391021,9.22003,9.22003,9.57889,0.415823,0.444771,1,1
2060591017,9.37313,9.37313,9.73788,0.41394,0.44276,1,1
2060991023,9.27988,9.27988,9.64123,0.407962,0.436363,1,1
2061491019,9.23428,9.23428,9.59346,0.406642,0.434949,1,1
2061691025,9.2819,9.2819,9.64303,0.402357,0.430368,1,1
2062091020,9.44176,9.44176,9.80911,0.401298,0.429217,1,1
2062591017,9.22541,9.22541,9.58439,0.394411,0.42186,1,1
2062791016,9.30836,9.30836,9.67066,0.392486,0.4198,1,1
2063091020,9.33383,9.33383,9.69724,0.392286,0.419588,1,1
2063291061,9.31135,9.31135,9.67367,0.392209,0.419507,1,1
2063691058,9.27062,9.27062,9.63117,0.391843,0.419108,1,1
2064191021,9.35647,9.35647,9.72028,0.392632,0.419955,1,1
2064391020,9.37007,9.37007,9.73481,0.390919,0.418117,1,1
2064791016,9.23711,9.23711,9.59651,0.387963,0.414953,1,1
2065291135,9.0916,9.0916,9.44549,0.384469,0.411219,1,1
2065491610,9.2545,9.2545,9.61436,0.382486,0.409091,1,1
2065891288,9.0725,9.0725,9.42607,0.379599,0.406012,1,1
2066491019,9.1881,9.1881,9.54597,0.378408,0.404729,1,1
2066591038,9.2222,9.2222,9.58161,0.376011,0.402164,1,1
2066991025,9.17654,9.17654,9.5337,0.375089,0.401177,1,1
2067491016,9.2646,9.2646,9.62529,0.371989,0.397864,1,1
2067691018,9.23391,9.23391,9.59495,0.371352,0.397176,1,1
2068091110,9.23366,9.23366,9.59303,0.368309,0.393922,1,1
2068191017,9.29531,9.29531,9.65704,0.368871,0.394518,1,1
2068591017,9.18438,9.18438,9.54168,0.36528,0.390679,1,1
2068791042,9.14567,9.14567,9.50323,0.369627,0.39533,1,1
2069191017,9.31665,9.31665,9.67959,0.366048,0.391511,1,1
2069691019,9.37159,9.37159,9.73862,0.365504,0.390931,1,1
2069891070,9.37087,9.37087,9.73754,0.366305,0.391791,1,1
2070291017,9.08581,9.08581,9.44003,0.376168,0.402339,1,1
2070791055,9.26189,9.26189,9.62275,0.384707,0.411476,1,1
2072291214,9.19405,9.19405,9.55407,0.408892,0.437351,1,1
2072891080,9.22947,9.22947,9.59127,0.437378,0.46782,1,1
2072991017,9.32163,9.32163,9.68702,0.441602,0.472334,1,1
2073391018,9.37752,9.37752,9.74547,0.457945,0.489818,1,1
2073991016,9.17967,9.17967,9.53947,0.47676,0.509939,1,1
2074091020,9.19919,9.19919,9.55949,0.480322,0.51376,1,1
2074491017,9.36621,9.36621,9.73165,0.509047,0.544483,1,1
2074991017,9.31743,9.31743,9.68245,0.54651,0.584551,1,1
2075191016,9.57769,9.57769,9.95318,0.562785,0.601955,1,1
2075591016,9.56657,9.56657,9.94182,0.594261,0.63562,1,1
2076091018,9.12188,9.12188,9.47951,0.637802,0.682185,1,1
2076691019,9.28589,9.28589,9.64945,0.68684,0.734621,1,1
2076791017,9.20009,9.20009,9.56015,0.696386,0.74482,1,1
2077191065,9.05901,9.05901,9.41326,0.705705,0.754728,1,1
2077691079,9.00444,9.00444,9.35641,0.640406,0.684888,1,1
2078291395,9.08935,9.08935,9.44465,0.54457,0.582394,1,1
2078491065,9.04912,9.04912,9.40318,0.511861,0.547413,1,1
2078891018,9.19972,9.19972,9.55944,0.452464,0.483891,1,1
2079391054,9.13317,9.13317,9.49017,0.382294,0.408844,1,1
2079991035,8.97486,8.97486,9.32533,0.308153,0.329549,1,1
2080591018,9.19391,9.19391,9.55271,0.240752,0.257463,1,1
2080691018,9.19369,9.19369,9.55309,0.232312,0.248442,1,1
2081091020,9.17782,9.17782,9.53663,0.194712,0.208228,1,1
2081291020,8.98551,8.98551,9.3366,0.178679,0.191083,1,1
2081591017,9.09738,9.09738,9.45289,0.158774,0.169792,1,1
2081791016,9.00531,9.00531,9.3573,0.145032,0.155099,1,1
2082191018,9.02692,9.02692,9.37943,0.121317,0.129738,1,1
2082691017,9.11899,9.11899,9.47525,0.101239,0.108264,1,1
2082891019,9.22723,9.22723,9.58748,0.0962823,0.102965,1,1
2083291021,8.94625,8.94625,9.29561,0.0860508,0.0920216,1,1
2083791103,9.03056,9.03056,9.3835,0.0814779,0.0871314,1,1
2083991076,9.02866,9.02866,9.38129,0.079712,0.0852433,1,1
2084391440,9.00371,9.00371,9.35561,0.0818264,0.087505,1,1
2084891051,9.08637,9.08637,9.44118,0.0910365,0.0973535,1,1
2085091020,9.03223,9.03223,9.38498,0.0952024,0.101807,1,1
2085491041,8.94371,8.94371,9.29292,0.105095,0.112386,1,1
2085991046,9.0036,9.0036,9.35549,0.121718,0.13016,1,1
2086191017,9.09675,9.09675,9.45231,0.1306,0.139659,1,1
2086591021,8.94731,8.94731,9.29697,0.146468,0.156628,1,1
2087091018,8.86137,8.86137,9.2093,0.166064,0.177584,1,1
2087291017,8.86775,8.86775,9.21566,0.174372,0.186469,1,1
2087691054,8.99339,8.99339,9.34633,0.194637,0.208134,1,1
2087891016,9.09823,9.09823,9.45501,0.204679,0.218875,1,1
2088291023,8.83641,8.83641,9.18163,0.220683,0.235984,1,1
2088791019,9.01555,9.01555,9.36913,0.239747,0.256372,1,1
2088991019,9.09743,9.09743,9.45295,0.248448,0.265676,1,1
2089391018,9.08077,9.08077,9.43716,0.264277,0.282601,1,1
2089891017,8.95702,8.95702,9.3085,0.281548,0.301064,1,1
2090091063,8.8283,8.8283,9.17483,0.289855,0.30995,1,1
2090491497,9.05476,9.05476,9.41056,0.301291,0.322181,1,1
2090991037,8.78772,8.78772,9.13263,0.320235,0.342435,1,1
2091191130,8.96495,8.96495,9.31697,0.325925,0.348518,1,1
2091591023,9.00802,9.00802,9.36163,0.340576,0.364181,1,1
2092091016,9.09057,9.09057,9.44766,0.3566,0.381314,1,1
2092291020,9.02386,9.02386,9.37779,0.359265,0.384167,1,1
2092591017,8.82319,8.82319,9.16939,0.368806,0.394368,1,1
2092791020,8.96114,8.96114,9.31256,0.376514,0.40261,1,1
2093191016,9.03888,9.03888,9.39327,0.385028,0.411707,1,1
2093691017,8.9894,8.9894,9.34228,0.397634,0.42519,1,1
2093891019,8.9754,8.9754,9.3279,0.402118,0.429991,1,1
2094291049,8.99315,8.99315,9.34659,0.414752,0.443501,1,1
2095391111,9.19719,9.19719,9.55863,0.444517,0.475334,1,1
2095991017,8.96418,8.96418,9.31609,0.453855,0.48532,1,1
2096091164,9.02189,9.02189,9.3763,0.461072,0.493029,1,1
2096491356,9.00171,9.00171,9.35514,0.47113,0.503789,1,1
2096991077,8.92142,8.92142,9.27177,0.473477,0.506285,1,1
2097191027,8.92089,8.92089,9.27119,0.480568,0.513865,1,1
2097591154,8.88792,8.88792,9.23698,0.481677,0.515062,1,1
2098091018,8.96953,8.96953,9.32194,0.480648,0.513954,1,1
2098291047,9.04046,9.04046,9.39552,0.485807,0.519469,1,1
2098691018,8.90184,8.90184,9.25141,0.484248,0.517801,1,1
2099191016,9.00476,9.00476,9.3585,0.483108,0.51658,1,1
2099391018,8.97099,8.97099,9.32362,0.476618,0.50964,1,1
2099791017,9.17899,9.17899,9.53953,0.474626,0.507501,1,1
2100291017,8.90492,8.90492,9.25484,0.471813,0.504489,1,1
2100791017,9.1956,9.1956,9.55618,0.466395,0.498684,1,1
2100991017,9.08168,9.08168,9.4382,0.462105,0.494098,1,1
2101391016,9.01512,9.01512,9.36872,0.453901,0.485329,1,1
2101891016,8.96662,8.96662,9.31851,0.445021,0.475825,1,1
2102091030,9.14492,9.14492,9.5039,0.440768,0.471286,1,1
2102491159,9.03582,9.03582,9.39055,0.435717,0.465882,1,1
2102991114,8.96976,8.96976,9.32197,0.429975,0.459742,1,1
2103591051,9.04547,9.04547,9.40219,0.424264,0.453632,1,1
2104191019,8.90944,8.90944,9.25922,0.415376,0.444127,1,1
2104691019,8.87342,8.87342,9.22318,0.408367,0.436628,1,1
2105291017,8.98344,8.98344,9.33606,0.402048,0.429866,1,1
2105391039,8.98606,8.98606,9.34066,0.399657,0.427319,1,1
2105791019,9.08872,9.08872,9.44558,0.397354,0.424858,1,1
2106291018,9.00732,9.00732,9.36118,0.396412,0.423841,1,1
2106491018,8.87494,8.87494,9.22487,0.394501,0.4218,1,1
2106791017,8.78155,8.78155,9.12746,0.393502,0.42073,1,1
2107291018,8.99341,8.99341,9.34788,0.389639,0.416591,1,1
2107791016,9.06216,9.06216,9.4194,0.387017,0.413794,1,1
2107891016,9.06614,9.06614,9.42314,0.385003,0.411634,1,1
2108191026,9.04363,9.04363,9.40001,0.382844,0.40933,1,1
2108691460,9.0647,9.0647,9.42205,0.382503,0.408961,1,1
2108791526,9.01963,9.01963,9.37489,0.37967,0.405936,1,1
2109091242,8.94466,8.94466,9.29726,0.380781,0.407125,1,1
2109591019,9.01936,9.01936,9.37498,0.382769,0.409246,1,1
2109691050,8.99594,8.99594,9.35029,0.383913,0.410467,1,1
2110191016,9.1745,9.1745,9.53591,0.385014,0.411644,1,1
2110491018,9.1116,9.1116,9.47108,0.386753,0.413512,1,1
2110991018,9.09542,9.09542,9.45423,0.389408,0.416353,1,1
2111091017,9.15897,9.15897,9.51989,0.389702,0.416663,1,1
2111391115,9.00163,9.00163,9.35651,0.394671,0.42198,1,1
2111591043,8.95518,8.95518,9.30857,0.394356,0.421645,1,1
2111891037,9.03969,9.03969,9.39644,0.397169,0.424655,1,1
2112391018,8.73544,8.73544,9.0801,0.405847,0.433934,1,1
2112491019,8.71973,8.71973,9.06392,0.41152,0.44,1,1
2112791016,8.93667,8.93667,9.28909,0.427272,0.456841,1,1
2113291019,9.1505,9.1505,9.5121,0.418478,0.447452,1,1
2113791082,9.2084,9.2084,9.57249,0.438881,0.469263,1,1
2113891017,9.1309,9.1309,9.4915,0.434649,0.464736,1,1
2114191018,9.12021,9.12021,9.48043,0.449945,0.481092,1,1
2114791351,9.21468,9.21468,9.5785,0.452828,0.484183,1,1
2115091305,9.15442,9.15442,9.51572,0.477246,0.510277,1,1
2115591127,8.97637,8.97637,9.33072,0.467435,0.499784,1,1
2115691026,9.04556,9.04556,9.40293,0.473834,0.506619,1,1
2115991098,9.01176,9.01176,9.36771,0.492234,0.52631,1,1
2116491060,9.06109,9.06109,9.41908,0.481202,0.5145,1,1
2116591022,9.07277,9.07277,9.43084,0.48948,0.523352,1,1
2117091016,9.14879,9.14879,9.51014,0.495298,0.529564,1,1
2117391016,9.20618,9.20618,9.57014,0.498902,0.533425,1,1
2117891017,8.97243,8.97243,9.32707,0.517937,0.553781,1,1
2118391018,9.01844,9.01844,9.37576,0.522537,0.558666,1,1
2118491019,8.97598,8.97598,9.33151,0.518797,0.554657,1,1
2118791018,8.94742,8.94742,9.30015,0.510392,0.545669,1,1
2118991020,8.95957,8.95957,9.31477,0.498127,0.53256,1,1
2119291046,9.00813,9.00813,9.36444,0.480833,0.514056,1,1
2119791017,9.04448,9.04448,9.40276,0.446041,0.476869,1,1
2119891016,9.10868,9.10868,9.46902,0.43976,0.470153,1,1
2120191016,9.0705,9.0705,9.4293,0.420234,0.449268,1,1
2120691058,9.00758,9.00758,9.36391,0.389167,0.416057,1,1
2120791105,8.9473,8.9473,9.30145,0.384072,0.410607,1,1
2121091548,8.94134,8.94134,9.29521,0.367884,0.393301,1,1
2121591020,9.07272,9.07272,9.4305,0.344525,0.368334,1,1
2122991020,8.92076,8.92076,9.27392,0.301584,0.322416,1,1
2123491015,9.0947,9.0947,9.45486,0.292232,0.312422,1,1
2123991016,8.95389,8.95389,9.30854,0.283759,0.30336,1,1
2124091018,9.01923,9.01923,9.37632,0.2852,0.304899,1,1
2124391021,9.03481,9.03481,9.39267,0.282953,0.302502,1,1
2124891052,9.14225,9.14225,9.50411,0.282381,0.301879,1,1
2124991018,9.07277,9.07277,9.43193,0.280534,0.29991,1,1
2125291017,8.90467,8.90467,9.25713,0.280645,0.300026,1,1
2125791018,9.05537,9.05537,9.41385,0.278167,0.297377,1,1
2125891018,9.05054,9.05054,9.40836,0.276854,0.295964,1,1
2126191016,8.93986,8.93986,9.29357,0.276408,0.295487,1,1
2126391016,9.00164,9.00164,9.35822,0.276394,0.295472,1,1
2126691093,9.1025,9.1025,9.4626,0.278569,0.297802,1,1
2127191392,8.96995,8.96995,9.32474,0.275458,0.294475,1,1
2127291376,8.99715,8.99715,9.35324,0.277425,0.296575,1,1
2127591084,9.01658,9.01658,9.37346,0.280469,0.299832,1,1
2127791017,9.06194,9.06194,9.42038,0.280842,0.30023,1,1
2128091020,9.05186,9.05186,9.41022,0.284941,0.30461,1,1
2128691017,9.04383,9.04383,9.40228,0.286403,0.306174,1,1
2128991029,9.00003,9.00003,9.35595,0.290891,0.310969,1,1
2129491018,9.18902,9.18902,9.55282,0.299838,0.32053,1,1
2129591136,9.12523,9.12523,9.48658,0.297666,0.318215,1,1
2129891019,9.0699,9.0699,9.42912,0.301822,0.322656,1,1
2130091019,8.97009,8.97009,9.32499,0.307249,0.328457,1,1
2130391048,8.85904,8.85904,9.20977,0.311385,0.332879,1,1
2130991025,9.04416,9.04416,9.40227,0.320523,0.34264,1,1
2131291060,8.85644,8.85644,9.20692,0.326713,0.349262,1,1
2131791018,9.06081,9.06081,9.42,0.334866,0.357983,1,1
2131891019,9.07827,9.07827,9.4379,0.33616,0.359364,1,1
2132191017,9.11042,9.11042,9.47133,0.344925,0.368742,1,1
2132691020,9.08335,9.08335,9.44339,0.357824,0.382532,1,1
2132791018,9.10176,9.10176,9.46259,0.367295,0.39266,1,1
2133091040,9.05836,9.05836,9.41718,0.373186,0.398959,1,1
2133291517,9.01597,9.01597,9.37345,0.378586,0.404739,1,1
2133591334,9.04651,9.04651,9.40544,0.392479,0.419593,1,1
2133691373,8.94938,8.94938,9.3042,0.398505,0.426026,1,1
2133991019,8.84918,8.84918,9.19967,0.409353,0.437627,1,1
2134191021,8.87138,8.87138,9.22345,0.416885,0.445686,1,1
2134491017,8.63579,8.63579,8.97839,0.428965,0.458592,1,1
2134691018,8.52234,8.52234,8.86063,0.435507,0.465588,1,1
2134991036,8.78582,8.78582,9.13445,0.444886,0.475621,1,1
2135491017,8.84436,8.84436,9.19531,0.457368,0.488946,1,1
2136091018,8.92934,8.92934,9.28343,0.469499,0.501924,1,1
2136391020,8.89765,8.89765,9.25018,0.474459,0.507222,1,1
2136891016,9.29681,9.29681,9.66584,0.475536,0.508367,1,1
2136991048,9.24007,9.24007,9.60844,0.474386,0.507137,1,1
2137291017,8.95919,8.95919,9.31429,0.477603,0.510578,1,1
2137491067,8.9787,8.9787,9.33473,0.479575,0.512682,1,1
2137791017,9.0591,9.0591,9.4183,0.477568,0.510539,1,1
2138291017,9.06909,9.06909,9.42844,0.474315,0.507066,1,1
2138391042,9.16977,9.16977,9.53369,0.475781,0.508623,1,1
2138691049,9.21521,9.21521,9.58187,0.473581,0.506262,1,1
2139191624,9.11793,9.11793,9.48058,0.464081,0.49609,1,1
2139291599,9.09079,9.09079,9.4522,0.462659,0.494563,1,1
2139591175,8.90573,8.90573,9.25819,0.452105,0.483279,1,1
2139791181,8.88115,8.88115,9.23432,0.440602,0.470987,1,1
2140091023,8.85599,8.85599,9.20644,0.430169,0.459838,1,1
2140591042,9.03541,9.03541,9.39455,0.412712,0.441169,1,1
2140691019,9.04645,9.04645,9.40659,0.407831,0.435958,1,1
2140991017,9.08448,9.08448,9.4436,0.398692,0.426178,1,1
2141491018,8.90772,8.90772,9.26049,0.380394,0.406627,1,1
2141591017,8.77528,8.77528,9.12385,0.376258,0.402198,1,1
2141891017,8.87889,8.87889,9.23203,0.368445,0.393847,1,1
2142391017,8.92897,8.92897,9.28392,0.355227,0.379713,1,1
2142891017,9.00844,9.00844,9.36646,0.342236,0.365825,1,1
2143391018,9.19661,9.19661,9.56236,0.330749,0.353553,1,1
2143491059,9.10125,9.10125,9.4628,0.33089,0.3537,1,1
2143791017,9.10344,9.10344,9.46575,0.324271,0.346625,1,1
2144291023,9.06054,9.06054,9.42033,0.31976,0.341798,1,1
2144391016,9.03284,9.03284,9.39228,0.316148,0.337943,1,1
2144691107,8.36425,8.36425,8.69639,0.316469,0.338268,1,1
2145191120,5.37012,5.37012,5.58349,0.309157,0.330457,1,1
2145691069,4.46564,4.46564,4.64276,0.299632,0.320265,1,1
2145791204,4.18514,4.18514,4.35136,0.297393,0.317876,1,1
2146091213,3.82108,3.82108,3.97279,0.292939,0.313109,1,1
2146591032,3.13617,3.13617,3.26069,0.28083,0.300166,1,1
2146991017,2.77436,2.77436,2.88452,0.272055,0.29079,1,1
2147191016,2.85575,2.85575,2.96906,0.267946,0.286392,1,1
2147491025,2.71001,2.71001,2.81742,0.263275,0.281396,1,1
2147991086,2.12694,2.12694,2.21135,0.251711,0.269035,1,1
2148091034,2.16324,2.16324,2.24909,0.249982,0.267188,1,1
2148391017,2.33177,2.33177,2.42431,0.246982,0.263983,1,1
2148891017,2.00598,2.00598,2.0856,0.239267,0.255736,1,1
2148991081,2.09714,2.09714,2.18029,0.238753,0.255186,1,1
2149291047,1.66044,1.66044,1.72634,0.235693,0.251912,1,1
2149491159,1.81279,1.81279,1.88479,0.234615,0.250759,1,1
2149791018,2.36473,2.36473,2.45846,0.233439,0.2495,1,1
2150391023,2.33474,2.33474,2.42751,0.230684,0.246559,1,1
2150691017,2.07069,2.07069,2.15274,0.231433,0.247355,1,1
2151191062,1.97339,1.97339,2.05166,0.232306,0.24829,1,1
2151791216,1.64985,1.64985,1.71529,0.236085,0.252328,1,1
2152091019,1.72024,1.72024,1.78849,0.237705,0.254058,1,1
2152291019,2.13222,2.13222,2.21677,0.238971,0.255407,1,1
2152591073,1.93288,1.93288,2.00956,0.239623,0.256107,1,1
2153191027,1.03564,1.03564,1.07687,0.244102,0.260892,1,1
2153491017,1.78972,1.78972,1.86073,0.246364,0.263307,1,1
2153991019,1.32666,1.32666,1.37927,0.25039,0.267608,1,1
2154491029,1.95288,1.95288,2.03033,0.254988,0.272523,1,1
2154591018,1.85295,1.85295,1.92667,0.255889,0.273486,1,1
2154891022,1.5113,1.5113,1.57132,0.25862,0.276407,1,1
2155091018,1.54572,1.54572,1.60728,0.261672,0.279667,1,1
2155391017,2.04062,2.04062,2.12185,0.265566,0.283833,1,1
2155891023,1.96332,1.96332,2.04149,0.273722,0.292549,1,1
2155991018,2.22993,2.22993,2.31868,0.275457,0.294401,1,1
2156291016,2.31559,2.31559,2.40781,0.281345,0.300696,1,1
2156791018,2.27333,2.27333,2.36387,0.290496,0.310476,1,1
2156891027,2.27028,2.27028,2.36072,0.292435,0.312548,1,1
2157191043,1.66683,1.66683,1.73327,0.296055,0.316414,1,1
2157691319,1.8006,1.8006,1.87196,0.304135,0.32505,1,1
2158191024,1.29776,1.29776,1.34945,0.311106,0.332503,1,1
2158291041,1.30363,1.30363,1.35554,0.312341,0.33382,1,1
2158691041,2.16938,2.16938,2.25587,0.316536,0.338304,1,1
2158791098,1.98383,1.98383,2.06287,0.317914,0.339775,1,1
2159091018,1.53643,1.53643,1.59762,0.321294,0.343384,1,1
