timestamp,indicated_airspeed_m_s,true_airspeed_m_s,air_temperature_celsius,confidence
1579091815,-0.675394,-0.700113,25.6372,1.0
1579102510,-0.630467,-0.65354,25.6358,1.0
1579113203,-0.562216,-0.582799,25.6429,1.0
1579123891,-0.469878,-0.487098,25.6644,1.0
1579134619,-0.339605,-0.35204,25.6458,1.0
1579446235,1.78822,1.85371,25.6515,1.0
1579456932,1.8198,1.88651,25.6715,1.0
1579467645,1.84288,1.9104,25.6658,1.0
1579478469,1.85565,1.92364,25.6644,1.0
1579489232,1.85792,1.92592,25.6415,1.0
1579499993,1.8489,1.91658,25.6458,1.0
1579510830,1.82893,1.89587,25.6443,1.0
1579521524,1.79914,1.86499,25.6486,1.0
1579532285,1.7598,1.82416,25.6329,1.0
1579553788,1.65465,1.71514,25.6243,1.0
1579564596,1.59291,1.65122,25.6515,1.0
1579575313,1.52449,1.58029,25.6415,1.0
1579586005,1.44872,1.5017,25.6243,1.0
1579897637,0.945228,0.979791,25.6243,1.0
1579908332,0.933472,0.967605,25.6243,1.0
1579919025,0.914845,0.948367,25.6686,1.0
1579929751,0.899674,0.932607,25.6472,1.0
1579940474,0.887954,0.920458,25.6472,1.0
1579951165,0.877533,0.909656,25.6472,1.0
1579961915,0.8681,0.89986,25.6443,1.0
1579972616,0.8591,0.89053,25.6443,1.0
1579983412,0.850656,0.881784,25.6486,1.0
1579994177,0.842918,0.873753,25.6415,1.0
1580004902,0.835035,0.865596,25.6429,1.0
1580015657,0.826782,0.857044,25.6443,1.0
1580026349,0.820605,0.850669,25.6644,1.0
1580037114,0.820749,0.850822,25.6672,1.0
1580337786,1.02502,1.06255,25.6486,1.0
1580348507,0.989125,1.02533,25.6415,1.0
1580359259,0.957827,0.992888,25.6429,1.0
1580369952,0.934632,0.968847,25.6443,1.0
1580380745,0.919591,0.953285,25.6715,1.0
1580391516,0.917096,0.95065,25.6415,1.0
1580402296,0.927602,0.961578,25.6644,1.0
1580413217,0.948654,0.983361,25.6401,1.0
1580423927,0.978401,1.01424,25.6658,1.0
1580488382,1.04189,1.08004,25.6458,1.0
1580499081,0.992871,1.02935,25.7178,1.0
1580509775,0.924327,0.958286,25.7178,1.0
1580520553,0.833624,0.864286,25.742,1.0
1580810838,-1.24256,-1.28802,25.6272,1.0
1580821660,-1.25637,-1.30237,25.6472,1.0
1580832387,-1.26617,-1.31258,25.6672,1.0
1580843091,-1.27651,-1.32321,25.6286,1.0
1580853813,-1.29117,-1.3384,25.6229,1.0
1580864506,-1.30428,-1.35202,25.6429,1.0
1580875305,-1.30916,-1.35708,25.6472,1.0
1580886054,-1.30696,-1.3548,25.6429,1.0
1580896756,-1.3,-1.3476,25.6501,1.0
1580939525,-1.23599,-1.28122,25.6415,1.0
1580950299,-1.20823,-1.25251,25.6701,1.0
1580961015,-1.17762,-1.22073,25.6472,1.0
1580971712,-1.15337,-1.19553,25.6215,1.0
1581261568,-0.68628,-0.711402,25.6472,1.0
1581272321,-0.647148,-0.670814,25.6258,1.0
1581283017,-0.593253,-0.614978,25.6558,1.0
1581293842,-0.51533,-0.534295,25.7563,1.0
1581304565,-0.397469,-0.412089,25.7463,1.0
1581315313,-0.189206,-0.196164,25.7392,1.0
1581326057,0.294249,0.305058,25.7163,1.0
1581336750,0.446373,0.462784,25.7406,1.0
1581347542,0.555698,0.576114,25.7249,1.0
1581358301,0.654364,0.678424,25.742,1.0
1581379973,0.846546,0.877674,25.7435,1.0
1581390767,0.933272,0.967594,25.7463,1.0
1581401487,1.01427,1.05158,25.7463,1.0
1581412195,1.09502,1.13534,25.7649,1.0
1581702223,1.1795,1.22268,25.6443,1.0
1581712970,1.14805,1.19007,25.6415,1.0
1581723719,1.11713,1.15798,25.6215,1.0
1581734502,1.0864,1.12614,25.6301,1.0
1581745264,1.05099,1.08945,25.6401,1.0
1581756010,1.00996,1.04697,25.6701,1.0
1581766711,0.972001,1.00761,25.6615,1.0
1581777461,0.940286,0.974688,25.6415,1.0
1581788207,0.910922,0.944256,25.6458,1.0
1581798899,0.882635,0.91493,25.6429,1.0
1581863408,0.664208,0.688513,25.6329,1.0
1581874201,0.657621,0.681724,25.6672,1.0
1581884940,0.659446,0.68358,25.6415,1.0
1581895779,0.663917,0.688188,25.6186,1.0
1582185878,1.47337,1.52728,25.6415,1.0
1582196574,1.49451,1.54915,25.6258,1.0
1582207359,1.50561,1.56073,25.6415,1.0
1582218107,1.51013,1.56538,25.6258,1.0
1582228851,1.50761,1.56287,25.6629,1.0
1582239600,1.49394,1.54864,25.6443,1.0
1582250313,1.46426,1.51781,25.6258,1.0
1582261026,1.41893,1.47084,25.6301,1.0
1582271762,1.36106,1.41089,25.6443,1.0
1582282506,1.28885,1.33622,25.7263,1.0
1582314640,0.929387,0.963555,25.7363,1.0
1582325444,0.76783,0.796064,25.7406,1.0
1582336180,0.601261,0.623367,25.7378,1.0
1582346873,0.423901,0.439504,25.7606,1.0
1582647742,0.643394,0.66696,25.6515,1.0
1582658510,0.606357,0.628561,25.6458,1.0
1582669201,0.551344,0.57151,25.6215,1.0
1582679924,0.465055,0.482144,25.7192,1.0
1582690624,0.338171,0.350609,25.7435,1.0
1582701435,0.110654,0.114729,25.7692,1.0
1582712208,-0.286202,-0.296727,25.7406,1.0
1582722942,-0.410587,-0.425687,25.742,1.0
1582733653,-0.485331,-0.503182,25.7449,1.0
1582744393,-0.521696,-0.540884,25.742,1.0
1582766058,-0.516477,-0.535477,25.7463,1.0
1582776776,-0.478351,-0.495946,25.7435,1.0
1582787559,-0.412071,-0.427228,25.7492,1.0
1582798342,-0.303214,-0.314363,25.742,1.0
1583088211,0.476355,0.49378,25.6301,1.0
1583099009,0.535645,0.555248,25.6401,1.0
1583109701,0.600598,0.622561,25.6243,1.0
1583120467,0.65636,0.680357,25.62,1.0
1583131200,0.696191,0.721649,25.6243,1.0
1583141953,0.725867,0.752467,25.6686,1.0
1583152738,0.756751,0.784476,25.6644,1.0
1583163429,0.785361,0.814105,25.6429,1.0
1583174144,0.801126,0.830418,25.6258,1.0
1583238474,0.662001,0.686236,25.6443,1.0
1583249264,0.630891,0.653994,25.6501,1.0
1583259964,0.606141,0.628351,25.6629,1.0
1583582005,1.39623,1.44733,25.6458,1.0
1583592753,1.36597,1.41592,25.6301,1.0
1583603442,1.32976,1.37846,25.6629,1.0
1583614152,1.29214,1.33942,25.6386,1.0
1583624856,1.25685,1.3029,25.6672,1.0
1583635557,1.22448,1.2693,25.6429,1.0
1583646309,1.19283,1.23646,25.6301,1.0
1583657095,1.15919,1.20161,25.6401,1.0
1583667856,1.12359,1.16468,25.6315,1.0
1583678579,1.08686,1.12664,25.6486,1.0
1583764376,0.839921,0.870663,25.6443,1.0
1583775105,0.809032,0.838615,25.6272,1.0
1583785796,0.776083,0.804482,25.6429,1.0
1583796532,0.741234,0.768342,25.6301,1.0
1584075856,0.904713,0.937861,25.6672,1.0
1584086692,0.96198,0.997221,25.6644,1.0
1584097482,1.02396,1.06145,25.6472,1.0
1584108192,1.08014,1.11968,25.6401,1.0
1584118886,1.1219,1.16296,25.6401,1.0
1584129623,1.15254,1.19473,25.6443,1.0
1584140332,1.17776,1.22088,25.6515,1.0
1584151154,1.19611,1.23988,25.6443,1.0
1584161844,1.20238,1.24659,25.7449,1.0
1584172581,1.19804,1.24209,25.7478,1.0
1584204787,1.17825,1.22153,25.7263,1.0
1584215483,1.17217,1.21527,25.7449,1.0
1584226172,1.17068,1.21369,25.7235,1.0
1584236891,1.17316,1.21629,25.7449,1.0
1584247590,1.17934,1.22267,25.7263,1.0
1584537524,1.68808,1.74988,25.6486,1.0
1584548274,1.69388,1.75581,25.62,1.0
1584558969,1.69318,1.75543,25.7406,1.0
1584569675,1.68738,1.74942,25.7392,1.0
1584580370,1.67594,1.73756,25.7406,1.0
1584591059,1.65526,1.71613,25.7406,1.0
1584601776,1.62584,1.68561,25.7349,1.0
1584612480,1.59238,1.65094,25.742,1.0
1584623269,1.55787,1.61515,25.742,1.0
1584666292,1.42324,1.47529,25.6272,1.0
1584677063,1.38129,1.43185,25.6443,1.0
1584687759,1.33093,1.37965,25.6458,1.0
1584698488,1.27873,1.32554,25.6429,1.0
1585009894,0.841587,0.87257,25.7649,1.0
1585020587,0.884876,0.917387,25.722,1.0
1585031344,0.90266,0.935822,25.7206,1.0
1585042132,0.894773,0.927648,25.722,1.0
1585052903,0.869025,0.900979,25.7392,1.0
1585063604,0.833714,0.864365,25.742,1.0
1585074302,0.786953,0.815889,25.7449,1.0
1585085024,0.726639,0.753332,25.7249,1.0
1585095713,0.662057,0.686396,25.7406,1.0
1585106406,0.608274,0.630655,25.7492,1.0
1585138571,0.549035,0.569226,25.7392,1.0
1585149311,0.562128,0.582802,25.7406,1.0
1585160098,0.585624,0.60716,25.7406,1.0
1585170855,0.610421,0.632874,25.7449,1.0
1585450235,0.829437,0.859775,25.6272,1.0
1585461033,0.834886,0.865484,25.6701,1.0
1585471804,0.835996,0.866626,25.6629,1.0
1585482621,0.840825,0.871641,25.6701,1.0
1585493317,0.853397,0.88467,25.6672,1.0
1585504048,0.872294,0.904249,25.6629,1.0
1585514749,0.894307,0.927051,25.6515,1.0
1585525502,0.914484,0.947933,25.6301,1.0
1585536191,0.930117,0.964172,25.6515,1.0
1585546977,0.945201,0.979792,25.6415,1.0
1585579276,1.00154,1.0382,25.6458,1.0
1585590044,1.01605,1.05323,25.6329,1.0
1585600746,1.01239,1.04944,25.6458,1.0
1585611483,0.986142,1.02223,25.6443,1.0
1585912419,0.549805,0.569958,25.6715,1.0
1585923169,0.683552,0.708601,25.6715,1.0
1585933991,0.792662,0.821667,25.6401,1.0
1585944822,0.878944,0.911085,25.6258,1.0
1585955510,0.943671,0.978171,25.6215,1.0
1585966276,0.990333,1.02654,25.6229,1.0
1585976994,1.02411,1.06159,25.6443,1.0
1585987758,1.05244,1.09095,25.6401,1.0
1585998503,1.08525,1.12498,25.6501,1.0
1586041438,1.28751,1.3346,25.6272,1.0
1586052246,1.3369,1.3858,25.6243,1.0
1586062944,1.38598,1.43673,25.6486,1.0
1586073661,1.43349,1.48593,25.6301,1.0
1586374569,0.85759,0.889132,25.742,1.0
1586385335,0.791467,0.820575,25.7406,1.0
1586396135,0.732886,0.759863,25.7592,1.0
1586406937,0.690946,0.716324,25.722,1.0
1586417635,0.670777,0.695466,25.7678,1.0
1586428403,0.682795,0.707919,25.7606,1.0
1586439146,0.721452,0.747881,25.6672,1.0
1586449945,0.773164,0.801454,25.6415,1.0
1586460700,0.827896,0.858168,25.6272,1.0
1586471389,0.884257,0.91661,25.6386,1.0
1586503630,1.06029,1.09907,25.6315,1.0
1586514330,1.10397,1.14438,25.6443,1.0
1586525049,1.13897,1.18065,25.6401,1.0
1586535785,1.16716,1.20988,25.6443,1.0
1586815158,1.70663,1.76908,25.6443,1.0
1586825909,1.70619,1.76892,25.742,1.0
1586836667,1.70311,1.7658,25.7649,1.0
1586847413,1.69683,1.75923,25.7449,1.0
1586858110,1.68465,1.74659,25.742,1.0
1586868829,1.66809,1.72944,25.7449,1.0
1586879554,1.65079,1.71147,25.7363,1.0
1586890337,1.63507,1.69519,25.7378,1.0
1586901088,1.62196,1.68159,25.7363,1.0
1586911786,1.61059,1.66977,25.7235,1.0
1586944017,1.58587,1.64419,25.7363,1.0
1586954713,1.58053,1.63872,25.7621,1.0
1586965517,1.58026,1.63844,25.7621,1.0
1586976240,1.58505,1.64337,25.7463,1.0
1587266300,0.222095,0.230264,25.7449,1.0
1587276999,-0.191562,-0.198605,25.7392,1.0
1587287736,-0.295538,-0.306394,25.7192,1.0
1587298426,-0.334188,-0.346478,25.7435,1.0
1587309254,-0.334691,-0.347009,25.7592,1.0
1587320008,-0.289254,-0.299893,25.7478,1.0
1587330744,-0.178815,-0.18536,25.6429,1.0
1587341465,0.191138,0.198134,25.6443,1.0
1587352232,0.341689,0.354187,25.6301,1.0
1587362927,0.460898,0.47777,25.6472,1.0
1587405863,0.70128,0.726933,25.6315,1.0
1587416628,0.712496,0.738607,25.6701,1.0
1587427464,0.729188,0.755906,25.6658,1.0
1587438157,0.747093,0.774436,25.6486,1.0
1587760465,0.777502,0.805981,25.6615,1.0
1587771168,0.844727,0.875683,25.6715,1.0
1587781900,0.900179,0.9331,25.6286,1.0
1587792602,0.940193,0.974562,25.6186,1.0
1587803342,0.968188,1.00362,25.6443,1.0
1587814040,0.988886,1.02507,25.6372,1.0
1587824747,1.00432,1.04123,25.7363,1.0
1587835476,1.01546,1.0528,25.7449,1.0
1587846217,1.01961,1.05708,25.7292,1.0
1587857059,1.01198,1.04916,25.7249,1.0
1587878443,0.980277,1.01634,25.7506,1.0
1587889138,0.964295,0.999802,25.7678,1.0
1587899832,0.944384,0.979079,25.7192,1.0
1587910557,0.918405,0.952162,25.7292,1.0
1588211362,-0.982536,-1.01862,25.7149,1.0
1588222114,-0.968169,-1.0038,25.7592,1.0
1588232820,-0.943335,-0.97802,25.7378,1.0
1588243679,-0.910587,-0.944127,25.7692,1.0
1588254377,-0.868932,-0.900892,25.7392,1.0
1588265141,-0.814373,-0.844338,25.7478,1.0
1588275848,-0.746534,-0.773972,25.7235,1.0
1588286605,-0.66595,-0.690442,25.7378,1.0
1588297349,-0.569896,-0.590842,25.7235,1.0
1588318811,-0.276439,-0.286555,25.6415,1.0
1588329561,0.23707,0.245744,25.6401,1.0
1588340265,0.442209,0.458398,25.6501,1.0
1588351063,0.585049,0.606461,25.6443,1.0
1588652184,1.06556,1.10457,25.6458,1.0
1588662877,1.10817,1.14875,25.6529,1.0
1588673568,1.14255,1.18434,25.6272,1.0
1588684266,1.16308,1.20566,25.6443,1.0
1588694967,1.17521,1.21824,25.6443,1.0
1588705726,1.18171,1.22499,25.6529,1.0
1588716472,1.17987,1.22304,25.6301,1.0
1588727174,1.16902,1.21182,25.6458,1.0
1588737915,1.14941,1.19147,25.6301,1.0
1588748675,1.12334,1.16444,25.6272,1.0
1588780940,1.04966,1.08806,25.6215,1.0
1588791644,1.03848,1.07655,25.6686,1.0
1588802408,1.0372,1.07517,25.6358,1.0
1589113866,1.36156,1.41135,25.62,1.0
1589124554,1.40806,1.45963,25.6472,1.0
1589135342,1.45371,1.50695,25.6458,1.0
1589146092,1.50584,1.56106,25.6758,1.0
1589156787,1.56392,1.62125,25.6686,1.0
1589167478,1.61672,1.67591,25.6472,1.0
1589178168,1.65676,1.71741,25.6472,1.0
1589188858,1.68581,1.74745,25.6243,1.0
1589199600,1.70608,1.76853,25.6443,1.0
1589210294,1.71673,1.77953,25.6301,1.0
1589242555,1.70153,1.76382,25.6443,1.0
1589253330,1.69167,1.75365,25.6601,1.0
1589264056,1.68569,1.74746,25.6658,1.0
1589274822,1.68469,1.74635,25.6401,1.0
1589564882,1.2603,1.30659,25.7106,1.0
1589575580,1.18055,1.22396,25.7349,1.0
1589586369,1.10649,1.14718,25.7363,1.0
1589597130,1.03963,1.07765,25.6258,1.0
1589607864,0.984752,1.02082,25.6586,1.0
1589618615,0.951191,0.986044,25.6644,1.0
1589629305,0.939544,0.973979,25.6701,1.0
1589640126,0.947899,0.982602,25.6472,1.0
1589650860,0.96912,1.00455,25.6172,1.0
1589661596,0.983537,1.01951,25.6286,1.0
1589704580,0.954414,0.989505,25.742,1.0
1589715350,0.933739,0.968065,25.7392,1.0
1589726116,0.903825,0.937025,25.722,1.0
1590016219,-0.266925,-0.276697,25.6429,1.0
1590026951,0.145432,0.150755,25.6401,1.0
1590037744,0.351961,0.364846,25.6443,1.0
1590048481,0.475425,0.492838,25.6529,1.0
1590059237,0.551321,0.571493,25.6315,1.0
1590069940,0.592938,0.614645,25.6443,1.0
1590080695,0.622674,0.645474,25.6529,1.0
1590091448,0.645404,0.669135,25.7406,1.0
1590102165,0.650144,0.674047,25.7392,1.0
1590112929,0.631957,0.655191,25.7392,1.0
1590155916,0.434036,0.449987,25.722,1.0
1590166637,0.379776,0.393749,25.7449,1.0
1590177394,0.344485,0.357159,25.7449,1.0
1590188089,0.343235,0.355858,25.742,1.0
1590478386,1.35675,1.4064,25.6472,1.0
1590489108,1.40145,1.45274,25.6429,1.0
1590499880,1.43664,1.48919,25.6243,1.0
1590510647,1.46275,1.51632,25.6501,1.0
1590521438,1.48111,1.53527,25.62,1.0
1590532130,1.49326,1.54799,25.6658,1.0
1590542835,1.5022,1.55713,25.6186,1.0
1590553564,1.51026,1.56556,25.6472,1.0
1590564308,1.52168,1.57739,25.6443,1.0
1590618041,1.62092,1.68053,25.7435,1.0
1590628811,1.63773,1.69794,25.7392,1.0
1590639510,1.65085,1.71151,25.7235,1.0
1590650275,1.66012,1.72119,25.7478,1.0
1590940060,0.868595,0.900352,25.6243,1.0
1590950784,0.811254,0.840943,25.6443,1.0
1590961542,0.747243,0.774589,25.6443,1.0
1590972321,0.68568,0.710769,25.6401,1.0
1590983015,0.628032,0.651027,25.6443,1.0
1590993742,0.57029,0.591163,25.6372,1.0
1591004434,0.514362,0.533211,25.6615,1.0
1591015253,0.465109,0.48214,25.6472,1.0
1591026015,0.422842,0.438326,25.6472,1.0
1591036706,0.385425,0.399537,25.6458,1.0
1591068955,0.23331,0.241851,25.6458,1.0
1591079746,0.0571272,0.0592186,25.6472,1.0
1591090437,-0.209899,-0.217616,25.7378,1.0
1591101155,-0.306137,-0.317398,25.742,1.0
1591401699,-1.25809,-1.30413,25.6443,1.0
1591412422,-1.26226,-1.3084,25.6229,1.0
1591423189,-1.27114,-1.31761,25.6215,1.0
1591433891,-1.28123,-1.32814,25.6486,1.0
1591444618,-1.28641,-1.3335,25.6472,1.0
1591455317,-1.28478,-1.33184,25.6615,1.0
1591466077,-1.27738,-1.32418,25.6715,1.0
1591476908,-1.26712,-1.31348,25.6429,1.0
1591487635,-1.25758,-1.30359,25.6386,1.0
1591498369,-1.25125,-1.29702,25.6372,1.0
1591541305,-1.24504,-1.29061,25.6443,1.0
1591552044,-1.23743,-1.28267,25.6215,1.0
1591562750,-1.22866,-1.27364,25.6501,1.0
1591917407,-0.558828,-0.579354,25.7235,1.0
1591928161,-0.509496,-0.528247,25.7649,1.0
1591938860,-0.445283,-0.461668,25.7606,1.0
1591949624,-0.353761,-0.366768,25.7406,1.0
1591960399,-0.228944,-0.237353,25.7192,1.0
1591971174,0.131488,0.136322,25.7392,1.0
1591981946,0.289254,0.299829,25.6215,1.0
1591992778,0.380579,0.394498,25.6301,1.0
1592003510,0.442646,0.458834,25.6301,1.0
1592014263,0.48393,0.501626,25.6286,1.0
1592046474,0.546829,0.566846,25.6501,1.0
1592057175,0.544878,0.564824,25.6501,1.0
1592067884,0.538717,0.558422,25.6329,1.0
1592078678,0.522281,0.541467,25.7235,1.0
1592089421,0.486113,0.503983,25.7392,1.0
1592379404,-0.80854,-0.838102,25.6286,1.0
1592390093,-0.797706,-0.82692,25.6629,1.0
1592400787,-0.780444,-0.808978,25.6272,1.0
1592411481,-0.762686,-0.790583,25.6401,1.0
1592422193,-0.74731,-0.774679,25.6672,1.0
1592432956,-0.736675,-0.763651,25.6644,1.0
1592443682,-0.734796,-0.761681,25.6472,1.0
1592454389,-0.745215,-0.772478,25.6443,1.0
1592465114,-0.766433,-0.794455,25.6215,1.0
1592475836,-0.790585,-0.819651,25.7392,1.0
1592508125,-0.834699,-0.865383,25.7363,1.0
1592518874,-0.845169,-0.876216,25.722,1.0
1592529593,-0.852681,-0.884026,25.7363,1.0
1592819890,0.533267,0.552862,25.7263,1.0
1592830581,0.514992,0.533931,25.742,1.0
1592841414,0.493564,0.511734,25.7649,1.0
1592852169,0.460723,0.477666,25.742,1.0
1592862887,0.411768,0.426915,25.7478,1.0
1592873592,0.356776,0.369894,25.7378,1.0
1592884292,0.295496,0.306351,25.7192,1.0
1592895032,0.212171,0.219971,25.7378,1.0
1592905850,-0.0491578,-0.0509653,25.742,1.0
1592916587,-0.219017,-0.227064,25.7249,1.0
1592970265,0.54001,0.559774,25.6429,1.0
1592980982,0.67289,0.697516,25.6415,1.0
1592991680,0.802028,0.831378,25.6443,1.0
1593002451,0.927199,0.96113,25.6443,1.0
1593335603,0.747268,0.774743,25.742,1.0
1593346313,0.714992,0.741273,25.7363,1.0
1593357050,0.683078,0.708073,25.6415,1.0
1593367754,0.649233,0.67297,25.6229,1.0
1593378541,0.611715,0.634105,25.6443,1.0
1593389294,0.570988,0.591869,25.6258,1.0
1593400040,0.526663,0.545937,25.6415,1.0
1593410785,0.48429,0.502034,25.6658,1.0
1593421510,0.45225,0.468805,25.6472,1.0
1593432323,0.433131,0.448999,25.6686,1.0
1593475365,0.443208,0.459429,25.6429,1.0
1593486055,0.440884,0.457038,25.6672,1.0
1593496753,0.451437,0.467971,25.6586,1.0
1593797201,1.12718,1.16862,25.742,1.0
1593807929,1.16776,1.21068,25.7392,1.0
1593818687,1.2085,1.25293,25.742,1.0
1593829417,1.24802,1.29386,25.7235,1.0
1593840165,1.2845,1.33169,25.7306,1.0
1593850907,1.31986,1.36833,25.7192,1.0
1593861653,1.35692,1.40657,25.6429,1.0
1593872373,1.39434,1.44536,25.6415,1.0
1593883163,1.43047,1.48281,25.6429,1.0
1593893901,1.4643,1.51783,25.6243,1.0
1593926162,1.5519,1.60864,25.6258,1.0
1593936891,1.57818,1.63586,25.6172,1.0
1593947622,1.60667,1.66546,25.6429,1.0
1594248603,0.292679,0.303444,25.7435,1.0
1594259299,-0.160419,-0.166314,25.722,1.0
1594270043,-0.338061,-0.350498,25.7478,1.0
1594280801,-0.415682,-0.430972,25.7449,1.0
1594291548,-0.449071,-0.465585,25.7392,1.0
1594302342,-0.465524,-0.482647,25.7449,1.0
1594313077,-0.487903,-0.505832,25.7235,1.0
1594323780,-0.522913,-0.542139,25.7363,1.0
1594334540,-0.562958,-0.583679,25.7592,1.0
1594345271,-0.592055,-0.613842,25.7621,1.0
1594398999,-0.554588,-0.574877,25.6386,1.0
1594409738,-0.525538,-0.54477,25.6443,1.0
1594420485,-0.460817,-0.47768,25.6429,1.0
1594431252,-0.353603,-0.366546,25.6501,1.0
1594721447,0.824021,0.854306,25.7278,1.0
1594732193,0.749781,0.777362,25.7463,1.0
1594742942,0.672399,0.696987,25.62,1.0
1594753724,0.588213,0.609744,25.6415,1.0
1594764423,0.493488,0.511535,25.6243,1.0
1594775181,0.382765,0.396778,25.6472,1.0
1594785914,0.242498,0.251374,25.6429,1.0
1594796669,-0.157006,-0.162752,25.6429,1.0
1594807473,-0.333591,-0.345802,25.6443,1.0
1594818227,-0.439964,-0.456064,25.6401,1.0
1594850378,-0.623014,-0.645916,25.7363,1.0
1594861110,-0.66968,-0.694304,25.742,1.0
1594871895,-0.72121,-0.747728,25.7363,1.0
1595162120,1.42649,1.47864,25.6158,1.0
1595172849,1.48104,1.53526,25.6443,1.0
1595183537,1.53472,1.59091,25.6472,1.0
1595194277,1.58284,1.64077,25.6415,1.0
1595205015,1.61873,1.67799,25.6472,1.0
1595215849,1.64494,1.70515,25.6443,1.0
1595226605,1.66518,1.72615,25.6529,1.0
1595237295,1.68052,1.74233,25.7449,1.0
1595248037,1.69123,1.75343,25.742,1.0
1595258821,1.69627,1.7586,25.722,1.0
1595301771,1.67383,1.73531,25.7163,1.0
1595312524,1.65583,1.71669,25.7306,1.0
1595323322,1.63102,1.69098,25.7363,1.0
1595334046,1.59983,1.65869,25.7521,1.0
1595613329,-0.335026,-0.347304,25.6701,1.0
1595624075,-0.39201,-0.406374,25.6672,1.0
1595634789,-0.419159,-0.434572,25.742,1.0
1595645513,-0.436568,-0.45261,25.7263,1.0
1595656295,-0.454229,-0.470926,25.7349,1.0
1595667031,-0.465028,-0.482131,25.7449,1.0
1595677753,-0.463566,-0.480601,25.7249,1.0
1595688503,-0.465898,-0.483032,25.742,1.0
1595699202,-0.483209,-0.50097,25.7306,1.0
1595709965,-0.503384,-0.521904,25.7506,1.0
1595763662,-0.543539,-0.56343,25.6401,1.0
1595774408,-0.542232,-0.562082,25.6486,1.0
1595785155,-0.536307,-0.555935,25.6443,1.0
1595795924,-0.526308,-0.545569,25.6429,1.0
1596128912,1.34617,1.39561,25.7192,1.0
1596139640,1.31047,1.35866,25.7463,1.0
1596150397,1.256,1.30212,25.7163,1.0
1596161133,1.19088,1.23467,25.7449,1.0
1596171876,1.11619,1.15723,25.7406,1.0
1596182637,1.03461,1.0727,25.7678,1.0
1596193341,0.955992,0.991174,25.7606,1.0
1596204078,0.887975,0.92065,25.7578,1.0
1596214845,0.831417,0.861997,25.7392,1.0
1596225601,0.781704,0.810437,25.7249,1.0
1596236381,0.733565,0.760397,25.6215,1.0
1596247122,0.680492,0.705381,25.62,1.0
1596257816,0.616866,0.639427,25.62,1.0
1596268575,0.543459,0.563357,25.6443,1.0
1596580080,1.18383,1.22734,25.7363,1.0
1596590812,1.18185,1.2253,25.7435,1.0
1596601514,1.18573,1.22932,25.742,1.0
1596612294,1.19383,1.23768,25.7235,1.0
1596623066,1.20311,1.24711,25.6272,1.0
1596633758,1.21329,1.25769,25.6415,1.0
1596644467,1.22776,1.27276,25.6658,1.0
1596655168,1.24707,1.29267,25.6215,1.0
1596665962,1.26794,1.31436,25.6472,1.0
1596687532,1.29394,1.34129,25.6243,1.0
1596698265,1.29393,1.34133,25.6486,1.0
1596709062,1.28696,1.33406,25.6258,1.0
1596719761,1.26912,1.31555,25.6186,1.0
1597020332,1.09604,1.13629,25.7178,1.0
1597031083,1.0629,1.10198,25.742,1.0
1597041816,1.03154,1.06948,25.7492,1.0
1597052707,1.00716,1.04421,25.7463,1.0
1597063443,0.986938,1.02323,25.7406,1.0
1597074176,0.967036,1.00259,25.7392,1.0
1597084877,0.945076,0.979791,25.7192,1.0
1597095692,0.913769,0.947343,25.7192,1.0
1597106458,0.869362,0.901336,25.7406,1.0
1597117212,0.820635,0.850691,25.6515,1.0
1597149380,0.708912,0.734858,25.6472,1.0
1597160188,0.680355,0.705258,25.6486,1.0
1597170905,0.656721,0.680734,25.6272,1.0
1597181628,0.641678,0.665156,25.6401,1.0
1597503994,1.43519,1.48803,25.7678,1.0
1597514691,1.4294,1.48177,25.6658,1.0
1597525442,1.42503,1.47718,25.6415,1.0
1597536195,1.41944,1.47141,25.6501,1.0
1597546942,1.41116,1.46278,25.6286,1.0
1597557738,1.39798,1.44909,25.62,1.0
1597568437,1.37957,1.43007,25.6458,1.0
1597579132,1.35991,1.40974,25.6629,1.0
1597589874,1.34158,1.39069,25.6429,1.0
1597600569,1.32325,1.37169,25.6443,1.0
1597632817,1.26111,1.30748,25.742,1.0
1597643562,1.23054,1.27573,25.7192,1.0
1597654267,1.19128,1.23508,25.742,1.0
1597664989,1.14685,1.189,25.7378,1.0
1597944085,1.23982,1.28537,25.7249,1.0
1597954801,1.25601,1.30217,25.7406,1.0
1597965555,1.27646,1.32333,25.7206,1.0
1597976307,1.29596,1.3436,25.7449,1.0
1597987064,1.31476,1.36307,25.7349,1.0
1597997802,1.33014,1.379,25.7292,1.0
1598008537,1.33579,1.38491,25.7406,1.0
1598019299,1.3333,1.38228,25.7178,1.0
1598030078,1.3254,1.37414,25.7406,1.0
1598040821,1.31408,1.3624,25.742,1.0
1598083800,1.30309,1.35096,25.7249,1.0
1598094599,1.33041,1.37932,25.7392,1.0
1598105328,1.36778,1.41807,25.7435,1.0
1598116044,1.41416,1.4659,25.6401,1.0
1598406192,1.9035,1.97326,25.6615,1.0
1598416950,1.95508,2.02675,25.6658,1.0
1598427695,2.01048,2.08416,25.6601,1.0
1598438447,2.0649,2.14055,25.6586,1.0
1598449247,2.11908,2.19668,25.6501,1.0
1598459967,2.17078,2.25015,25.6186,1.0
1598470665,2.21541,2.29654,25.6501,1.0
1598481413,2.25335,2.33586,25.6501,1.0
1598492178,2.28701,2.37079,25.6672,1.0
1598502917,2.31717,2.40236,25.742,1.0
1598545889,2.4072,2.49573,25.7435,1.0
1598556623,2.42738,2.51666,25.7435,1.0
1598567362,2.45178,2.54192,25.7378,1.0
1598578111,2.47889,2.56998,25.7249,1.0
1598879014,3.01072,3.12083,25.6272,1.0
1598889783,3.02309,3.13359,25.6158,1.0
1598900568,3.03782,3.14952,25.7392,1.0
1598911367,3.05683,3.16923,25.742,1.0
1598922064,3.07919,3.19242,25.742,1.0
1598932836,3.10346,3.21762,25.7478,1.0
1598943565,3.1306,3.24575,25.7449,1.0
1598954337,3.16166,3.27804,25.7635,1.0
1598965090,3.19571,3.31335,25.7635,1.0
1598975807,3.23164,3.35063,25.7678,1.0
1599018788,3.38048,3.5047,25.7292,1.0
1599029484,3.41459,3.54016,25.7449,1.0
1599040222,3.44839,3.57513,25.722,1.0
1599050978,3.4833,3.6114,25.7349,1.0
1599330293,4.43005,4.59298,25.7392,1.0
1599340998,4.42934,4.59214,25.7249,1.0
1599351693,4.43074,4.59359,25.7249,1.0
1599362387,4.43642,4.59961,25.742,1.0
1599373114,4.44566,4.60917,25.7378,1.0
1599383809,4.45669,4.62062,25.7406,1.0
1599394546,4.47079,4.63523,25.7392,1.0
1599405271,4.48692,4.65201,25.7463,1.0
1599415997,4.503,4.66884,25.7649,1.0
1599426700,4.52213,4.68872,25.7706,1.0
1599469710,4.60864,4.77812,25.7292,1.0
1599480431,4.62224,4.79235,25.7449,1.0
1599491149,4.63476,4.80534,25.7463,1.0
1599501843,4.64918,4.82012,25.7249,1.0
1599791966,5.40133,5.60006,25.7435,1.0
1599802708,5.4127,5.61191,25.7492,1.0
1599813452,5.42639,5.62579,25.7163,1.0
1599824187,5.44066,5.64067,25.7249,1.0
1599834954,5.45435,5.65504,25.7435,1.0
1599845709,5.46741,5.6684,25.7235,1.0
1599856444,5.47948,5.6809,25.722,1.0
1599867235,5.491,5.69289,25.7278,1.0
1599877943,5.50346,5.70602,25.7492,1.0
1599931598,5.57038,5.7753,25.742,1.0
1599942385,5.58604,5.79154,25.7449,1.0
1599953132,5.60342,5.80956,25.7449,1.0
1599963883,5.6219,5.82847,25.7192,1.0
1600307860,6.53932,6.77974,25.722,1.0
1600318593,6.56039,6.80173,25.7349,1.0
1600329311,6.5806,6.82272,25.7406,1.0
1600340043,6.59934,6.84183,25.712,1.0
1600350791,6.61642,6.8599,25.7435,1.0
1600361511,6.63377,6.87823,25.7735,1.0
1600372256,6.6522,6.89726,25.7606,1.0
1600383023,6.6697,6.91515,25.7378,1.0
1600393752,6.68612,6.93218,25.7392,1.0
1600404532,6.70233,6.94905,25.7449,1.0
1600447691,6.76235,7.01112,25.732,1.0
1600458393,6.77881,7.02833,25.7435,1.0
1600469119,6.79886,7.04915,25.7463,1.0
1600479816,6.82369,7.0752,25.7721,1.0
1600769544,7.34839,7.61889,25.742,1.0
1600780269,7.3524,7.62311,25.7478,1.0
1600790993,7.35533,7.62582,25.722,1.0
1600801734,7.35773,7.62888,25.7663,1.0
1600812466,7.35982,7.63037,25.7192,1.0
1600823223,7.36115,7.63184,25.7263,1.0
1600833958,7.36142,7.63209,25.7249,1.0
1600844685,7.36033,7.631,25.7278,1.0
1600855457,7.35732,7.6281,25.7449,1.0
1600866205,7.35396,7.62465,25.7463,1.0
1600898458,7.3516,7.62226,25.7506,1.0
1600909220,7.35248,7.62308,25.7435,1.0
1600919947,7.3531,7.62346,25.7235,1.0
1600930690,7.35485,7.62584,25.7678,1.0
1601220689,7.41521,7.68687,25.6443,1.0
1601231391,7.42689,7.69914,25.6529,1.0
1601242118,7.43939,7.71199,25.6443,1.0
1601252840,7.45329,7.72627,25.6343,1.0
1601263567,7.46865,7.74234,25.6458,1.0
1601274330,7.48469,7.75929,25.6701,1.0
1601285055,7.49996,7.77445,25.6186,1.0
1601295797,7.51371,7.78868,25.6286,1.0
1601306498,7.52676,7.80237,25.6415,1.0
1601317190,7.54001,7.81618,25.6472,1.0
1601370767,7.57851,7.85584,25.6258,1.0
1601381469,7.57915,7.85704,25.6658,1.0
1601392200,7.57842,7.85634,25.6629,1.0
1601402997,7.57685,7.85472,25.6644,1.0
1601682351,7.50913,7.78511,25.7135,1.0
1601693049,7.49924,7.77496,25.722,1.0
1601703743,7.48754,7.7628,25.7192,1.0
1601714497,7.47408,7.74908,25.742,1.0
1601725194,7.46214,7.737,25.7649,1.0
1601735987,7.45535,7.72997,25.7663,1.0
1601746739,7.45368,7.72771,25.7249,1.0
1601757467,7.45388,7.7281,25.7392,1.0
1601768188,7.45386,7.72655,25.6215,1.0
1601778910,7.45408,7.72713,25.6458,1.0
1601832690,7.47844,7.7526,25.6501,1.0
1601843401,7.4796,7.75384,25.6529,1.0
1601854192,7.47875,7.75289,25.6472,1.0
1601864916,7.47688,7.75089,25.6429,1.0
1602155012,7.6616,7.94372,25.7449,1.0
1602165768,7.67204,7.95459,25.7478,1.0
1602176520,7.68111,7.96387,25.7392,1.0
1602187268,7.69011,7.97361,25.7692,1.0
1602197959,7.70077,7.98425,25.742,1.0
1602208698,7.71194,7.99575,25.7363,1.0
1602219398,7.72341,8.00746,25.7235,1.0
1602230124,7.73525,8.01961,25.7135,1.0
1602240825,7.7469,8.03211,25.7449,1.0
1602273039,7.78767,8.07275,25.6301,1.0
1602283879,7.80098,8.08644,25.6215,1.0
1602294568,7.81391,8.10002,25.6343,1.0
1602305297,7.8257,8.11245,25.6472,1.0
1602595347,7.6691,7.95,25.6443,1.0
1602606150,7.65779,7.93792,25.6172,1.0
1602616843,7.6466,7.92638,25.6215,1.0
1602627567,7.63756,7.91725,25.6415,1.0
1602638339,7.63133,7.91087,25.6472,1.0
1602649129,7.62717,7.90682,25.6672,1.0
1602659832,7.62586,7.90552,25.6715,1.0
1602670558,7.62682,7.90633,25.6572,1.0
1602681289,7.6285,7.908,25.6429,1.0
1602692042,7.63224,7.91196,25.6486,1.0
1602745687,7.67856,7.95984,25.6429,1.0
1602756483,7.68494,7.96646,25.6443,1.0
1602767199,7.69014,7.97184,25.6429,1.0
1602777957,7.69364,7.97528,25.6286,1.0
1603078735,7.53354,7.80926,25.62,1.0
1603089457,7.536,7.81211,25.6429,1.0
1603100156,7.5386,7.81471,25.6358,1.0
1603110848,7.54084,7.81683,25.6272,1.0
1603121542,7.54155,7.81755,25.6258,1.0
1603132268,7.54055,7.81681,25.6486,1.0
1603142959,7.53828,7.81422,25.6301,1.0
1603153684,7.53493,7.81225,25.7449,1.0
1603164455,7.52998,7.80682,25.7135,1.0
1603196675,7.50681,7.78284,25.7163,1.0
1603207400,7.49987,7.77567,25.7178,1.0
1603218207,7.49355,7.7692,25.7192,1.0
1603228908,7.48886,7.765,25.7692,1.0
1603518609,7.73331,8.01686,25.6515,1.0
1603529332,7.74284,8.02653,25.6358,1.0
1603540102,7.74959,8.03357,25.6443,1.0
1603550934,7.75359,8.03872,25.7192,1.0
1603561626,7.75543,8.04098,25.7449,1.0
1603572347,7.75479,8.04038,25.7506,1.0
1603583093,7.75354,8.03898,25.742,1.0
1603593814,7.75389,8.0393,25.742,1.0
1603604634,7.75441,8.03947,25.7149,1.0
1603615369,7.75299,8.03836,25.742,1.0
1603658351,7.73153,8.01465,25.6258,1.0
1603669075,7.72433,8.00734,25.6372,1.0
1603679846,7.71755,8.00022,25.6301,1.0
1603690554,7.71111,7.99406,25.6686,1.0
1603969547,7.66746,7.94985,25.742,1.0
1603980302,7.66269,7.94496,25.7463,1.0
1603990999,7.65946,7.94153,25.7406,1.0
1604001830,7.65744,7.93931,25.7306,1.0
1604012597,7.65523,7.93684,25.7178,1.0
1604023345,7.65227,7.93388,25.742,1.0
1604034038,7.65043,7.93204,25.7463,1.0
1604044792,7.65068,7.93075,25.6301,1.0
1604055541,7.65212,7.93239,25.6415,1.0
1604066269,7.65296,7.93339,25.6515,1.0
1604120026,7.64584,7.92593,25.6458,1.0
1604130723,7.64719,7.92727,25.6415,1.0
1604141446,7.6492,7.92911,25.6229,1.0
1604152221,7.65177,7.93357,25.7592,1.0
1604162964,7.65537,7.93723,25.7535,1.0
1604484897,7.84274,8.13001,25.6458,1.0
1604495637,7.83951,8.12687,25.6615,1.0
1604506394,7.83563,8.1227,25.6415,1.0
1604517211,7.83012,8.11709,25.6486,1.0
1604527928,7.82307,8.10972,25.6443,1.0
1604538666,7.81536,8.10147,25.6258,1.0
1604549401,7.80671,8.09258,25.6315,1.0
1604560180,7.7969,8.08254,25.6458,1.0
1604570918,7.78664,8.07157,25.6215,1.0
1604581654,7.77592,8.06079,25.6458,1.0
1604624613,7.7301,8.01337,25.6472,1.0
1604635343,7.72077,8.00364,25.6429,1.0
1604646093,7.7104,7.99431,25.7492,1.0
1604656857,7.69948,7.98267,25.7249,1.0
1604947081,7.68591,7.96744,25.6472,1.0
1604957773,7.67629,7.95771,25.6644,1.0
1604968577,7.67057,7.95158,25.6501,1.0
1604979312,7.66864,7.94987,25.6715,1.0
1604990010,7.66815,7.9491,25.6415,1.0
1605000715,7.66758,7.9486,25.6486,1.0
1605011473,7.6676,7.94853,25.6415,1.0
1605022294,7.66835,7.94907,25.6243,1.0
1605033065,7.66955,7.95062,25.6472,1.0
1605086724,7.66963,7.95096,25.6658,1.0
1605097467,7.6699,7.95088,25.6386,1.0
1605108203,7.6711,7.95209,25.6358,1.0
1605409063,7.68342,7.96636,25.7449,1.0
1605419789,7.68284,7.9657,25.7406,1.0
1605430504,7.68296,7.96482,25.6658,1.0
1605441230,7.68468,7.9667,25.6729,1.0
1605452028,7.68863,7.97076,25.6701,1.0
1605462753,7.69532,7.97729,25.6401,1.0
1605473495,7.70399,7.98628,25.6472,1.0
1605484233,7.71357,7.99594,25.6272,1.0
1605494961,7.72401,8.00734,25.6701,1.0
1605548656,7.76241,8.04723,25.6701,1.0
1605559354,7.76382,8.04826,25.6386,1.0
1605570120,7.76279,8.04696,25.6272,1.0
1605580811,7.76095,8.04522,25.6401,1.0
1605881953,7.7459,8.0314,25.7606,1.0
1605892652,7.74306,8.02847,25.7678,1.0
1605903410,7.7404,8.0253,25.7378,1.0
1605914144,7.73694,8.02177,25.742,1.0
1605924867,7.73326,8.0164,25.6258,1.0
1605935637,7.73018,8.01348,25.6458,1.0
1605946380,7.72768,8.01063,25.6272,1.0
1605957115,7.72566,8.00873,25.6401,1.0
1605967911,7.72422,8.00729,25.6443,1.0
1605989336,7.72414,8.00718,25.6429,1.0
1606000060,7.72396,8.00694,25.6429,1.0
1606010846,7.72231,8.00544,25.6586,1.0
1606021573,7.71975,8.00233,25.6243,1.0
1606032330,7.71745,8.00157,25.7463,1.0
1606333342,7.77204,8.05674,25.6329,1.0
1606344037,7.78591,8.07121,25.6401,1.0
1606354796,7.80067,8.08657,25.6443,1.0
1606365493,7.81493,8.10167,25.6672,1.0
1606376362,7.82903,8.11623,25.6672,1.0
1606387149,7.84298,8.13048,25.6515,1.0
1606397863,7.85499,8.14283,25.6443,1.0
1606408557,7.86401,8.15218,25.6443,1.0
1606419270,7.87062,8.16031,25.7378,1.0
1606429971,7.87521,8.16481,25.7192,1.0
1606462169,7.87547,8.16541,25.742,1.0
1606472996,7.8723,8.16213,25.742,1.0
1606483716,7.86757,8.15733,25.7463,1.0
1606773827,7.7317,8.01485,25.6315,1.0
1606784558,7.72425,8.00734,25.6472,1.0
1606795304,7.71681,7.99965,25.6486,1.0
1606806062,7.71136,7.99429,25.6715,1.0
1606816802,7.70848,7.99086,25.6386,1.0
1606827550,7.70708,7.98949,25.6443,1.0
1606838297,7.70712,7.98936,25.6315,1.0
1606849036,7.70761,7.98983,25.6286,1.0
1606859816,7.70787,7.9904,25.6443,1.0
1606870604,7.70917,7.9918,25.6486,1.0
1606935026,7.73235,8.01597,25.6672,1.0
1606945797,7.73856,8.02218,25.6501,1.0
1606956594,7.74347,8.02687,25.62,1.0
1606967316,7.746,8.02959,25.6272,1.0
1607246650,7.72766,8.01082,25.6443,1.0
1607257392,7.72471,8.00773,25.6415,1.0
1607268137,7.72204,8.00538,25.6729,1.0
1607278845,7.7199,8.0027,25.6386,1.0
1607289543,7.7179,8.00066,25.6415,1.0
1607300265,7.71562,7.99817,25.6315,1.0
1607310959,7.71356,7.99626,25.6486,1.0
1607321655,7.71264,7.99502,25.6272,1.0
1607332356,7.71243,7.99475,25.6229,1.0
1607396797,7.70656,7.98925,25.6644,1.0
1607407575,7.70608,7.98875,25.6644,1.0
1607418350,7.70643,7.99053,25.7706,1.0
1607429047,7.70698,7.99078,25.7463,1.0
1607708313,7.74902,8.03413,25.7263,1.0
1607719026,7.75268,8.03778,25.7192,1.0
1607729894,7.75474,8.04057,25.7678,1.0
1607740616,7.75588,8.04121,25.7278,1.0
1607751361,7.75668,8.04196,25.722,1.0
1607762058,7.75772,8.04327,25.7392,1.0
1607772849,7.75959,8.04506,25.7263,1.0
1607783624,7.76225,8.04804,25.742,1.0
1607794377,7.76581,8.05173,25.742,1.0
1607805104,7.77091,8.05568,25.6429,1.0
1607837349,7.78358,8.06859,25.6243,1.0
1607848143,7.78545,8.07116,25.6715,1.0
1607859018,7.78786,8.07339,25.6515,1.0
1607869741,7.78948,8.07505,25.6501,1.0
1608170491,7.70692,7.99057,25.7378,1.0
1608181268,7.70978,7.99361,25.7435,1.0
1608192055,7.71693,8.00135,25.7678,1.0
1608202750,7.72619,8.00968,25.6686,1.0
1608213467,7.73405,8.01724,25.6243,1.0
1608224182,7.73977,8.02348,25.6472,1.0
1608234952,7.74554,8.02949,25.6501,1.0
1608245694,7.75257,8.03669,25.6429,1.0
1608256448,7.75955,8.04399,25.6443,1.0
1608267199,7.7652,8.04963,25.6286,1.0
1608320739,7.76202,8.04817,25.7649,1.0
1608331441,7.75828,8.04394,25.7392,1.0
1608342133,7.75182,8.03709,25.7278,1.0
1608352857,7.74441,8.02964,25.7449,1.0
1608631665,7.58728,7.86528,25.6215,1.0
1608642359,7.59905,7.8778,25.6458,1.0
1608653102,7.61255,7.89176,25.6429,1.0
1608663857,7.62526,7.90527,25.6686,1.0
1608674586,7.63609,7.9162,25.6458,1.0
1608685420,7.64496,7.92516,25.6458,1.0
1608696113,7.65179,7.93351,25.742,1.0
1608706825,7.6581,7.94009,25.7449,1.0
1608717587,7.66487,7.94711,25.7449,1.0
1608760569,7.69296,7.9763,25.7463,1.0
1608771285,7.70131,7.985,25.7492,1.0
1608782057,7.70916,7.99289,25.7278,1.0
1608792813,7.71383,7.99767,25.7235,1.0
1608803549,7.71575,7.99837,25.6272,1.0
1609093821,7.95238,8.24511,25.7235,1.0
1609104568,7.95544,8.24833,25.7263,1.0
1609115284,7.95749,8.25064,25.7392,1.0
1609126045,7.95728,8.25058,25.7506,1.0
1609136784,7.95353,8.24653,25.7392,1.0
1609147504,7.94831,8.2412,25.7449,1.0
1609158228,7.94456,8.2369,25.7149,1.0
1609168993,7.94222,8.23456,25.7192,1.0
1609179748,7.94021,8.23248,25.7192,1.0
1609212025,7.93485,8.22704,25.7278,1.0
1609222723,7.93329,8.22531,25.722,1.0
1609233431,7.93312,8.22573,25.7649,1.0
1609244199,7.93458,8.22721,25.7635,1.0
1609254951,7.93661,8.22899,25.7392,1.0
1609534396,7.71903,8.00337,25.7378,1.0
1609545168,7.70926,7.99332,25.742,1.0
1609555906,7.69944,7.98306,25.7363,1.0
1609566615,7.68836,7.9714,25.7235,1.0
1609577371,7.67714,7.96024,25.7592,1.0
1609588104,7.66578,7.94682,25.6372,1.0
1609598914,7.655,7.93552,25.6272,1.0
1609609747,7.64544,7.92583,25.6443,1.0
1609620523,7.63664,7.91648,25.6272,1.0
1609631375,7.62984,7.90936,25.6215,1.0
1609685081,7.61871,7.89905,25.7192,1.0
1609695852,7.61965,7.90067,25.7649,1.0
1609706570,7.62082,7.90189,25.7649,1.0
1609717292,7.62178,7.90232,25.722,1.0
1610007325,7.70439,7.98693,25.6458,1.0
1610018063,7.71331,7.99593,25.6272,1.0
1610028752,7.7225,8.00541,25.6229,1.0
1610039484,7.73014,8.01405,25.6686,1.0
1610050257,7.73586,8.01992,25.6644,1.0
1610061078,7.73891,8.02256,25.6258,1.0
1610071797,7.73799,8.02186,25.6443,1.0
1610082489,7.73326,8.01796,25.7192,1.0
1610093304,7.72551,8.01005,25.7406,1.0
1610104029,7.71531,7.99949,25.742,1.0
1610157746,7.65142,7.93373,25.7649,1.0
1610168467,7.64276,7.92454,25.7492,1.0
1610179227,7.63665,7.91706,25.6629,1.0
1610189962,7.63321,7.91318,25.6443,1.0
1610480003,7.67193,7.95331,25.6472,1.0
1610490705,7.68533,7.9674,25.6629,1.0
1610501447,7.69965,7.98215,25.6558,1.0
1610512139,7.71266,7.99536,25.6301,1.0
1610522831,7.72465,8.00771,25.6243,1.0
1610533528,7.73576,8.01927,25.6272,1.0
1610544266,7.74615,8.03002,25.6258,1.0
1610554964,7.75665,8.04117,25.6458,1.0
1610565679,7.7676,8.05254,25.6472,1.0
1610576440,7.77956,8.06623,25.7435,1.0
1610597973,7.80279,8.09027,25.7406,1.0
1610608739,7.81211,8.1001,25.7521,1.0
1610619433,7.82121,8.10964,25.7635,1.0
1610630257,7.83165,8.12016,25.7406,1.0
1610909541,7.69425,7.97745,25.7263,1.0
1610920361,7.6836,7.96669,25.7478,1.0
1610931141,7.67346,7.95608,25.7406,1.0
1610941834,7.6659,7.94826,25.742,1.0
1610952532,7.6624,7.94494,25.7649,1.0
1610963279,7.66244,7.94494,25.7621,1.0
1610973973,7.665,7.94599,25.6415,1.0
1610984774,7.66894,7.95019,25.6501,1.0
1610995558,7.6735,7.95485,25.6429,1.0
1611006317,7.67877,7.96005,25.6229,1.0
1611060036,7.70395,7.98662,25.6515,1.0
1611070802,7.7052,7.9878,25.6429,1.0
1611081539,7.7054,7.98813,25.6529,1.0
1611092276,7.70576,7.98863,25.6615,1.0
1611103019,7.706,7.98872,25.6501,1.0
1611382377,7.59696,7.87683,25.7449,1.0
1611393116,7.59412,7.87358,25.722,1.0
1611403880,7.59097,7.87036,25.7249,1.0
1611414609,7.58827,7.86752,25.722,1.0
1611425353,7.58726,7.86707,25.7578,1.0
1611436048,7.58853,7.86842,25.7606,1.0
1611446788,7.59192,7.87205,25.7692,1.0
1611457489,7.59714,7.87714,25.7449,1.0
1611468259,7.60293,7.88165,25.6315,1.0
1611511149,7.62215,7.90169,25.6486,1.0
1611521944,7.62368,7.90297,25.6258,1.0
1611532639,7.62478,7.90428,25.6386,1.0
1611543330,7.62643,7.90612,25.6529,1.0
1611833271,7.79468,8.0818,25.7463,1.0
1611844015,7.80724,8.09461,25.7306,1.0
1611854759,7.82029,8.10829,25.742,1.0
1611865471,7.83298,8.12029,25.6529,1.0
1611876201,7.84551,8.13321,25.6472,1.0
1611886958,7.85839,8.14656,25.6472,1.0
1611897699,7.87228,8.16127,25.6701,1.0
1611908470,7.88707,8.17607,25.6315,1.0
1611919245,7.90216,8.19193,25.6458,1.0
1611962148,7.94486,8.23754,25.7435,1.0
1611972893,7.95167,8.24436,25.7263,1.0
1611983638,7.95824,8.2512,25.7306,1.0
1611994367,7.96565,8.2589,25.732,1.0
1612273604,7.85493,8.14418,25.732,1.0
1612284389,7.84366,8.13263,25.742,1.0
1612295126,7.83296,8.12154,25.742,1.0
1612305830,7.82075,8.10881,25.7449,1.0
1612316584,7.80635,8.0938,25.7392,1.0
1612327277,7.79177,8.07875,25.7435,1.0
1612338098,7.77846,8.06469,25.7249,1.0
1612348903,7.76692,8.05326,25.7563,1.0
1612359596,7.75635,8.04083,25.6472,1.0
1612370323,7.7457,8.02973,25.6429,1.0
1612423958,7.69679,7.9791,25.6472,1.0
1612434651,7.69494,7.97716,25.6458,1.0
1612445345,7.696,7.97794,25.6215,1.0
1612456038,7.69937,7.9817,25.6415,1.0
1612466810,7.70395,7.98644,25.6458,1.0
1612767664,7.9028,8.19354,25.722,1.0
1612778365,7.90178,8.19275,25.742,1.0
1612789098,7.89905,8.19005,25.7463,1.0
1612799878,7.89531,8.18584,25.722,1.0
1612810631,7.89127,8.18191,25.7406,1.0
1612821392,7.88657,8.17685,25.7278,1.0
1612832084,7.88142,8.17181,25.7492,1.0
1612842880,7.87605,8.16603,25.7335,1.0
1612853620,7.86903,8.15734,25.6301,1.0
1612864494,7.85932,8.14717,25.6229,1.0
1612875184,7.84753,8.13502,25.6286,1.0
1612886006,7.83485,8.1218,25.6286,1.0
1612896698,7.82148,8.10792,25.6272,1.0
1612907461,7.80708,8.093,25.6272,1.0
1613218990,7.83603,8.12325,25.6415,1.0
1613229702,7.84456,8.13217,25.6472,1.0
1613240454,7.85299,8.14069,25.6315,1.0
1613251153,7.86074,8.14894,25.6472,1.0
1613261905,7.86716,8.15566,25.6515,1.0
1613272722,7.87136,8.16006,25.6586,1.0
1613283431,7.8725,8.1608,25.6258,1.0
1613294152,7.87216,8.16039,25.6215,1.0
1613304847,7.87173,8.16019,25.6401,1.0
1613315640,7.87061,8.15922,25.6486,1.0
1613337052,7.87087,8.15938,25.6415,1.0
1613347781,7.87284,8.1615,25.6472,1.0
1613358604,7.87477,8.16327,25.6301,1.0
1613369384,7.8761,8.16482,25.6472,1.0
1613669884,7.87235,8.1624,25.7506,1.0
1613680648,7.874,8.16399,25.742,1.0
1613691401,7.87495,8.16491,25.742,1.0
1613702161,7.87567,8.16569,25.7449,1.0
1613712928,7.87681,8.16687,25.7449,1.0
1613723673,7.87889,8.16895,25.7392,1.0
1613734369,7.88178,8.17209,25.7492,1.0
1613745081,7.88568,8.17499,25.6658,1.0
1613755851,7.89004,8.17915,25.6429,1.0
1613798803,7.89288,8.18204,25.6386,1.0
1613809580,7.8863,8.17513,25.6272,1.0
1613820326,7.87973,8.16855,25.6443,1.0
1613831071,7.8735,8.16218,25.6501,1.0
1614142840,7.84723,8.13488,25.6458,1.0
1614153532,7.84047,8.12786,25.6443,1.0
1614164321,7.83399,8.12114,25.6443,1.0
1614175014,7.82797,8.11462,25.6229,1.0
1614185718,7.82265,8.10938,25.6443,1.0
1614196456,7.81789,8.10465,25.6586,1.0
1614207182,7.81338,8.10007,25.6658,1.0
1614218028,7.80894,8.09487,25.6215,1.0
1614228725,7.80355,8.08958,25.6443,1.0
1614239434,7.79782,8.08367,25.6486,1.0
1614271700,7.7876,8.07296,25.6401,1.0
1614282412,7.78541,8.07074,25.6443,1.0
1614293143,7.78373,8.06913,25.6472,1.0
1614583447,7.79709,8.08281,25.6429,1.0
1614594137,7.79184,8.07718,25.6286,1.0
1614604825,7.78585,8.07116,25.6429,1.0
1614615540,7.77876,8.06394,25.6415,1.0
1614626479,7.77174,8.05665,25.6415,1.0
1614637215,7.76541,8.05013,25.6443,1.0
1614647913,7.76044,8.04502,25.6472,1.0
1614658638,7.75582,8.0403,25.6529,1.0
1614669331,7.75122,8.03571,25.6658,1.0
1614680112,7.74725,8.03122,25.6472,1.0
1614723017,7.74601,8.02988,25.6386,1.0
1614733875,7.74663,8.03168,25.7249,1.0
1614744631,7.74549,8.03074,25.742,1.0
1614755322,7.74268,8.02796,25.7521,1.0
1615023891,7.82343,8.11147,25.7378,1.0
1615034615,7.82734,8.11557,25.7406,1.0
1615045305,7.83023,8.11839,25.7235,1.0
1615056154,7.83106,8.11937,25.732,1.0
1615066885,7.82946,8.11754,25.7192,1.0
1615077673,7.82514,8.11316,25.7263,1.0
1615088370,7.81946,8.10728,25.7278,1.0
1615099125,7.81579,8.10361,25.742,1.0
1615109865,7.81572,8.1035,25.7392,1.0
1615120648,7.81862,8.10682,25.7621,1.0
1615185184,7.84552,8.1331,25.6386,1.0
1615196021,7.85132,8.13923,25.6472,1.0
1615206712,7.85652,8.14455,25.6486,1.0
1615217403,7.86011,8.14788,25.62,1.0
1615539772,7.86023,8.14971,25.7435,1.0
1615550518,7.85537,8.14457,25.7363,1.0
1615561306,7.85156,8.14068,25.7406,1.0
1615572020,7.84837,8.1377,25.7649,1.0
1615582761,7.84578,8.13515,25.7706,1.0
1615593492,7.84484,8.13395,25.7549,1.0
1615604242,7.84594,8.13482,25.7349,1.0
1615614980,7.84849,8.13753,25.7392,1.0
1615625746,7.85035,8.13821,25.6472,1.0
1615636496,7.84961,8.13715,25.6258,1.0
1615679467,7.83229,8.11909,25.6186,1.0
1615690215,7.82551,8.1122,25.6215,1.0
1615700969,7.81875,8.10548,25.6429,1.0
1615711717,7.81362,8.10024,25.6486,1.0
1616023382,8.01019,8.30352,25.6215,1.0
1616034132,8.01574,8.30994,25.6686,1.0
1616044883,8.0233,8.31772,25.6644,1.0
1616055630,8.03236,8.32682,25.6429,1.0
1616066345,8.04049,8.33523,25.6415,1.0
1616077106,8.04772,8.34242,25.62,1.0
1616087841,8.05433,8.34961,25.6443,1.0
1616098604,8.06108,8.35665,25.6472,1.0
1616109327,8.06782,8.36368,25.6501,1.0
1616120086,8.07403,8.36975,25.6215,1.0
1616163072,8.09619,8.39334,25.6658,1.0
1616173810,8.09873,8.39544,25.6315,1.0
1616184522,8.09922,8.39617,25.6472,1.0
1616195330,8.09804,8.39464,25.6258,1.0
1616474302,7.87823,8.16703,25.6443,1.0
1616485044,7.86859,8.15707,25.6472,1.0
1616495821,7.8623,8.15083,25.6701,1.0
1616506539,7.85993,8.14826,25.6615,1.0
1616517278,7.86037,8.14846,25.6429,1.0
1616527998,7.86345,8.15166,25.6429,1.0
1616538712,7.8682,8.1565,25.6372,1.0
1616549509,7.87279,8.16139,25.6472,1.0
1616560249,7.87804,8.16682,25.6429,1.0
1616624707,7.90737,8.19746,25.6644,1.0
1616635459,7.90914,8.19874,25.6243,1.0
1616646184,7.90842,8.19829,25.6458,1.0
1616657001,7.90513,8.19495,25.6515,1.0
1616947172,7.74459,8.02991,25.7463,1.0
1616957959,7.7364,8.02113,25.7249,1.0
1616968649,7.72993,8.01488,25.7592,1.0
1616979461,7.72476,8.0091,25.7278,1.0
1616990185,7.71906,8.00312,25.722,1.0
1617000884,7.71289,7.99666,25.7178,1.0
1617011687,7.70688,7.99075,25.742,1.0
1617022408,7.69993,7.98326,25.7206,1.0
1617033125,7.69177,7.97513,25.7449,1.0
1617043875,7.6835,7.96616,25.7192,1.0
1617065403,7.66935,7.95157,25.7249,1.0
1617076112,7.66482,7.94711,25.742,1.0
1617086852,7.66215,7.94452,25.7563,1.0
1617097618,7.66051,7.94263,25.7363,1.0
1617108350,7.65919,7.94008,25.6472,1.0
1617387611,7.75178,8.03745,25.7449,1.0
1617398303,7.76649,8.0527,25.7449,1.0
1617409064,7.78151,8.0669,25.6429,1.0
1617419789,7.79788,8.08368,25.6329,1.0
1617430614,7.81497,8.1018,25.6629,1.0
1617441364,7.83138,8.11885,25.6658,1.0
1617452069,7.84765,8.13539,25.6415,1.0
1617462823,7.86438,8.15308,25.6672,1.0
1617473545,7.88039,8.16969,25.6672,1.0
1617527202,7.92416,8.21469,25.6443,1.0
1617538026,7.92597,8.21626,25.6229,1.0
1617548774,7.92501,8.21564,25.6501,1.0
1617559488,7.92275,8.21324,25.6458,1.0
1617838780,7.68694,7.96889,25.6458,1.0
1617849480,7.67819,7.95975,25.6472,1.0
1617860266,7.6699,7.95108,25.6415,1.0
1617871085,7.66398,7.94502,25.6472,1.0
1617881809,7.662,7.94319,25.6644,1.0
1617892499,7.66399,7.94528,25.6658,1.0
1617903226,7.66817,7.9505,25.7406,1.0
1617913957,7.67181,7.95424,25.7378,1.0
1617924753,7.67497,7.95754,25.7392,1.0
1617989176,7.70141,7.98515,25.7406,1.0
1617999969,7.71187,7.99435,25.6172,1.0
1618010684,7.72435,8.00794,25.6686,1.0
1618021412,7.7391,8.02291,25.6443,1.0
1618311561,7.91521,8.20652,25.7192,1.0
1618322354,7.90377,8.19475,25.7249,1.0
1618333143,7.8921,8.18284,25.7392,1.0
1618343864,7.8808,8.17116,25.742,1.0
1618354568,7.8724,8.16276,25.7649,1.0
1618365300,7.86694,8.15683,25.7449,1.0
1618376113,7.86152,8.15125,25.7478,1.0
1618386897,7.85536,8.14471,25.742,1.0
1618397611,7.84937,8.13717,25.6443,1.0
1618408345,7.84439,8.13201,25.6443,1.0
1618451406,7.81796,8.10437,25.6229,1.0
1618462116,7.80869,8.09539,25.6686,1.0
1618472836,7.79969,8.08599,25.6644,1.0
1618483543,7.79209,8.07793,25.6501,1.0
1618773675,7.78613,8.07167,25.6472,1.0
1618784365,7.78771,8.07325,25.6429,1.0
1618795085,7.78761,8.07313,25.6415,1.0
1618805808,7.78669,8.07258,25.6715,1.0
1618816527,7.78694,8.07278,25.6672,1.0
1618827267,7.78822,8.07387,25.6443,1.0
1618838004,7.78793,8.07334,25.6272,1.0
1618848706,7.78587,8.07147,25.6472,1.0
1618859501,7.78375,8.06924,25.6443,1.0
1618902360,7.78512,8.07163,25.7235,1.0
1618913064,7.78497,8.07173,25.742,1.0
1618923822,7.78543,8.07224,25.7449,1.0
1618934514,7.78732,8.07446,25.7635,1.0
1619213842,7.71574,8.00006,25.7406,1.0
1619224615,7.72131,8.00558,25.722,1.0
1619235336,7.72732,8.01193,25.7306,1.0
1619246031,7.73329,8.01819,25.7363,1.0
1619256792,7.73899,8.02407,25.7406,1.0
1619267583,7.74501,8.03029,25.7392,1.0
1619278343,7.75203,8.03795,25.7678,1.0
1619289081,7.76023,8.04479,25.6443,1.0
1619299775,7.76916,8.05399,25.6401,1.0
1619310584,7.77833,8.06364,25.6401,1.0
1619364348,7.82208,8.10871,25.6272,1.0
1619375105,7.82746,8.11452,25.6443,1.0
1619385828,7.83211,8.11922,25.6358,1.0
1619396637,7.83551,8.12318,25.6672,1.0
1619697147,7.87379,8.16249,25.6415,1.0
1619707853,7.8653,8.15369,25.6415,1.0
1619718552,7.85655,8.14464,25.6429,1.0
1619729267,7.84738,8.13478,25.6172,1.0
1619739980,7.83685,8.12437,25.6543,1.0
1619750733,7.82465,8.11154,25.6415,1.0
1619761479,7.81195,8.09832,25.6372,1.0
1619772236,7.80006,8.08609,25.6443,1.0
1619782983,7.78951,8.07524,25.6443,1.0
1619815122,7.76005,8.04439,25.6215,1.0
1619825840,7.74777,8.03195,25.6429,1.0
1619836533,7.73579,8.01952,25.6472,1.0
1619847268,7.72637,8.0097,25.6429,1.0
1620136958,7.72937,8.01296,25.6415,1.0
1620147673,7.73718,8.02106,25.6415,1.0
1620158371,7.74289,8.02678,25.6443,1.0
1620169062,7.74693,8.03064,25.62,1.0
1620179776,7.74921,8.03332,25.6429,1.0
1620190550,7.75102,8.03558,25.6715,1.0
1620201276,7.75375,8.03832,25.6644,1.0
1620212030,7.75618,8.04055,25.6429,1.0
1620222783,7.75765,8.04211,25.6429,1.0
1620233525,7.75909,8.04362,25.6443,1.0
1620287208,7.77002,8.05471,25.6243,1.0
1620297984,7.77453,8.0596,25.6401,1.0
1620308696,7.77925,8.06456,25.6443,1.0
1620319453,7.78659,8.07251,25.6701,1.0
1620598440,7.79179,8.07893,25.7449,1.0
1620609181,7.77601,8.06255,25.7435,1.0
1620619900,7.76001,8.04598,25.7449,1.0
1620630700,7.7451,8.03033,25.7306,1.0
1620641422,7.73132,8.01588,25.7192,1.0
1620652149,7.71859,8.00298,25.7406,1.0
1620662914,7.70764,7.99197,25.7649,1.0
1620673671,7.69686,7.97916,25.6429,1.0
1620684477,7.68492,7.96671,25.6372,1.0
1620695209,7.67214,7.95353,25.6429,1.0
1620748878,7.62715,7.90651,25.6215,1.0
1620759626,7.62781,7.90732,25.6215,1.0
1620770349,7.62974,7.90961,25.6429,1.0
1620781097,7.63332,7.91338,25.6472,1.0
1622027134,7.67415,7.95548,25.6372,1.0
1622037946,7.66981,7.95112,25.6472,1.0
1622048662,7.66298,7.94371,25.6229,1.0
1622059391,7.65426,7.93499,25.6472,1.0
1622070139,7.64492,7.92508,25.6372,1.0
1622080862,7.63795,7.91797,25.6458,1.0
1622091700,7.63318,7.91296,25.6415,1.0
1622102394,7.62884,7.9082,25.6215,1.0
1622113146,7.62418,7.90361,25.6401,1.0
1622123868,7.62012,7.89962,25.6472,1.0
1622166848,7.63435,7.91461,25.6644,1.0
1622177641,7.64159,7.92186,25.6443,1.0
1622188340,7.64894,7.92946,25.6429,1.0
1622199087,7.65654,7.93731,25.6415,1.0
1622499822,7.72119,8.0041,25.6386,1.0
1622510590,7.72125,8.00455,25.6672,1.0
1622521321,7.72272,8.00561,25.6329,1.0
1622532011,7.72514,8.00828,25.6443,1.0
1622542703,7.72784,8.01107,25.6443,1.0
1622553391,7.73129,8.01473,25.6401,1.0
1622564088,7.73518,8.01859,25.6272,1.0
1622574856,7.73841,8.02216,25.6443,1.0
1622585571,7.74081,8.02467,25.6458,1.0
1622628512,7.74844,8.03254,25.6443,1.0
1622639290,7.74769,8.03207,25.6672,1.0
1622650041,7.74753,8.03164,25.6415,1.0
1622660816,7.74758,8.03168,25.6401,1.0
1622940317,7.85975,8.14793,25.6486,1.0
1622951061,7.86118,8.14933,25.6429,1.0
1622961775,7.86512,8.15357,25.6543,1.0
1622972469,7.8727,8.16115,25.6286,1.0
1622983220,7.88116,8.17012,25.6429,1.0
1622994002,7.88788,8.17685,25.6258,1.0
1623004722,7.89287,8.18232,25.6472,1.0
1623015510,7.89651,8.18605,25.6443,1.0
1623026202,7.89816,8.18767,25.6401,1.0
1623036951,7.89752,8.18711,25.6472,1.0
1623079927,7.88209,8.17247,25.742,1.0
1623090651,7.8755,8.16526,25.7149,1.0
1623101420,7.86732,8.1567,25.7092,1.0
1623112180,7.85937,8.1486,25.7192,1.0
1623402429,7.85502,8.1442,25.7392,1.0
1623413175,7.85902,8.14809,25.7206,1.0
1623423865,7.86461,8.15446,25.7621,1.0
1623434611,7.87216,8.16231,25.7649,1.0
1623445376,7.88056,8.16969,25.6672,1.0
1623456097,7.89034,8.17962,25.6415,1.0
1623466848,7.90338,8.19348,25.6672,1.0
1623477585,7.91875,8.20936,25.6629,1.0
1623488315,7.93445,8.22571,25.6686,1.0
1623499012,7.94897,8.24018,25.6258,1.0
1623542043,7.97775,8.27047,25.6658,1.0
1623552741,7.98175,8.27396,25.6186,1.0
1623563495,7.98401,8.27667,25.6443,1.0
1623574292,7.98395,8.27633,25.6243,1.0
1623584985,7.98076,8.27299,25.6215,1.0
1623896770,7.83945,8.12692,25.6458,1.0
1623907462,7.84446,8.13249,25.6729,1.0
1623918303,7.8484,8.13583,25.6186,1.0
1623929035,7.84995,8.13785,25.6486,1.0
1623939794,7.84894,8.13676,25.6472,1.0
1623950500,7.847,8.13442,25.6229,1.0
1623961289,7.84457,8.13186,25.62,1.0
1623972038,7.84157,8.12896,25.6358,1.0
1623982813,7.83845,8.12585,25.6443,1.0
1623993566,7.83509,8.12219,25.6401,1.0
1624015047,7.83147,8.11874,25.6615,1.0
1624025783,7.83292,8.12024,25.6615,1.0
1624036534,7.83504,8.12193,25.6243,1.0
1624047293,7.83762,8.12496,25.6415,1.0
1624347810,7.76773,8.05382,25.742,1.0
1624358505,7.76514,8.05138,25.7606,1.0
1624369211,7.7636,8.04959,25.7406,1.0
1624379908,7.76123,8.04742,25.7621,1.0
1624390617,7.75897,8.0451,25.7635,1.0
1624401318,7.75944,8.04557,25.7621,1.0
1624412040,7.76305,8.04904,25.742,1.0
1624422739,7.76902,8.05512,25.742,1.0
1624433430,7.77632,8.06143,25.6486,1.0
1624454867,7.79452,8.08022,25.6429,1.0
1624465587,7.80403,8.09003,25.6401,1.0
1624476318,7.8133,8.10007,25.6629,1.0
1624487098,7.82231,8.1088,25.6186,1.0
1624497824,7.82925,8.11631,25.6415,1.0
1624798828,7.72033,8.00463,25.7449,1.0
1624809667,7.72092,8.00501,25.7278,1.0
1624820356,7.72018,8.00461,25.7549,1.0
1624831105,7.71875,8.0014,25.6258,1.0
1624841842,7.71726,7.99988,25.6272,1.0
1624852570,7.71601,7.99887,25.6401,1.0
1624863367,7.71488,7.9978,25.6472,1.0
1624874137,7.71449,7.99705,25.6215,1.0
1624884838,7.71514,7.99803,25.6443,1.0
1624938559,7.7253,8.00856,25.6415,1.0
1624949274,7.72619,8.00953,25.6443,1.0
1624959978,7.7261,8.00911,25.6301,1.0
1624970801,7.72405,8.0071,25.6386,1.0
1625271829,7.75434,8.03863,25.6429,1.0
1625282557,7.75417,8.0385,25.6429,1.0
1625293310,7.75293,8.037,25.6272,1.0
1625304010,7.7499,8.03379,25.6215,1.0
1625314830,7.74776,8.03167,25.6286,1.0
1625325571,7.74667,8.03073,25.6429,1.0
1625336318,7.74607,8.03014,25.6501,1.0
1625347105,7.74615,8.03013,25.6429,1.0
1625357804,7.74683,8.03093,25.6501,1.0
1625400890,7.75105,8.03532,25.6586,1.0
1625411681,7.75511,8.03935,25.6458,1.0
1625422397,7.75985,8.04444,25.6586,1.0
1625433114,7.76695,8.05197,25.6715,1.0
1625443821,7.77822,8.06359,25.6629,1.0
1625712449,8.00781,8.30126,25.6401,1.0
1625723145,8.00716,8.30173,25.722,1.0
1625733910,8.00502,8.30006,25.7621,1.0
1625744602,8.00099,8.29603,25.7721,1.0
1625755292,7.99493,8.28901,25.7192,1.0
1625765990,7.98763,8.28174,25.742,1.0
1625776689,7.97944,8.27299,25.7235,1.0
1625787386,7.97087,8.26405,25.7192,1.0
1625798139,7.9643,8.25755,25.742,1.0
1625851822,7.96102,8.25312,25.6644,1.0
1625862614,7.96611,8.2582,25.6443,1.0
1625873377,7.97251,8.26477,25.6401,1.0
1625884107,7.97724,8.26943,25.6215,1.0
1626163061,8.00221,8.29527,25.6243,1.0
1626173811,8.0127,8.30647,25.6472,1.0
1626184626,8.02122,8.31532,25.6443,1.0
1626195323,8.02729,8.32191,25.6658,1.0
1626206112,8.03155,8.32633,25.6658,1.0
1626216812,8.03393,8.32819,25.6229,1.0
1626227585,8.03441,8.32902,25.6458,1.0
1626238308,8.03321,8.32775,25.6443,1.0
1626249041,8.03034,8.32491,25.6529,1.0
1626259788,8.02645,8.32068,25.6386,1.0
1626345708,8.02107,8.31523,25.6486,1.0
1626356410,8.02519,8.31939,25.6401,1.0
1626367173,8.02738,8.32142,25.6229,1.0
1626377880,8.02719,8.32156,25.6472,1.0
1626667826,7.93011,8.22092,25.6472,1.0
1626678575,7.91778,8.20849,25.6729,1.0
1626689273,7.90338,8.19317,25.6443,1.0
1626699963,7.88724,8.17638,25.6401,1.0
1626710667,7.86956,8.15788,25.6272,1.0
1626721371,7.85091,8.13881,25.6472,1.0
1626732074,7.83268,8.11992,25.6515,1.0
1626742783,7.81422,8.1006,25.6386,1.0
1626753603,7.79351,8.07897,25.6272,1.0
1626764413,7.77156,8.05646,25.6443,1.0
1626807357,7.70251,7.98482,25.6458,1.0
1626818137,7.69186,7.97372,25.6415,1.0
1626828827,7.6835,7.96517,25.6443,1.0
1626839571,7.67621,7.9574,25.6286,1.0
1627118896,7.85133,8.1402,25.7206,1.0
1627129599,7.85428,8.14338,25.7292,1.0
1627140426,7.85577,8.14487,25.7249,1.0
1627151141,7.85653,8.14584,25.7392,1.0
1627161850,7.85696,8.1464,25.7478,1.0
1627172607,7.85718,8.14635,25.7249,1.0
1627183342,7.85637,8.14549,25.7235,1.0
1627194100,7.85395,8.143,25.7249,1.0
1627204837,7.85029,8.13811,25.6443,1.0
1627247870,7.83215,8.1196,25.6672,1.0
1627258664,7.82613,8.11273,25.6215,1.0
1627269354,7.81868,8.1052,25.6343,1.0
1627280047,7.8103,8.09661,25.6415,1.0
1627290805,7.80242,8.0884,25.6386,1.0
1627570104,7.84828,8.13582,25.6272,1.0
1627580813,7.86055,8.1488,25.6458,1.0
1627591546,7.87031,8.15871,25.6301,1.0
1627602292,7.87755,8.16614,25.6243,1.0
1627613013,7.88284,8.17186,25.6415,1.0
1627623735,7.88708,8.17626,25.6415,1.0
1627634423,7.89044,8.1796,25.6315,1.0
1627645115,7.89315,8.18234,25.6258,1.0
1627655846,7.8953,8.18482,25.6486,1.0
1627720473,7.86702,8.15547,25.6472,1.0
1627731206,7.85888,8.14702,25.6472,1.0
1627741934,7.85149,8.13925,25.6386,1.0
1627752666,7.8444,8.13186,25.6429,1.0
1628031780,7.76483,8.04954,25.6458,1.0
1628042477,7.76588,8.0507,25.6515,1.0
1628053200,7.7665,8.05123,25.6429,1.0
1628063921,7.7661,8.05074,25.6372,1.0
1628074696,7.7642,8.04886,25.6443,1.0
1628085421,7.76154,8.04617,25.6486,1.0
1628096177,7.75879,8.04319,25.6443,1.0
1628106961,7.75573,8.03976,25.6258,1.0
1628117678,7.75173,8.03589,25.6458,1.0
1628128464,7.74778,8.03146,25.6215,1.0
1628171450,7.74216,8.02584,25.6429,1.0
1628182197,7.74058,8.0242,25.6429,1.0
1628192922,7.74053,8.02429,25.6415,1.0
1628203669,7.74192,8.02582,25.6486,1.0
1628483194,7.86307,8.15145,25.6443,1.0
1628493920,7.85763,8.14585,25.6472,1.0
1628504666,7.85248,8.14074,25.6644,1.0
1628515367,7.84714,8.13519,25.6672,1.0
1628526084,7.84081,8.12835,25.6472,1.0
1628536806,7.83319,8.12042,25.6443,1.0
1628547551,7.82552,8.11245,25.6429,1.0
1628558289,7.8187,8.10542,25.6458,1.0
1628568977,7.81274,8.09925,25.6472,1.0
1628622658,7.8088,8.0951,25.6429,1.0
1628633357,7.81339,8.1,25.6529,1.0
1628644052,7.81848,8.10521,25.6486,1.0
1628654753,7.8223,8.10891,25.6286,1.0
1628934052,7.623,7.9027,25.6472,1.0
1628944758,7.62208,7.90179,25.6501,1.0
1628955497,7.62313,7.90256,25.6358,1.0
1628966265,7.62584,7.90576,25.6658,1.0
1628976987,7.63086,7.91083,25.6558,1.0
1628987717,7.63714,7.91738,25.6586,1.0
1628998417,7.6434,7.92367,25.6429,1.0
1629009110,7.64867,7.92888,25.6243,1.0
1629019804,7.65212,7.93264,25.6372,1.0
1629084257,7.66041,7.94152,25.6658,1.0
1629094947,7.66232,7.94349,25.6658,1.0
1629105652,7.66735,7.94837,25.6443,1.0
1629116531,7.67366,7.95491,25.6443,1.0
1629406707,7.74309,8.02704,25.6443,1.0
1629417454,7.74994,8.03409,25.6401,1.0
1629428210,7.7568,8.04113,25.6429,1.0
1629438906,7.76284,8.04771,25.6672,1.0
1629449662,7.76805,8.05312,25.6672,1.0
1629460471,7.77318,8.05842,25.6658,1.0
1629471228,7.77772,8.0631,25.6644,1.0
1629481953,7.78079,8.06577,25.6243,1.0
1629492645,7.78214,8.06777,25.6686,1.0
1629503375,7.78216,8.06743,25.6415,1.0
1629546300,7.77902,8.06451,25.6658,1.0
1629557068,7.78196,8.06726,25.6443,1.0
1629567779,7.78487,8.06991,25.6172,1.0
1629578541,7.78723,8.07273,25.6443,1.0
1629589265,7.78935,8.07498,25.6415,1.0
1629868328,7.78084,8.06599,25.6243,1.0
1629879024,7.78993,8.07564,25.6515,1.0
1629889723,7.79936,8.08531,25.6443,1.0
1629900474,7.80784,8.09432,25.6601,1.0
1629911219,7.81515,8.10176,25.6501,1.0
1629922012,7.82165,8.10836,25.6401,1.0
1629932712,7.82693,8.11365,25.6258,1.0
1629943428,7.82985,8.11671,25.6286,1.0
1629954119,7.83117,8.11835,25.6486,1.0
1629964809,7.83274,8.11984,25.6386,1.0
1629996993,7.83799,8.12491,25.6172,1.0
1630007712,7.83709,8.12401,25.62,1.0
1630018478,7.83663,8.12416,25.6658,1.0
1630029239,7.8362,8.12368,25.6629,1.0
1630319005,7.73132,8.0145,25.6158,1.0
1630329789,7.73764,8.02113,25.6215,1.0
1630340508,7.74458,8.02859,25.6415,1.0
1630351249,7.75168,8.03617,25.6615,1.0
1630361997,7.75915,8.04405,25.6715,1.0
1630372784,7.76718,8.05159,25.6129,1.0
1630383501,7.77488,8.05999,25.6443,1.0
1630394281,7.78092,8.06623,25.6429,1.0
1630404984,7.78481,8.07013,25.6386,1.0
1630469283,7.81041,8.09685,25.6429,1.0
1630480025,7.8172,8.10415,25.6629,1.0
1630490732,7.82421,8.11114,25.6415,1.0
1630501422,7.83115,8.11811,25.6258,1.0
1630791407,7.76876,8.05349,25.6243,1.0
1630802097,7.75767,8.04195,25.6215,1.0
1630812786,7.74636,8.03084,25.6672,1.0
1630823500,7.73562,8.01944,25.6472,1.0
1630834363,7.72436,8.00734,25.6229,1.0
1630845146,7.71246,7.99505,25.6258,1.0
1630855841,7.70095,7.98335,25.6443,1.0
1630866569,7.69159,7.97364,25.6429,1.0
1630877268,7.68528,7.96706,25.6401,1.0
1630888071,7.68125,7.96299,25.6429,1.0
1630920288,7.67932,7.9608,25.6286,1.0
1630931078,7.68016,7.96222,25.6701,1.0
1630941797,7.68217,7.96396,25.6443,1.0
1630952512,7.68418,7.96601,25.6415,1.0
1631242075,7.84091,8.12844,25.6443,1.0
1631252794,7.85215,8.1401,25.6443,1.0
1631263599,7.86199,8.15003,25.6243,1.0
1631274317,7.87184,8.16084,25.6644,1.0
1631285064,7.88266,8.17142,25.6172,1.0
1631295837,7.89339,8.18268,25.6272,1.0
1631306589,7.90526,8.1953,25.6501,1.0
1631317298,7.91858,8.209,25.6429,1.0
1631328039,7.93146,8.22215,25.6286,1.0
1631360295,7.97313,8.26566,25.6515,1.0
1631371036,7.98825,8.28124,25.6443,1.0
1631381793,8.00316,8.29634,25.6186,1.0
1631392539,8.01797,8.31233,25.6644,1.0
1631403275,8.03285,8.32758,25.6515,1.0
