timestamp,voltage_v,voltage_filtered_v,current_a,current_filtered_a,average_current_a,discharged_mah,remaining,scale,temperature,cell_count,voltage_cell_v[0],voltage_cell_v[1],voltage_cell_v[2],voltage_cell_v[3],voltage_cell_v[4],voltage_cell_v[5],voltage_cell_v[6],voltage_cell_v[7],voltage_cell_v[8],voltage_cell_v[9],max_cell_voltage_delta,capacity,cycle_count,run_time_to_empty,average_time_to_empty,serial_number,state_of_health,max_error,connected,source,priority,id,is_powering_off,warning
1579100100,15.4739,15.6189,92.6173,92.6586,0.0,40632.5,0.545716,1.07562,nan,4,3.90472,3.90472,3.90472,3.90472,0.0,0.0,0.0,0.0,0.0,0.0,0.0,0,0,0,0,0,0,0,1,0,0,1,0,0
1579110158,15.525,15.6179,92.6759,92.6589,0.0,40632.7,0.545358,1.07569,nan,4,3.90448,3.90448,3.90448,3.90448,0.0,0.0,0.0,0.0,0.0,0.0,0.0,0,0,0,0,0,0,0,1,0,0,1,0,0
1579120098,15.4739,15.6165,92.6466,92.6587,0.0,40633.0,0.54481,1.07578,nan,4,3.90413,3.90413,3.90413,3.90413,0.0,0.0,0.0,0.0,0.0,0.0,0.0,0,0,0,0,0,0,0,1,0,0,1,0,0
1579130104,15.525,15.6156,92.6759,92.659,0.0,40633.3,0.544461,1.07585,nan,4,3.9039,3.9039,3.9039,3.9039,0.0,0.0,0.0,0.0,0.0,0.0,0.0,0,0,0,0,0,0,0,1,0,0,1,0,0
1579140099,15.6782,15.6162,92.7052,92.6599,0.0,40633.5,0.5447,1.0758,nan,4,3.90405,3.90405,3.90405,3.90405,0.0,0.0,0.0,0.0,0.0,0.0,0.0,0,0,0,0,0,0,0,1,0,0,1,0,0
1579440162,15.4739,15.6155,92.6466,92.6551,0.0,40641.2,0.544441,1.07585,nan,4,3.90389,3.90389,3.90389,3.90389,0.0,0.0,0.0,0.0,0.0,0.0,0.0,0,0,0,0,0,0,0,1,0,0,1,0,0
1579450203,15.6399,15.6158,92.6173,92.6544,0.0,40641.5,0.544534,1.07583,nan,4,3.90395,3.90395,3.90395,3.90395,0.0,0.0,0.0,0.0,0.0,0.0,0.0,0,0,0,0,0,0,0,1,0,0,1,0,0
1579460158,15.2952,15.6126,92.6759,92.6548,0.0,40641.8,0.543313,1.07605,nan,4,3.90315,3.90315,3.90315,3.90315,0.0,0.0,0.0,0.0,0.0,0.0,0.0,0,0,0,0,0,0,0,1,0,0,1,0,0
1579470161,15.6654,15.6131,92.6173,92.6541,0.0,40642.0,0.543514,1.07602,nan,4,3.90328,3.90328,3.90328,3.90328,0.0,0.0,0.0,0.0,0.0,0.0,0.0,0,0,0,0,0,0,0,1,0,0,1,0,0
1579480162,15.4611,15.6116,92.6466,92.6539,0.0,40642.3,0.542935,1.07612,nan,4,3.90291,3.90291,3.90291,3.90291,0.0,0.0,0.0,0.0,0.0,0.0,0.0,0,0,0,0,0,0,0,1,0,0,1,0,0
1579490100,15.4611,15.6101,92.6759,92.6544,0.0,40642.5,0.542362,1.07622,nan,4,3.90254,3.90254,3.90254,3.90254,0.0,0.0,0.0,0.0,0.0,0.0,0.0,0,0,0,0,0,0,0,1,0,0,1,0,0
1579500114,15.2952,15.607,92.6173,92.6536,0.0,40642.8,0.541163,1.07644,nan,4,3.90176,3.90176,3.90176,3.90176,0.0,0.0,0.0,0.0,0.0,0.0,0.0,0,0,0,0,0,0,0,1,0,0,1,0,0
1579510101,15.742,15.6084,92.6173,92.6529,0.0,40643.0,0.541677,1.07635,nan,4,3.90209,3.90209,3.90209,3.90209,0.0,0.0,0.0,0.0,0.0,0.0,0.0,0,0,0,0,0,0,0,1,0,0,1,0,0
1579520099,15.5505,15.6078,92.6759,92.6534,0.0,40643.3,0.541456,1.07639,nan,4,3.90195,3.90195,3.90195,3.90195,0.0,0.0,0.0,0.0,0.0,0.0,0.0,0,0,0,0,0,0,0,1,0,0,1,0,0
1579530100,15.5633,15.6073,92.6759,92.6538,0.0,40643.6,0.541287,1.07642,nan,4,3.90184,3.90184,3.90184,3.90184,0.0,0.0,0.0,0.0,0.0,0.0,0.0,0,0,0,0,0,0,0,1,0,0,1,0,0
1579540106,15.576,15.607,92.6466,92.6537,0.0,40643.8,0.541168,1.07644,nan,4,3.90176,3.90176,3.90176,3.90176,0.0,0.0,0.0,0.0,0.0,0.0,0.0,0,0,0,0,0,0,0,1,0,0,1,0,0
1579560098,15.7037,15.6062,92.588,92.6522,0.0,40644.3,0.540842,1.0765,nan,4,3.90155,3.90155,3.90155,3.90155,0.0,0.0,0.0,0.0,0.0,0.0,0.0,0,0,0,0,0,0,0,1,0,0,1,0,0
1579570105,15.576,15.6059,92.6759,92.6527,0.0,40644.6,0.540727,1.07652,nan,4,3.90147,3.90147,3.90147,3.90147,0.0,0.0,0.0,0.0,0.0,0.0,0.0,0,0,0,0,0,0,0,1,0,0,1,0,0
1579580157,15.7037,15.6069,92.6173,92.652,0.0,40644.8,0.5411,1.07645,nan,4,3.90171,3.90171,3.90171,3.90171,0.0,0.0,0.0,0.0,0.0,0.0,0.0,0,0,0,0,0,0,0,1,0,0,1,0,0
1579590098,15.5633,15.6064,92.7052,92.6531,0.0,40645.1,0.540934,1.07648,nan,4,3.90161,3.90161,3.90161,3.90161,0.0,0.0,0.0,0.0,0.0,0.0,0.0,0,0,0,0,0,0,0,1,0,0,1,0,0
1579900135,15.5633,15.6106,92.6466,92.6538,0.0,40653.1,0.542524,1.07619,nan,4,3.90264,3.90264,3.90264,3.90264,0.0,0.0,0.0,0.0,0.0,0.0,0.0,0,0,0,0,0,0,0,1,0,0,1,0,0
1579910096,15.4484,15.609,92.6173,92.6531,0.0,40653.3,0.541906,1.07631,nan,4,3.90224,3.90224,3.90224,3.90224,0.0,0.0,0.0,0.0,0.0,0.0,0.0,0,0,0,0,0,0,0,1,0,0,1,0,0
1579920154,15.5505,15.6084,92.7052,92.6542,0.0,40653.6,0.541684,1.07634,nan,4,3.90209,3.90209,3.90209,3.90209,0.0,0.0,0.0,0.0,0.0,0.0,0.0,0,0,0,0,0,0,0,1,0,0,1,0,0
1579930098,15.4228,15.6065,92.7052,92.6552,0.0,40653.9,0.540977,1.07647,nan,4,3.90163,3.90163,3.90163,3.90163,0.0,0.0,0.0,0.0,0.0,0.0,0.0,0,0,0,0,0,0,0,1,0,0,1,0,0
1579940191,15.7292,15.6078,92.6466,92.655,0.0,40654.1,0.541444,1.07639,nan,4,3.90194,3.90194,3.90194,3.90194,0.0,0.0,0.0,0.0,0.0,0.0,0.0,0,0,0,0,0,0,0,1,0,0,1,0,0
1579950100,15.5505,15.6072,92.6173,92.6542,0.0,40654.4,0.541226,1.07643,nan,4,3.9018,3.9018,3.9018,3.9018,0.0,0.0,0.0,0.0,0.0,0.0,0.0,0,0,0,0,0,0,0,1,0,0,1,0,0
1579960102,15.6782,15.6079,92.6173,92.6535,0.0,40654.6,0.541497,1.07638,nan,4,3.90197,3.90197,3.90197,3.90197,0.0,0.0,0.0,0.0,0.0,0.0,0.0,0,0,0,0,0,0,0,1,0,0,1,0,0
1579970100,15.5505,15.6073,92.7052,92.6545,0.0,40654.9,0.541278,1.07642,nan,4,3.90183,3.90183,3.90183,3.90183,0.0,0.0,0.0,0.0,0.0,0.0,0.0,0,0,0,0,0,0,0,1,0,0,1,0,0
1579980098,15.7931,15.6092,92.6759,92.655,0.0,40655.2,0.541986,1.07629,nan,4,3.90229,3.90229,3.90229,3.90229,0.0,0.0,0.0,0.0,0.0,0.0,0.0,0,0,0,0,0,0,0,1,0,0,1,0,0
1579990107,15.5377,15.6085,92.6759,92.6554,0.0,40655.4,0.541714,1.07634,nan,4,3.90211,3.90211,3.90211,3.90211,0.0,0.0,0.0,0.0,0.0,0.0,0.0,0,0,0,0,0,0,0,1,0,0,1,0,0
1580010138,15.742,15.6111,92.6466,92.6539,0.0,40655.9,0.542726,1.07616,nan,4,3.90277,3.90277,3.90277,3.90277,0.0,0.0,0.0,0.0,0.0,0.0,0.0,0,0,0,0,0,0,0,1,0,0,1,0,0
1580020098,15.5377,15.6104,92.588,92.6526,0.0,40656.2,0.542447,1.07621,nan,4,3.90259,3.90259,3.90259,3.90259,0.0,0.0,0.0,0.0,0.0,0.0,0.0,0,0,0,0,0,0,0,1,0,0,1,0,0
1580030103,15.4994,15.6093,92.6466,92.6525,0.0,40656.4,0.542024,1.07628,nan,4,3.90232,3.90232,3.90232,3.90232,0.0,0.0,0.0,0.0,0.0,0.0,0.0,0,0,0,0,0,0,0,1,0,0,1,0,0
1580040097,15.5888,15.6091,92.6173,92.6518,0.0,40656.7,0.541946,1.0763,nan,4,3.90226,3.90226,3.90226,3.90226,0.0,0.0,0.0,0.0,0.0,0.0,0.0,0,0,0,0,0,0,0,1,0,0,1,0,0
1580340231,15.6016,15.6114,92.6759,92.6508,0.0,40664.4,0.54286,1.07613,nan,4,3.90286,3.90286,3.90286,3.90286,0.0,0.0,0.0,0.0,0.0,0.0,0.0,0,0,0,0,0,0,0,1,0,0,1,0,0
1580350223,15.4611,15.6099,92.6759,92.6513,0.0,40664.7,0.542288,1.07624,nan,4,3.90249,3.90249,3.90249,3.90249,0.0,0.0,0.0,0.0,0.0,0.0,0.0,0,0,0,0,0,0,0,1,0,0,1,0,0
1580360283,15.7548,15.6114,92.6173,92.6506,0.0,40665.0,0.542839,1.07614,nan,4,3.90285,3.90285,3.90285,3.90285,0.0,0.0,0.0,0.0,0.0,0.0,0.0,0,0,0,0,0,0,0,1,0,0,1,0,0
1580370329,15.7165,15.6124,92.6759,92.6511,0.0,40665.2,0.54324,1.07607,nan,4,3.90311,3.90311,3.90311,3.90311,0.0,0.0,0.0,0.0,0.0,0.0,0.0,0,0,0,0,0,0,0,1,0,0,1,0,0
1580380275,15.6909,15.6132,92.6466,92.651,0.0,40665.5,0.543539,1.07601,nan,4,3.9033,3.9033,3.9033,3.9033,0.0,0.0,0.0,0.0,0.0,0.0,0.0,0,0,0,0,0,0,0,1,0,0,1,0,0
1580390254,15.4994,15.6121,92.6173,92.6504,0.0,40665.7,0.543105,1.07609,nan,4,3.90302,3.90302,3.90302,3.90302,0.0,0.0,0.0,0.0,0.0,0.0,0.0,0,0,0,0,0,0,0,1,0,0,1,0,0
1580400252,15.359,15.6096,92.6759,92.6509,0.0,40666.0,0.542141,1.07626,nan,4,3.90239,3.90239,3.90239,3.90239,0.0,0.0,0.0,0.0,0.0,0.0,0.0,0,0,0,0,0,0,0,1,0,0,1,0,0
1580410275,15.6782,15.6102,92.6466,92.6508,0.0,40666.2,0.542403,1.07622,nan,4,3.90256,3.90256,3.90256,3.90256,0.0,0.0,0.0,0.0,0.0,0.0,0.0,0,0,0,0,0,0,0,1,0,0,1,0,0
1580420208,15.4867,15.609,92.6759,92.6513,0.0,40666.5,0.541932,1.0763,nan,4,3.90226,3.90226,3.90226,3.90226,0.0,0.0,0.0,0.0,0.0,0.0,0.0,0,0,0,0,0,0,0,1,0,0,1,0,0
1580430198,15.4484,15.6074,92.6466,92.6512,0.0,40666.8,0.54132,1.07641,nan,4,3.90186,3.90186,3.90186,3.90186,0.0,0.0,0.0,0.0,0.0,0.0,0.0,0,0,0,0,0,0,0,1,0,0,1,0,0
1580490242,15.2824,15.6011,92.6466,92.6523,0.0,40668.3,0.538877,1.07685,nan,4,3.90027,3.90027,3.90027,3.90027,0.0,0.0,0.0,0.0,0.0,0.0,0.0,0,0,0,0,0,0,0,1,0,0,1,0,0
1580500197,15.5505,15.6006,92.6466,92.6522,0.0,40668.6,0.538684,1.07688,nan,4,3.90014,3.90014,3.90014,3.90014,0.0,0.0,0.0,0.0,0.0,0.0,0.0,0,0,0,0,0,0,0,1,0,0,1,0,0
1580510166,15.7675,15.6022,92.588,92.6509,0.0,40668.8,0.53932,1.07677,nan,4,3.90056,3.90056,3.90056,3.90056,0.0,0.0,0.0,0.0,0.0,0.0,0.0,0,0,0,0,0,0,0,1,0,0,1,0,0
1580520209,15.6399,15.6026,92.7052,92.652,0.0,40669.1,0.539463,1.07674,nan,4,3.90065,3.90065,3.90065,3.90065,0.0,0.0,0.0,0.0,0.0,0.0,0.0,0,0,0,0,0,0,0,1,0,0,1,0,0
1580810201,15.7931,15.6143,92.588,92.65,0.0,40676.5,0.54395,1.07594,nan,4,3.90357,3.90357,3.90357,3.90357,0.0,0.0,0.0,0.0,0.0,0.0,0.0,0,0,0,0,0,0,0,1,0,0,1,0,0
1580820151,15.7803,15.6159,92.6759,92.6505,0.0,40676.8,0.544583,1.07583,nan,4,3.90398,3.90398,3.90398,3.90398,0.0,0.0,0.0,0.0,0.0,0.0,0.0,0,0,0,0,0,0,0,1,0,0,1,0,0
1580830182,15.6782,15.6165,92.6173,92.6498,0.0,40677.1,0.54482,1.07578,nan,4,3.90413,3.90413,3.90413,3.90413,0.0,0.0,0.0,0.0,0.0,0.0,0.0,0,0,0,0,0,0,0,1,0,0,1,0,0
1580840139,15.6016,15.6164,92.6173,92.6492,0.0,40677.3,0.544763,1.07579,nan,4,3.9041,3.9041,3.9041,3.9041,0.0,0.0,0.0,0.0,0.0,0.0,0.0,0,0,0,0,0,0,0,1,0,0,1,0,0
1580850099,15.6016,15.6162,92.588,92.648,0.0,40677.6,0.544706,1.0758,nan,4,3.90406,3.90406,3.90406,3.90406,0.0,0.0,0.0,0.0,0.0,0.0,0.0,0,0,0,0,0,0,0,1,0,0,1,0,0
1580860196,15.5505,15.6156,92.7052,92.6491,0.0,40677.8,0.544456,1.07585,nan,4,3.9039,3.9039,3.9039,3.9039,0.0,0.0,0.0,0.0,0.0,0.0,0.0,0,0,0,0,0,0,0,1,0,0,1,0,0
1580870098,15.742,15.6168,92.6759,92.6496,0.0,40678.1,0.544938,1.07576,nan,4,3.90421,3.90421,3.90421,3.90421,0.0,0.0,0.0,0.0,0.0,0.0,0.0,0,0,0,0,0,0,0,1,0,0,1,0,0
1580880107,15.7165,15.6178,92.6466,92.6496,0.0,40678.3,0.545317,1.07569,nan,4,3.90446,3.90446,3.90446,3.90446,0.0,0.0,0.0,0.0,0.0,0.0,0.0,0,0,0,0,0,0,0,1,0,0,1,0,0
1580890098,15.742,15.6191,92.6759,92.6501,0.0,40678.6,0.54579,1.07561,nan,4,3.90476,3.90476,3.90476,3.90476,0.0,0.0,0.0,0.0,0.0,0.0,0.0,0,0,0,0,0,0,0,1,0,0,1,0,0
1580900139,15.576,15.6186,92.6173,92.6495,0.0,40678.9,0.545626,1.07564,nan,4,3.90466,3.90466,3.90466,3.90466,0.0,0.0,0.0,0.0,0.0,0.0,0.0,0,0,0,0,0,0,0,1,0,0,1,0,0
1580940212,15.525,15.6168,92.6759,92.6498,0.0,40679.9,0.54494,1.07576,nan,4,3.90421,3.90421,3.90421,3.90421,0.0,0.0,0.0,0.0,0.0,0.0,0.0,0,0,0,0,0,0,0,1,0,0,1,0,0
1580950099,15.3973,15.6147,92.6466,92.6497,0.0,40680.1,0.544105,1.07591,nan,4,3.90367,3.90367,3.90367,3.90367,0.0,0.0,0.0,0.0,0.0,0.0,0.0,0,0,0,0,0,0,0,1,0,0,1,0,0
1580960099,15.5505,15.614,92.6173,92.6491,0.0,40680.4,0.54386,1.07595,nan,4,3.90351,3.90351,3.90351,3.90351,0.0,0.0,0.0,0.0,0.0,0.0,0.0,0,0,0,0,0,0,0,1,0,0,1,0,0
1580970107,15.576,15.6137,92.6173,92.6485,0.0,40680.7,0.543715,1.07598,nan,4,3.90341,3.90341,3.90341,3.90341,0.0,0.0,0.0,0.0,0.0,0.0,0.0,0,0,0,0,0,0,0,1,0,0,1,0,0
1581260101,15.5505,15.6146,92.588,92.6504,0.0,40688.1,0.54408,1.07592,nan,4,3.90365,3.90365,3.90365,3.90365,0.0,0.0,0.0,0.0,0.0,0.0,0.0,0,0,0,0,0,0,0,1,0,0,1,0,0
1581270098,15.6271,15.6147,92.6173,92.6498,0.0,40688.4,0.544127,1.07591,nan,4,3.90368,3.90368,3.90368,3.90368,0.0,0.0,0.0,0.0,0.0,0.0,0.0,0,0,0,0,0,0,0,1,0,0,1,0,0
1581280157,15.5377,15.614,92.6759,92.6503,0.0,40688.6,0.543834,1.07596,nan,4,3.90349,3.90349,3.90349,3.90349,0.0,0.0,0.0,0.0,0.0,0.0,0.0,0,0,0,0,0,0,0,1,0,0,1,0,0
1581290099,15.6271,15.6141,92.6466,92.6502,0.0,40688.9,0.543884,1.07595,nan,4,3.90352,3.90352,3.90352,3.90352,0.0,0.0,0.0,0.0,0.0,0.0,0.0,0,0,0,0,0,0,0,1,0,0,1,0,0
1581300098,15.5122,15.6131,92.6759,92.6507,0.0,40689.2,0.543496,1.07602,nan,4,3.90327,3.90327,3.90327,3.90327,0.0,0.0,0.0,0.0,0.0,0.0,0.0,0,0,0,0,0,0,0,1,0,0,1,0,0
1581310096,15.5505,15.6125,92.6759,92.6512,0.0,40689.4,0.543258,1.07606,nan,4,3.90312,3.90312,3.90312,3.90312,0.0,0.0,0.0,0.0,0.0,0.0,0.0,0,0,0,0,0,0,0,1,0,0,1,0,0
1581320136,15.5505,15.6119,92.6759,92.6517,0.0,40689.7,0.543022,1.07611,nan,4,3.90296,3.90296,3.90296,3.90296,0.0,0.0,0.0,0.0,0.0,0.0,0.0,0,0,0,0,0,0,0,1,0,0,1,0,0
1581330099,15.5633,15.6114,92.6466,92.6516,0.0,40689.9,0.542837,1.07614,nan,4,3.90284,3.90284,3.90284,3.90284,0.0,0.0,0.0,0.0,0.0,0.0,0.0,0,0,0,0,0,0,0,1,0,0,1,0,0
1581340100,15.742,15.6127,92.6173,92.6509,0.0,40690.2,0.543334,1.07605,nan,4,3.90317,3.90317,3.90317,3.90317,0.0,0.0,0.0,0.0,0.0,0.0,0.0,0,0,0,0,0,0,0,1,0,0,1,0,0
1581350103,15.7931,15.6145,92.6466,92.6508,0.0,40690.4,0.544022,1.07593,nan,4,3.90361,3.90361,3.90361,3.90361,0.0,0.0,0.0,0.0,0.0,0.0,0.0,0,0,0,0,0,0,0,1,0,0,1,0,0
1581360100,15.6143,15.6145,92.6173,92.6502,0.0,40690.7,0.544021,1.07593,nan,4,3.90361,3.90361,3.90361,3.90361,0.0,0.0,0.0,0.0,0.0,0.0,0.0,0,0,0,0,0,0,0,1,0,0,1,0,0
1581380101,15.4994,15.6132,92.6759,92.6517,0.0,40691.2,0.543534,1.07601,nan,4,3.9033,3.9033,3.9033,3.9033,0.0,0.0,0.0,0.0,0.0,0.0,0.0,0,0,0,0,0,0,0,1,0,0,1,0,0
1581390108,15.742,15.6145,92.6759,92.6522,0.0,40691.5,0.544025,1.07593,nan,4,3.90362,3.90362,3.90362,3.90362,0.0,0.0,0.0,0.0,0.0,0.0,0.0,0,0,0,0,0,0,0,1,0,0,1,0,0
1581400101,15.5633,15.614,92.6466,92.6521,0.0,40691.7,0.54383,1.07596,nan,4,3.90349,3.90349,3.90349,3.90349,0.0,0.0,0.0,0.0,0.0,0.0,0.0,0,0,0,0,0,0,0,1,0,0,1,0,0
1581410134,15.7548,15.6154,92.6466,92.652,0.0,40692.0,0.544366,1.07586,nan,4,3.90384,3.90384,3.90384,3.90384,0.0,0.0,0.0,0.0,0.0,0.0,0.0,0,0,0,0,0,0,0,1,0,0,1,0,0
1581420104,15.6654,15.6158,92.6466,92.6519,0.0,40692.2,0.544557,1.07583,nan,4,3.90396,3.90396,3.90396,3.90396,0.0,0.0,0.0,0.0,0.0,0.0,0.0,0,0,0,0,0,0,0,1,0,0,1,0,0
1581710113,15.5505,15.6081,92.6759,92.6499,0.0,40699.7,0.541575,1.07636,nan,4,3.90202,3.90202,3.90202,3.90202,0.0,0.0,0.0,0.0,0.0,0.0,0.0,0,0,0,0,0,0,0,1,0,0,1,0,0
1581720096,15.6271,15.6083,92.6466,92.6498,0.0,40700.0,0.541647,1.07635,nan,4,3.90207,3.90207,3.90207,3.90207,0.0,0.0,0.0,0.0,0.0,0.0,0.0,0,0,0,0,0,0,0,1,0,0,1,0,0
1581730104,15.5888,15.6081,92.6173,92.6492,0.0,40700.2,0.541573,1.07636,nan,4,3.90202,3.90202,3.90202,3.90202,0.0,0.0,0.0,0.0,0.0,0.0,0.0,0,0,0,0,0,0,0,1,0,0,1,0,0
1581740143,15.7675,15.6097,92.7052,92.6503,0.0,40700.5,0.54218,1.07626,nan,4,3.90242,3.90242,3.90242,3.90242,0.0,0.0,0.0,0.0,0.0,0.0,0.0,0,0,0,0,0,0,0,1,0,0,1,0,0
1581750190,15.4867,15.6084,92.6466,92.6502,0.0,40700.7,0.541712,1.07634,nan,4,3.90211,3.90211,3.90211,3.90211,0.0,0.0,0.0,0.0,0.0,0.0,0.0,0,0,0,0,0,0,0,1,0,0,1,0,0
1581760133,15.5505,15.6079,92.6173,92.6495,0.0,40701.0,0.541491,1.07638,nan,4,3.90197,3.90197,3.90197,3.90197,0.0,0.0,0.0,0.0,0.0,0.0,0.0,0,0,0,0,0,0,0,1,0,0,1,0,0
1581770149,15.525,15.6071,92.6173,92.6489,0.0,40701.3,0.541175,1.07644,nan,4,3.90176,3.90176,3.90176,3.90176,0.0,0.0,0.0,0.0,0.0,0.0,0.0,0,0,0,0,0,0,0,1,0,0,1,0,0
1581780134,15.6143,15.6071,92.6466,92.6489,0.0,40701.5,0.541203,1.07643,nan,4,3.90178,3.90178,3.90178,3.90178,0.0,0.0,0.0,0.0,0.0,0.0,0.0,0,0,0,0,0,0,0,1,0,0,1,0,0
1581790133,15.576,15.6068,92.6173,92.6482,0.0,40701.8,0.541084,1.07645,nan,4,3.9017,3.9017,3.9017,3.9017,0.0,0.0,0.0,0.0,0.0,0.0,0.0,0,0,0,0,0,0,0,1,0,0,1,0,0
1581800135,15.576,15.6065,92.6466,92.6482,0.0,40702.0,0.540967,1.07647,nan,4,3.90163,3.90163,3.90163,3.90163,0.0,0.0,0.0,0.0,0.0,0.0,0.0,0,0,0,0,0,0,0,1,0,0,1,0,0
1581860132,15.7292,15.6059,92.6173,92.647,0.0,40703.6,0.540732,1.07652,nan,4,3.90148,3.90148,3.90148,3.90148,0.0,0.0,0.0,0.0,0.0,0.0,0.0,0,0,0,0,0,0,0,1,0,0,1,0,0
1581870130,15.525,15.6051,92.6466,92.6469,0.0,40703.8,0.540424,1.07657,nan,4,3.90128,3.90128,3.90128,3.90128,0.0,0.0,0.0,0.0,0.0,0.0,0.0,0,0,0,0,0,0,0,1,0,0,1,0,0
1581880185,15.6654,15.6057,92.6173,92.6464,0.0,40704.1,0.540654,1.07653,nan,4,3.90142,3.90142,3.90142,3.90142,0.0,0.0,0.0,0.0,0.0,0.0,0.0,0,0,0,0,0,0,0,1,0,0,1,0,0
1581890117,15.576,15.6054,92.6759,92.6469,0.0,40704.4,0.540541,1.07655,nan,4,3.90135,3.90135,3.90135,3.90135,0.0,0.0,0.0,0.0,0.0,0.0,0.0,0,0,0,0,0,0,0,1,0,0,1,0,0
1581900111,15.5633,15.605,92.6759,92.6475,0.0,40704.6,0.54038,1.07658,nan,4,3.90125,3.90125,3.90125,3.90125,0.0,0.0,0.0,0.0,0.0,0.0,0.0,0,0,0,0,0,0,0,1,0,0,1,0,0
1582191131,15.6526,15.6028,92.6466,92.6507,0.0,40712.1,0.53954,1.07673,nan,4,3.9007,3.9007,3.9007,3.9007,0.0,0.0,0.0,0.0,0.0,0.0,0.0,0,0,0,0,0,0,0,1,0,0,1,0,0
1582201053,15.6399,15.6032,92.6759,92.6512,0.0,40712.3,0.539681,1.0767,nan,4,3.90079,3.90079,3.90079,3.90079,0.0,0.0,0.0,0.0,0.0,0.0,0.0,0,0,0,0,0,0,0,1,0,0,1,0,0
1582210879,15.576,15.6029,92.6173,92.6505,0.0,40712.6,0.539577,1.07672,nan,4,3.90073,3.90073,3.90073,3.90073,0.0,0.0,0.0,0.0,0.0,0.0,0.0,0,0,0,0,0,0,0,1,0,0,1,0,0
1582221078,15.4867,15.6018,92.6466,92.6504,0.0,40712.9,0.539135,1.0768,nan,4,3.90044,3.90044,3.90044,3.90044,0.0,0.0,0.0,0.0,0.0,0.0,0.0,0,0,0,0,0,0,0,1,0,0,1,0,0
1582230800,15.4739,15.6005,92.6173,92.6498,0.0,40713.1,0.538648,1.07689,nan,4,3.90012,3.90012,3.90012,3.90012,0.0,0.0,0.0,0.0,0.0,0.0,0.0,0,0,0,0,0,0,0,1,0,0,1,0,0
1582241081,15.5505,15.6,92.6759,92.6503,0.0,40713.4,0.538458,1.07692,nan,4,3.9,3.9,3.9,3.9,0.0,0.0,0.0,0.0,0.0,0.0,0.0,0,0,0,0,0,0,0,1,0,0,1,0,0
1582251078,15.5633,15.5996,92.6173,92.6496,0.0,40713.6,0.538318,1.07695,nan,4,3.89991,3.89991,3.89991,3.89991,0.0,0.0,0.0,0.0,0.0,0.0,0.0,0,0,0,0,0,0,0,1,0,0,1,0,0
1582260928,15.6016,15.5996,92.6759,92.6502,0.0,40713.9,0.538325,1.07695,nan,4,3.89991,3.89991,3.89991,3.89991,0.0,0.0,0.0,0.0,0.0,0.0,0.0,0,0,0,0,0,0,0,1,0,0,1,0,0
1582270910,15.6909,15.6005,92.6759,92.6507,0.0,40714.1,0.538673,1.07688,nan,4,3.90014,3.90014,3.90014,3.90014,0.0,0.0,0.0,0.0,0.0,0.0,0.0,0,0,0,0,0,0,0,1,0,0,1,0,0
1582280917,15.6016,15.6006,92.6759,92.6512,0.0,40714.4,0.538677,1.07688,nan,4,3.90014,3.90014,3.90014,3.90014,0.0,0.0,0.0,0.0,0.0,0.0,0.0,0,0,0,0,0,0,0,1,0,0,1,0,0
1582320893,15.742,15.6014,92.6759,92.6514,0.0,40715.4,0.538987,1.07683,nan,4,3.90034,3.90034,3.90034,3.90034,0.0,0.0,0.0,0.0,0.0,0.0,0.0,0,0,0,0,0,0,0,1,0,0,1,0,0
1582330894,15.4867,15.6002,92.6759,92.6519,0.0,40715.7,0.53855,1.07691,nan,4,3.90006,3.90006,3.90006,3.90006,0.0,0.0,0.0,0.0,0.0,0.0,0.0,0,0,0,0,0,0,0,1,0,0,1,0,0
1582340791,15.4994,15.5992,92.6466,92.6518,0.0,40715.9,0.538167,1.07698,nan,4,3.89981,3.89981,3.89981,3.89981,0.0,0.0,0.0,0.0,0.0,0.0,0.0,0,0,0,0,0,0,0,1,0,0,1,0,0
1582350948,15.4867,15.5981,92.6173,92.6511,0.0,40716.2,0.537738,1.07705,nan,4,3.89953,3.89953,3.89953,3.89953,0.0,0.0,0.0,0.0,0.0,0.0,0.0,0,0,0,0,0,0,0,1,0,0,1,0,0
1582650650,15.7037,15.5959,92.6466,92.6485,0.0,40723.9,0.536894,1.0772,nan,4,3.89898,3.89898,3.89898,3.89898,0.0,0.0,0.0,0.0,0.0,0.0,0.0,0,0,0,0,0,0,0,1,0,0,1,0,0
1582660607,15.3845,15.5938,92.6466,92.6485,0.0,40724.2,0.536089,1.07735,nan,4,3.89846,3.89846,3.89846,3.89846,0.0,0.0,0.0,0.0,0.0,0.0,0.0,0,0,0,0,0,0,0,1,0,0,1,0,0
1582670603,15.5888,15.5938,92.6173,92.6479,0.0,40724.4,0.53607,1.07735,nan,4,3.89845,3.89845,3.89845,3.89845,0.0,0.0,0.0,0.0,0.0,0.0,0.0,0,0,0,0,0,0,0,1,0,0,1,0,0
1582680641,15.6271,15.5941,92.6759,92.6484,0.0,40724.7,0.536197,1.07733,nan,4,3.89853,3.89853,3.89853,3.89853,0.0,0.0,0.0,0.0,0.0,0.0,0.0,0,0,0,0,0,0,0,1,0,0,1,0,0
1582690699,15.3718,15.5919,92.7052,92.6496,0.0,40724.9,0.53535,1.07748,nan,4,3.89798,3.89798,3.89798,3.89798,0.0,0.0,0.0,0.0,0.0,0.0,0.0,0,0,0,0,0,0,0,1,0,0,1,0,0
1582700380,15.4867,15.5909,92.6173,92.6489,0.0,40725.2,0.534949,1.07755,nan,4,3.89772,3.89772,3.89772,3.89772,0.0,0.0,0.0,0.0,0.0,0.0,0.0,0,0,0,0,0,0,0,1,0,0,1,0,0
1582710555,15.5505,15.5905,92.6759,92.6495,0.0,40725.5,0.534796,1.07758,nan,4,3.89762,3.89762,3.89762,3.89762,0.0,0.0,0.0,0.0,0.0,0.0,0.0,0,0,0,0,0,0,0,1,0,0,1,0,0
1582720421,15.742,15.592,92.6759,92.65,0.0,40725.7,0.535373,1.07748,nan,4,3.89799,3.89799,3.89799,3.89799,0.0,0.0,0.0,0.0,0.0,0.0,0.0,0,0,0,0,0,0,0,1,0,0,1,0,0
1582730897,15.742,15.5935,92.6466,92.6499,0.0,40726.0,0.535944,1.07738,nan,4,3.89836,3.89836,3.89836,3.89836,0.0,0.0,0.0,0.0,0.0,0.0,0.0,0,0,0,0,0,0,0,1,0,0,1,0,0
1582740530,15.4228,15.5918,92.6173,92.6493,0.0,40726.2,0.535295,1.07749,nan,4,3.89794,3.89794,3.89794,3.89794,0.0,0.0,0.0,0.0,0.0,0.0,0.0,0,0,0,0,0,0,0,1,0,0,1,0,0
1582770468,15.5888,15.5934,92.6466,92.648,0.0,40727.0,0.535935,1.07738,nan,4,3.89836,3.89836,3.89836,3.89836,0.0,0.0,0.0,0.0,0.0,0.0,0.0,0,0,0,0,0,0,0,1,0,0,1,0,0
1582780498,15.5505,15.593,92.6173,92.6474,0.0,40727.3,0.535771,1.07741,nan,4,3.89825,3.89825,3.89825,3.89825,0.0,0.0,0.0,0.0,0.0,0.0,0.0,0,0,0,0,0,0,0,1,0,0,1,0,0
1582790541,15.4994,15.5921,92.6173,92.6468,0.0,40727.5,0.535415,1.07747,nan,4,3.89802,3.89802,3.89802,3.89802,0.0,0.0,0.0,0.0,0.0,0.0,0.0,0,0,0,0,0,0,0,1,0,0,1,0,0
1582800471,15.4994,15.5912,92.6466,92.6468,0.0,40727.8,0.535062,1.07753,nan,4,3.89779,3.89779,3.89779,3.89779,0.0,0.0,0.0,0.0,0.0,0.0,0.0,0,0,0,0,0,0,0,1,0,0,1,0,0
1583090310,15.5505,15.6003,92.6759,92.6481,0.0,40735.2,0.538588,1.0769,nan,4,3.90008,3.90008,3.90008,3.90008,0.0,0.0,0.0,0.0,0.0,0.0,0.0,0,0,0,0,0,0,0,1,0,0,1,0,0
1583100183,15.5505,15.5998,92.6173,92.6475,0.0,40735.5,0.538398,1.07693,nan,4,3.89996,3.89996,3.89996,3.89996,0.0,0.0,0.0,0.0,0.0,0.0,0.0,0,0,0,0,0,0,0,1,0,0,1,0,0
1583110396,15.7165,15.601,92.6466,92.6475,0.0,40735.8,0.538842,1.07685,nan,4,3.90025,3.90025,3.90025,3.90025,0.0,0.0,0.0,0.0,0.0,0.0,0.0,0,0,0,0,0,0,0,1,0,0,1,0,0
1583120294,15.5633,15.6006,92.6466,92.6475,0.0,40736.0,0.538699,1.07688,nan,4,3.90015,3.90015,3.90015,3.90015,0.0,0.0,0.0,0.0,0.0,0.0,0.0,0,0,0,0,0,0,0,1,0,0,1,0,0
1583130165,15.5633,15.6002,92.6173,92.6469,0.0,40736.3,0.538556,1.07691,nan,4,3.90006,3.90006,3.90006,3.90006,0.0,0.0,0.0,0.0,0.0,0.0,0.0,0,0,0,0,0,0,0,1,0,0,1,0,0
1583140211,15.4611,15.5989,92.6759,92.6475,0.0,40736.5,0.538026,1.077,nan,4,3.89972,3.89972,3.89972,3.89972,0.0,0.0,0.0,0.0,0.0,0.0,0.0,0,0,0,0,0,0,0,1,0,0,1,0,0
1583150632,15.8952,15.6018,92.6759,92.648,0.0,40736.8,0.539155,1.0768,nan,4,3.90045,3.90045,3.90045,3.90045,0.0,0.0,0.0,0.0,0.0,0.0,0.0,0,0,0,0,0,0,0,1,0,0,1,0,0
1583160120,15.7803,15.6036,92.6466,92.648,0.0,40737.0,0.539835,1.07668,nan,4,3.90089,3.90089,3.90089,3.90089,0.0,0.0,0.0,0.0,0.0,0.0,0.0,0,0,0,0,0,0,0,1,0,0,1,0,0
1583170202,15.5888,15.6034,92.6466,92.648,0.0,40737.3,0.539779,1.07669,nan,4,3.90086,3.90086,3.90086,3.90086,0.0,0.0,0.0,0.0,0.0,0.0,0.0,0,0,0,0,0,0,0,1,0,0,1,0,0
1583180198,15.6016,15.6034,92.6759,92.6485,0.0,40737.6,0.539772,1.07669,nan,4,3.90085,3.90085,3.90085,3.90085,0.0,0.0,0.0,0.0,0.0,0.0,0.0,0,0,0,0,0,0,0,1,0,0,1,0,0
1583240211,15.5633,15.6022,92.6466,92.6494,0.0,40739.1,0.539304,1.07677,nan,4,3.90055,3.90055,3.90055,3.90055,0.0,0.0,0.0,0.0,0.0,0.0,0.0,0,0,0,0,0,0,0,1,0,0,1,0,0
1583250226,15.5122,15.6013,92.6759,92.6499,0.0,40739.4,0.538961,1.07683,nan,4,3.90032,3.90032,3.90032,3.90032,0.0,0.0,0.0,0.0,0.0,0.0,0.0,0,0,0,0,0,0,0,1,0,0,1,0,0
1583260353,15.5377,15.6007,92.6759,92.6504,0.0,40739.6,0.538719,1.07688,nan,4,3.90017,3.90017,3.90017,3.90017,0.0,0.0,0.0,0.0,0.0,0.0,0.0,0,0,0,0,0,0,0,1,0,0,1,0,0
1583270102,15.6654,15.6013,92.6466,92.6504,0.0,40739.9,0.538966,1.07683,nan,4,3.90033,3.90033,3.90033,3.90033,0.0,0.0,0.0,0.0,0.0,0.0,0.0,0,0,0,0,0,0,0,1,0,0,1,0,0
1583580424,15.7037,15.6002,92.6759,92.6508,0.0,40747.9,0.538521,1.07691,nan,4,3.90004,3.90004,3.90004,3.90004,0.0,0.0,0.0,0.0,0.0,0.0,0.0,0,0,0,0,0,0,0,1,0,0,1,0,0
1583590102,15.5633,15.5998,92.6173,92.6502,0.0,40748.1,0.53838,1.07694,nan,4,3.89995,3.89995,3.89995,3.89995,0.0,0.0,0.0,0.0,0.0,0.0,0.0,0,0,0,0,0,0,0,1,0,0,1,0,0
1583600106,15.4739,15.5985,92.6173,92.6495,0.0,40748.4,0.537901,1.07702,nan,4,3.89964,3.89964,3.89964,3.89964,0.0,0.0,0.0,0.0,0.0,0.0,0.0,0,0,0,0,0,0,0,1,0,0,1,0,0
1583610107,15.6016,15.5986,92.7052,92.6506,0.0,40748.6,0.537912,1.07702,nan,4,3.89964,3.89964,3.89964,3.89964,0.0,0.0,0.0,0.0,0.0,0.0,0.0,0,0,0,0,0,0,0,1,0,0,1,0,0
1583620099,15.4611,15.5972,92.6759,92.6511,0.0,40748.9,0.537389,1.07712,nan,4,3.8993,3.8993,3.8993,3.8993,0.0,0.0,0.0,0.0,0.0,0.0,0.0,0,0,0,0,0,0,0,1,0,0,1,0,0
1583630194,15.5633,15.5969,92.6466,92.651,0.0,40749.1,0.53726,1.07714,nan,4,3.89922,3.89922,3.89922,3.89922,0.0,0.0,0.0,0.0,0.0,0.0,0.0,0,0,0,0,0,0,0,1,0,0,1,0,0
1583640106,15.742,15.5983,92.6173,92.6504,0.0,40749.4,0.537812,1.07704,nan,4,3.89958,3.89958,3.89958,3.89958,0.0,0.0,0.0,0.0,0.0,0.0,0.0,0,0,0,0,0,0,0,1,0,0,1,0,0
1583650211,15.7803,15.6001,92.6759,92.6509,0.0,40749.7,0.538506,1.07692,nan,4,3.90003,3.90003,3.90003,3.90003,0.0,0.0,0.0,0.0,0.0,0.0,0.0,0,0,0,0,0,0,0,1,0,0,1,0,0
1583660285,15.525,15.5994,92.6466,92.6508,0.0,40749.9,0.538219,1.07697,nan,4,3.89984,3.89984,3.89984,3.89984,0.0,0.0,0.0,0.0,0.0,0.0,0.0,0,0,0,0,0,0,0,1,0,0,1,0,0
1583670263,15.7675,15.601,92.6173,92.6501,0.0,40750.2,0.53886,1.07685,nan,4,3.90026,3.90026,3.90026,3.90026,0.0,0.0,0.0,0.0,0.0,0.0,0.0,0,0,0,0,0,0,0,1,0,0,1,0,0
1583760176,15.5505,15.5956,92.6759,92.6515,0.0,40752.5,0.536774,1.07723,nan,4,3.8989,3.8989,3.8989,3.8989,0.0,0.0,0.0,0.0,0.0,0.0,0.0,0,0,0,0,0,0,0,1,0,0,1,0,0
1583770223,15.5888,15.5955,92.6173,92.6509,0.0,40752.8,0.536747,1.07723,nan,4,3.89889,3.89889,3.89889,3.89889,0.0,0.0,0.0,0.0,0.0,0.0,0.0,0,0,0,0,0,0,0,1,0,0,1,0,0
1583780167,15.5505,15.5951,92.6466,92.6508,0.0,40753.0,0.536576,1.07726,nan,4,3.89877,3.89877,3.89877,3.89877,0.0,0.0,0.0,0.0,0.0,0.0,0.0,0,0,0,0,0,0,0,1,0,0,1,0,0
1583790226,15.7548,15.5967,92.6466,92.6507,0.0,40753.3,0.537184,1.07715,nan,4,3.89917,3.89917,3.89917,3.89917,0.0,0.0,0.0,0.0,0.0,0.0,0.0,0,0,0,0,0,0,0,1,0,0,1,0,0
1583800200,15.5888,15.5966,92.6466,92.6506,0.0,40753.5,0.537154,1.07716,nan,4,3.89915,3.89915,3.89915,3.89915,0.0,0.0,0.0,0.0,0.0,0.0,0.0,0,0,0,0,0,0,0,1,0,0,1,0,0
1584080097,15.6909,15.5997,92.6759,92.6464,0.0,40760.7,0.538349,1.07694,nan,4,3.89993,3.89993,3.89993,3.89993,0.0,0.0,0.0,0.0,0.0,0.0,0.0,0,0,0,0,0,0,0,1,0,0,1,0,0
1584090157,15.5633,15.5993,92.6759,92.647,0.0,40761.0,0.53821,1.07697,nan,4,3.89984,3.89984,3.89984,3.89984,0.0,0.0,0.0,0.0,0.0,0.0,0.0,0,0,0,0,0,0,0,1,0,0,1,0,0
1584100129,15.742,15.6008,92.6173,92.6464,0.0,40761.2,0.538753,1.07687,nan,4,3.90019,3.90019,3.90019,3.90019,0.0,0.0,0.0,0.0,0.0,0.0,0.0,0,0,0,0,0,0,0,1,0,0,1,0,0
1584110101,15.5505,15.6003,92.6173,92.6459,0.0,40761.5,0.538562,1.07691,nan,4,3.90006,3.90006,3.90006,3.90006,0.0,0.0,0.0,0.0,0.0,0.0,0.0,0,0,0,0,0,0,0,1,0,0,1,0,0
1584120105,15.5505,15.5998,92.6759,92.6464,0.0,40761.8,0.538372,1.07694,nan,4,3.89994,3.89994,3.89994,3.89994,0.0,0.0,0.0,0.0,0.0,0.0,0.0,0,0,0,0,0,0,0,1,0,0,1,0,0
1584130103,15.5633,15.5994,92.6173,92.6459,0.0,40762.0,0.538233,1.07696,nan,4,3.89985,3.89985,3.89985,3.89985,0.0,0.0,0.0,0.0,0.0,0.0,0.0,0,0,0,0,0,0,0,1,0,0,1,0,0
1584140161,15.5633,15.599,92.6173,92.6453,0.0,40762.3,0.538095,1.07699,nan,4,3.89976,3.89976,3.89976,3.89976,0.0,0.0,0.0,0.0,0.0,0.0,0.0,0,0,0,0,0,0,0,1,0,0,1,0,0
1584150117,15.5888,15.5989,92.6466,92.6453,0.0,40762.5,0.538056,1.077,nan,4,3.89974,3.89974,3.89974,3.89974,0.0,0.0,0.0,0.0,0.0,0.0,0.0,0,0,0,0,0,0,0,1,0,0,1,0,0
1584160126,15.576,15.5987,92.6173,92.6448,0.0,40762.8,0.537969,1.07701,nan,4,3.89968,3.89968,3.89968,3.89968,0.0,0.0,0.0,0.0,0.0,0.0,0.0,0,0,0,0,0,0,0,1,0,0,1,0,0
1584170140,15.3845,15.5966,92.6466,92.6448,0.0,40763.0,0.537154,1.07716,nan,4,3.89915,3.89915,3.89915,3.89915,0.0,0.0,0.0,0.0,0.0,0.0,0.0,0,0,0,0,0,0,0,1,0,0,1,0,0
1584210160,15.5633,15.5962,92.6759,92.6456,0.0,40764.1,0.536982,1.07719,nan,4,3.89904,3.89904,3.89904,3.89904,0.0,0.0,0.0,0.0,0.0,0.0,0.0,0,0,0,0,0,0,0,1,0,0,1,0,0
1584220155,15.5505,15.5957,92.6759,92.6461,0.0,40764.3,0.536808,1.07722,nan,4,3.89893,3.89893,3.89893,3.89893,0.0,0.0,0.0,0.0,0.0,0.0,0.0,0,0,0,0,0,0,0,1,0,0,1,0,0
1584230184,15.5888,15.5956,92.588,92.645,0.0,40764.6,0.536782,1.07722,nan,4,3.89891,3.89891,3.89891,3.89891,0.0,0.0,0.0,0.0,0.0,0.0,0.0,0,0,0,0,0,0,0,1,0,0,1,0,0
1584240242,15.576,15.5954,92.6759,92.6456,0.0,40764.9,0.536707,1.07724,nan,4,3.89886,3.89886,3.89886,3.89886,0.0,0.0,0.0,0.0,0.0,0.0,0.0,0,0,0,0,0,0,0,1,0,0,1,0,0
1584530098,15.5505,15.585,92.6466,92.6489,0.0,40772.3,0.532702,1.07796,nan,4,3.89626,3.89626,3.89626,3.89626,0.0,0.0,0.0,0.0,0.0,0.0,0.0,0,0,0,0,0,0,0,1,0,0,1,0,0
1584540149,15.7675,15.5868,92.6466,92.6488,0.0,40772.6,0.533398,1.07783,nan,4,3.89671,3.89671,3.89671,3.89671,0.0,0.0,0.0,0.0,0.0,0.0,0.0,0,0,0,0,0,0,0,1,0,0,1,0,0
1584550096,15.4228,15.5852,92.6759,92.6494,0.0,40772.8,0.532773,1.07795,nan,4,3.8963,3.8963,3.8963,3.8963,0.0,0.0,0.0,0.0,0.0,0.0,0.0,0,0,0,0,0,0,0,1,0,0,1,0,0
1584560101,15.5505,15.5849,92.588,92.6482,0.0,40773.1,0.532641,1.07797,nan,4,3.89622,3.89622,3.89622,3.89622,0.0,0.0,0.0,0.0,0.0,0.0,0.0,0,0,0,0,0,0,0,1,0,0,1,0,0
1584570097,15.576,15.5848,92.588,92.647,0.0,40773.4,0.532607,1.07797,nan,4,3.89619,3.89619,3.89619,3.89619,0.0,0.0,0.0,0.0,0.0,0.0,0.0,0,0,0,0,0,0,0,1,0,0,1,0,0
1584580160,15.6909,15.5858,92.7052,92.6481,0.0,40773.6,0.533011,1.0779,nan,4,3.89646,3.89646,3.89646,3.89646,0.0,0.0,0.0,0.0,0.0,0.0,0.0,0,0,0,0,0,0,0,1,0,0,1,0,0
1584590103,15.5505,15.5855,92.6466,92.6481,0.0,40773.9,0.532876,1.07793,nan,4,3.89637,3.89637,3.89637,3.89637,0.0,0.0,0.0,0.0,0.0,0.0,0.0,0,0,0,0,0,0,0,1,0,0,1,0,0
1584600110,15.7675,15.5873,92.6173,92.6475,0.0,40774.1,0.53357,1.0778,nan,4,3.89682,3.89682,3.89682,3.89682,0.0,0.0,0.0,0.0,0.0,0.0,0.0,0,0,0,0,0,0,0,1,0,0,1,0,0
1584610134,15.5505,15.5869,92.6759,92.6481,0.0,40774.4,0.53343,1.07783,nan,4,3.89673,3.89673,3.89673,3.89673,0.0,0.0,0.0,0.0,0.0,0.0,0.0,0,0,0,0,0,0,0,1,0,0,1,0,0
1584620100,15.576,15.5868,92.6466,92.648,0.0,40774.6,0.533388,1.07783,nan,4,3.8967,3.8967,3.8967,3.8967,0.0,0.0,0.0,0.0,0.0,0.0,0.0,0,0,0,0,0,0,0,1,0,0,1,0,0
1584630100,15.6909,15.5878,92.6759,92.6486,0.0,40774.9,0.533785,1.07776,nan,4,3.89696,3.89696,3.89696,3.89696,0.0,0.0,0.0,0.0,0.0,0.0,0.0,0,0,0,0,0,0,0,1,0,0,1,0,0
1584670099,15.5505,15.5876,92.6759,92.649,0.0,40775.9,0.533711,1.07778,nan,4,3.89691,3.89691,3.89691,3.89691,0.0,0.0,0.0,0.0,0.0,0.0,0.0,0,0,0,0,0,0,0,1,0,0,1,0,0
1584680106,15.5505,15.5873,92.6759,92.6495,0.0,40776.2,0.533569,1.0778,nan,4,3.89682,3.89682,3.89682,3.89682,0.0,0.0,0.0,0.0,0.0,0.0,0.0,0,0,0,0,0,0,0,1,0,0,1,0,0
1584690104,15.7931,15.5893,92.6173,92.6489,0.0,40776.4,0.534353,1.07766,nan,4,3.89733,3.89733,3.89733,3.89733,0.0,0.0,0.0,0.0,0.0,0.0,0.0,0,0,0,0,0,0,0,1,0,0,1,0,0
1584700116,15.4228,15.5877,92.6759,92.6494,0.0,40776.7,0.53372,1.07777,nan,4,3.89692,3.89692,3.89692,3.89692,0.0,0.0,0.0,0.0,0.0,0.0,0.0,0,0,0,0,0,0,0,1,0,0,1,0,0
1585010162,15.7548,15.5898,92.6759,92.6485,0.0,40784.7,0.534524,1.07763,nan,4,3.89744,3.89744,3.89744,3.89744,0.0,0.0,0.0,0.0,0.0,0.0,0.0,0,0,0,0,0,0,0,1,0,0,1,0,0
1585020099,15.576,15.5896,92.6173,92.6479,0.0,40784.9,0.534472,1.07764,nan,4,3.89741,3.89741,3.89741,3.89741,0.0,0.0,0.0,0.0,0.0,0.0,0.0,0,0,0,0,0,0,0,1,0,0,1,0,0
1585030111,15.7292,15.591,92.6173,92.6473,0.0,40785.2,0.535004,1.07754,nan,4,3.89775,3.89775,3.89775,3.89775,0.0,0.0,0.0,0.0,0.0,0.0,0.0,0,0,0,0,0,0,0,1,0,0,1,0,0
1585040107,15.5505,15.5906,92.588,92.6462,0.0,40785.5,0.534849,1.07757,nan,4,3.89765,3.89765,3.89765,3.89765,0.0,0.0,0.0,0.0,0.0,0.0,0.0,0,0,0,0,0,0,0,1,0,0,1,0,0
1585050189,15.6016,15.5907,92.6466,92.6462,0.0,40785.7,0.534891,1.07756,nan,4,3.89768,3.89768,3.89768,3.89768,0.0,0.0,0.0,0.0,0.0,0.0,0.0,0,0,0,0,0,0,0,1,0,0,1,0,0
1585060097,15.5633,15.5904,92.6173,92.6456,0.0,40786.0,0.534787,1.07758,nan,4,3.89761,3.89761,3.89761,3.89761,0.0,0.0,0.0,0.0,0.0,0.0,0.0,0,0,0,0,0,0,0,1,0,0,1,0,0
1585070099,15.6782,15.5913,92.7052,92.6468,0.0,40786.2,0.535121,1.07752,nan,4,3.89783,3.89783,3.89783,3.89783,0.0,0.0,0.0,0.0,0.0,0.0,0.0,0,0,0,0,0,0,0,1,0,0,1,0,0
1585080100,15.3973,15.5894,92.6466,92.6468,0.0,40786.5,0.534382,1.07766,nan,4,3.89735,3.89735,3.89735,3.89735,0.0,0.0,0.0,0.0,0.0,0.0,0.0,0,0,0,0,0,0,0,1,0,0,1,0,0
1585090136,15.5633,15.5891,92.6759,92.6473,0.0,40786.7,0.534283,1.07767,nan,4,3.89728,3.89728,3.89728,3.89728,0.0,0.0,0.0,0.0,0.0,0.0,0.0,0,0,0,0,0,0,0,1,0,0,1,0,0
1585100137,15.2824,15.5861,92.6466,92.6473,0.0,40787.0,0.533114,1.07788,nan,4,3.89652,3.89652,3.89652,3.89652,0.0,0.0,0.0,0.0,0.0,0.0,0.0,0,0,0,0,0,0,0,1,0,0,1,0,0
1585110141,15.7165,15.5874,92.6466,92.6473,0.0,40787.3,0.533611,1.07779,nan,4,3.89685,3.89685,3.89685,3.89685,0.0,0.0,0.0,0.0,0.0,0.0,0.0,0,0,0,0,0,0,0,1,0,0,1,0,0
1585140142,15.5505,15.5864,92.6759,92.6484,0.0,40788.0,0.533242,1.07786,nan,4,3.89661,3.89661,3.89661,3.89661,0.0,0.0,0.0,0.0,0.0,0.0,0.0,0,0,0,0,0,0,0,1,0,0,1,0,0
1585150132,15.7803,15.5883,92.7052,92.6495,0.0,40788.3,0.53398,1.07773,nan,4,3.89709,3.89709,3.89709,3.89709,0.0,0.0,0.0,0.0,0.0,0.0,0.0,0,0,0,0,0,0,0,1,0,0,1,0,0
1585160197,15.7931,15.5904,92.6466,92.6495,0.0,40788.6,0.53476,1.07759,nan,4,3.89759,3.89759,3.89759,3.89759,0.0,0.0,0.0,0.0,0.0,0.0,0.0,0,0,0,0,0,0,0,1,0,0,1,0,0
1585170146,15.5633,15.5901,92.6759,92.65,0.0,40788.8,0.534657,1.07761,nan,4,3.89753,3.89753,3.89753,3.89753,0.0,0.0,0.0,0.0,0.0,0.0,0.0,0,0,0,0,0,0,0,1,0,0,1,0,0
1585450393,15.6654,15.5917,92.6759,92.6547,0.0,40796.0,0.535276,1.0775,nan,4,3.89793,3.89793,3.89793,3.89793,0.0,0.0,0.0,0.0,0.0,0.0,0.0,0,0,0,0,0,0,0,1,0,0,1,0,0
1585460323,15.6909,15.5927,92.588,92.6534,0.0,40796.3,0.535654,1.07743,nan,4,3.89818,3.89818,3.89818,3.89818,0.0,0.0,0.0,0.0,0.0,0.0,0.0,0,0,0,0,0,0,0,1,0,0,1,0,0
1585470256,15.6782,15.5935,92.588,92.6521,0.0,40796.5,0.535979,1.07737,nan,4,3.89839,3.89839,3.89839,3.89839,0.0,0.0,0.0,0.0,0.0,0.0,0.0,0,0,0,0,0,0,0,1,0,0,1,0,0
1585480244,15.4867,15.5925,92.6173,92.6514,0.0,40796.8,0.535572,1.07744,nan,4,3.89812,3.89812,3.89812,3.89812,0.0,0.0,0.0,0.0,0.0,0.0,0.0,0,0,0,0,0,0,0,1,0,0,1,0,0
1585490311,15.576,15.5923,92.6759,92.6519,0.0,40797.1,0.53551,1.07745,nan,4,3.89808,3.89808,3.89808,3.89808,0.0,0.0,0.0,0.0,0.0,0.0,0.0,0,0,0,0,0,0,0,1,0,0,1,0,0
1585500282,15.7803,15.5942,92.6466,92.6518,0.0,40797.3,0.536225,1.07732,nan,4,3.89855,3.89855,3.89855,3.89855,0.0,0.0,0.0,0.0,0.0,0.0,0.0,0,0,0,0,0,0,0,1,0,0,1,0,0
1585510273,15.6271,15.5945,92.6759,92.6523,0.0,40797.6,0.536351,1.0773,nan,4,3.89863,3.89863,3.89863,3.89863,0.0,0.0,0.0,0.0,0.0,0.0,0.0,0,0,0,0,0,0,0,1,0,0,1,0,0
1585520246,15.6016,15.5946,92.6466,92.6522,0.0,40797.8,0.536378,1.0773,nan,4,3.89865,3.89865,3.89865,3.89865,0.0,0.0,0.0,0.0,0.0,0.0,0.0,0,0,0,0,0,0,0,1,0,0,1,0,0
1585530285,15.7675,15.5963,92.7052,92.6532,0.0,40798.1,0.537036,1.07718,nan,4,3.89907,3.89907,3.89907,3.89907,0.0,0.0,0.0,0.0,0.0,0.0,0.0,0,0,0,0,0,0,0,1,0,0,1,0,0
1585540275,15.576,15.5961,92.6466,92.6531,0.0,40798.3,0.53696,1.07719,nan,4,3.89902,3.89902,3.89902,3.89902,0.0,0.0,0.0,0.0,0.0,0.0,0.0,0,0,0,0,0,0,0,1,0,0,1,0,0
1585580099,15.4356,15.5931,92.6466,92.6532,0.0,40799.4,0.535789,1.0774,nan,4,3.89826,3.89826,3.89826,3.89826,0.0,0.0,0.0,0.0,0.0,0.0,0.0,0,0,0,0,0,0,0,1,0,0,1,0,0
1585590298,15.7292,15.5944,92.6759,92.6536,0.0,40799.6,0.536308,1.07731,nan,4,3.8986,3.8986,3.8986,3.8986,0.0,0.0,0.0,0.0,0.0,0.0,0.0,0,0,0,0,0,0,0,1,0,0,1,0,0
1585600099,15.5505,15.594,92.6466,92.6535,0.0,40799.9,0.536141,1.07734,nan,4,3.89849,3.89849,3.89849,3.89849,0.0,0.0,0.0,0.0,0.0,0.0,0.0,0,0,0,0,0,0,0,1,0,0,1,0,0
1585610141,15.6016,15.594,92.6759,92.6539,0.0,40800.1,0.53617,1.07733,nan,4,3.89851,3.89851,3.89851,3.89851,0.0,0.0,0.0,0.0,0.0,0.0,0.0,0,0,0,0,0,0,0,1,0,0,1,0,0
1585620130,15.5505,15.5936,92.6466,92.6538,0.0,40800.4,0.536004,1.07736,nan,4,3.8984,3.8984,3.8984,3.8984,0.0,0.0,0.0,0.0,0.0,0.0,0.0,0,0,0,0,0,0,0,1,0,0,1,0,0
1585910149,15.4867,15.6004,92.6173,92.6494,0.0,40807.9,0.538628,1.07689,nan,4,3.90011,3.90011,3.90011,3.90011,0.0,0.0,0.0,0.0,0.0,0.0,0.0,0,0,0,0,0,0,0,1,0,0,1,0,0
1585920097,15.5122,15.5996,92.6466,92.6494,0.0,40808.1,0.538292,1.07695,nan,4,3.89989,3.89989,3.89989,3.89989,0.0,0.0,0.0,0.0,0.0,0.0,0.0,0,0,0,0,0,0,0,1,0,0,1,0,0
1585930100,15.6271,15.5998,92.6466,92.6493,0.0,40808.4,0.538397,1.07693,nan,4,3.89996,3.89996,3.89996,3.89996,0.0,0.0,0.0,0.0,0.0,0.0,0.0,0,0,0,0,0,0,0,1,0,0,1,0,0
1585940104,15.7803,15.6016,92.6173,92.6487,0.0,40808.6,0.539084,1.07681,nan,4,3.9004,3.9004,3.9004,3.9004,0.0,0.0,0.0,0.0,0.0,0.0,0.0,0,0,0,0,0,0,0,1,0,0,1,0,0
1585950097,15.576,15.6014,92.6466,92.6486,0.0,40808.9,0.538986,1.07683,nan,4,3.90034,3.90034,3.90034,3.90034,0.0,0.0,0.0,0.0,0.0,0.0,0.0,0,0,0,0,0,0,0,1,0,0,1,0,0
1585960099,15.576,15.6011,92.588,92.6474,0.0,40809.2,0.53889,1.07685,nan,4,3.90028,3.90028,3.90028,3.90028,0.0,0.0,0.0,0.0,0.0,0.0,0.0,0,0,0,0,0,0,0,1,0,0,1,0,0
1585970123,15.5633,15.6007,92.6173,92.6469,0.0,40809.4,0.538746,1.07687,nan,4,3.90018,3.90018,3.90018,3.90018,0.0,0.0,0.0,0.0,0.0,0.0,0.0,0,0,0,0,0,0,0,1,0,0,1,0,0
1585980103,15.7548,15.6023,92.6466,92.6469,0.0,40809.7,0.539332,1.07677,nan,4,3.90057,3.90057,3.90057,3.90057,0.0,0.0,0.0,0.0,0.0,0.0,0.0,0,0,0,0,0,0,0,1,0,0,1,0,0
1585990098,15.7292,15.6035,92.6466,92.6468,0.0,40809.9,0.539816,1.07668,nan,4,3.90088,3.90088,3.90088,3.90088,0.0,0.0,0.0,0.0,0.0,0.0,0.0,0,0,0,0,0,0,0,1,0,0,1,0,0
1586000098,15.5505,15.603,92.6173,92.6463,0.0,40810.2,0.539614,1.07672,nan,4,3.90075,3.90075,3.90075,3.90075,0.0,0.0,0.0,0.0,0.0,0.0,0.0,0,0,0,0,0,0,0,1,0,0,1,0,0
1586010160,15.576,15.6027,92.6466,92.6463,0.0,40810.5,0.539511,1.07673,nan,4,3.90068,3.90068,3.90068,3.90068,0.0,0.0,0.0,0.0,0.0,0.0,0.0,0,0,0,0,0,0,0,1,0,0,1,0,0
1586050133,15.742,15.6016,92.6759,92.6485,0.0,40811.5,0.539079,1.07681,nan,4,3.9004,3.9004,3.9004,3.9004,0.0,0.0,0.0,0.0,0.0,0.0,0.0,0,0,0,0,0,0,0,1,0,0,1,0,0
1586060099,15.5505,15.6011,92.6759,92.649,0.0,40811.7,0.538884,1.07685,nan,4,3.90027,3.90027,3.90027,3.90027,0.0,0.0,0.0,0.0,0.0,0.0,0.0,0,0,0,0,0,0,0,1,0,0,1,0,0
1586070101,15.6143,15.6012,92.6466,92.649,0.0,40812.0,0.538934,1.07684,nan,4,3.90031,3.90031,3.90031,3.90031,0.0,0.0,0.0,0.0,0.0,0.0,0.0,0,0,0,0,0,0,0,1,0,0,1,0,0
1586080107,15.576,15.601,92.6759,92.6495,0.0,40812.3,0.538838,1.07686,nan,4,3.90024,3.90024,3.90024,3.90024,0.0,0.0,0.0,0.0,0.0,0.0,0.0,0,0,0,0,0,0,0,1,0,0,1,0,0
1586380101,15.4994,15.5976,92.6759,92.6471,0.0,40820.0,0.537545,1.07709,nan,4,3.8994,3.8994,3.8994,3.8994,0.0,0.0,0.0,0.0,0.0,0.0,0.0,0,0,0,0,0,0,0,1,0,0,1,0,0
1586390096,15.4994,15.5966,92.6466,92.6471,0.0,40820.2,0.537171,1.07715,nan,4,3.89916,3.89916,3.89916,3.89916,0.0,0.0,0.0,0.0,0.0,0.0,0.0,0,0,0,0,0,0,0,1,0,0,1,0,0
1586400103,15.576,15.5964,92.7052,92.6483,0.0,40820.5,0.537093,1.07717,nan,4,3.89911,3.89911,3.89911,3.89911,0.0,0.0,0.0,0.0,0.0,0.0,0.0,0,0,0,0,0,0,0,1,0,0,1,0,0
1586410098,15.3462,15.594,92.6466,92.6482,0.0,40820.8,0.53614,1.07734,nan,4,3.89849,3.89849,3.89849,3.89849,0.0,0.0,0.0,0.0,0.0,0.0,0.0,0,0,0,0,0,0,0,1,0,0,1,0,0
1586420098,15.4994,15.593,92.6759,92.6488,0.0,40821.0,0.53578,1.0774,nan,4,3.89826,3.89826,3.89826,3.89826,0.0,0.0,0.0,0.0,0.0,0.0,0.0,0,0,0,0,0,0,0,1,0,0,1,0,0
1586430104,15.6654,15.5937,92.588,92.6476,0.0,40821.3,0.536056,1.07736,nan,4,3.89844,3.89844,3.89844,3.89844,0.0,0.0,0.0,0.0,0.0,0.0,0.0,0,0,0,0,0,0,0,1,0,0,1,0,0
1586440106,15.5505,15.5933,92.6466,92.6476,0.0,40821.5,0.535891,1.07738,nan,4,3.89833,3.89833,3.89833,3.89833,0.0,0.0,0.0,0.0,0.0,0.0,0.0,0,0,0,0,0,0,0,1,0,0,1,0,0
1586450102,15.5377,15.5928,92.6173,92.647,0.0,40821.8,0.535679,1.07742,nan,4,3.89819,3.89819,3.89819,3.89819,0.0,0.0,0.0,0.0,0.0,0.0,0.0,0,0,0,0,0,0,0,1,0,0,1,0,0
1586460101,15.5377,15.5922,92.6466,92.647,0.0,40822.0,0.53547,1.07746,nan,4,3.89806,3.89806,3.89806,3.89806,0.0,0.0,0.0,0.0,0.0,0.0,0.0,0,0,0,0,0,0,0,1,0,0,1,0,0
1586470098,15.6016,15.5923,92.6759,92.6475,0.0,40822.3,0.535505,1.07745,nan,4,3.89808,3.89808,3.89808,3.89808,0.0,0.0,0.0,0.0,0.0,0.0,0.0,0,0,0,0,0,0,0,1,0,0,1,0,0
1586510100,15.7931,15.591,92.6759,92.6497,0.0,40823.3,0.534997,1.07755,nan,4,3.89775,3.89775,3.89775,3.89775,0.0,0.0,0.0,0.0,0.0,0.0,0.0,0,0,0,0,0,0,0,1,0,0,1,0,0
1586520098,15.6782,15.5919,92.6466,92.6497,0.0,40823.6,0.535329,1.07749,nan,4,3.89796,3.89796,3.89796,3.89796,0.0,0.0,0.0,0.0,0.0,0.0,0.0,0,0,0,0,0,0,0,1,0,0,1,0,0
1586530099,15.6016,15.592,92.6173,92.649,0.0,40823.9,0.535367,1.07748,nan,4,3.89799,3.89799,3.89799,3.89799,0.0,0.0,0.0,0.0,0.0,0.0,0.0,0,0,0,0,0,0,0,1,0,0,1,0,0
1586540200,15.7931,15.5939,92.6466,92.649,0.0,40824.1,0.536132,1.07734,nan,4,3.89849,3.89849,3.89849,3.89849,0.0,0.0,0.0,0.0,0.0,0.0,0.0,0,0,0,0,0,0,0,1,0,0,1,0,0
1586820131,15.5122,15.5958,92.6466,92.6463,0.0,40831.3,0.536832,1.07722,nan,4,3.89894,3.89894,3.89894,3.89894,0.0,0.0,0.0,0.0,0.0,0.0,0.0,0,0,0,0,0,0,0,1,0,0,1,0,0
1586830128,15.4994,15.5948,92.6466,92.6463,0.0,40831.6,0.536465,1.07728,nan,4,3.8987,3.8987,3.8987,3.8987,0.0,0.0,0.0,0.0,0.0,0.0,0.0,0,0,0,0,0,0,0,1,0,0,1,0,0
1586840180,15.7292,15.5961,92.6173,92.6458,0.0,40831.8,0.536977,1.07719,nan,4,3.89903,3.89903,3.89903,3.89903,0.0,0.0,0.0,0.0,0.0,0.0,0.0,0,0,0,0,0,0,0,1,0,0,1,0,0
1586850140,15.5633,15.5958,92.7052,92.6469,0.0,40832.1,0.536852,1.07721,nan,4,3.89895,3.89895,3.89895,3.89895,0.0,0.0,0.0,0.0,0.0,0.0,0.0,0,0,0,0,0,0,0,1,0,0,1,0,0
1586860138,15.4611,15.5945,92.7052,92.6481,0.0,40832.4,0.536339,1.0773,nan,4,3.89862,3.89862,3.89862,3.89862,0.0,0.0,0.0,0.0,0.0,0.0,0.0,0,0,0,0,0,0,0,1,0,0,1,0,0
1586870143,15.5888,15.5944,92.6759,92.6486,0.0,40832.6,0.536318,1.07731,nan,4,3.89861,3.89861,3.89861,3.89861,0.0,0.0,0.0,0.0,0.0,0.0,0.0,0,0,0,0,0,0,0,1,0,0,1,0,0
1586880153,15.6271,15.5947,92.6173,92.648,0.0,40832.9,0.536442,1.07729,nan,4,3.89869,3.89869,3.89869,3.89869,0.0,0.0,0.0,0.0,0.0,0.0,0.0,0,0,0,0,0,0,0,1,0,0,1,0,0
1586890169,15.6399,15.5952,92.6466,92.648,0.0,40833.1,0.536613,1.07725,nan,4,3.8988,3.8988,3.8988,3.8988,0.0,0.0,0.0,0.0,0.0,0.0,0.0,0,0,0,0,0,0,0,1,0,0,1,0,0
1586900129,15.7292,15.5965,92.6173,92.6474,0.0,40833.4,0.537124,1.07716,nan,4,3.89913,3.89913,3.89913,3.89913,0.0,0.0,0.0,0.0,0.0,0.0,0.0,0,0,0,0,0,0,0,1,0,0,1,0,0
1586910134,15.8058,15.5986,92.6759,92.6479,0.0,40833.6,0.537921,1.07702,nan,4,3.89965,3.89965,3.89965,3.89965,0.0,0.0,0.0,0.0,0.0,0.0,0.0,0,0,0,0,0,0,0,1,0,0,1,0,0
1586950101,15.3845,15.5963,92.6759,92.6478,0.0,40834.7,0.53705,1.07718,nan,4,3.89908,3.89908,3.89908,3.89908,0.0,0.0,0.0,0.0,0.0,0.0,0.0,0,0,0,0,0,0,0,1,0,0,1,0,0
1586960100,15.6143,15.5965,92.6466,92.6478,0.0,40834.9,0.537118,1.07716,nan,4,3.89913,3.89913,3.89913,3.89913,0.0,0.0,0.0,0.0,0.0,0.0,0.0,0,0,0,0,0,0,0,1,0,0,1,0,0
1586970099,15.7292,15.5978,92.6759,92.6484,0.0,40835.2,0.537624,1.07707,nan,4,3.89946,3.89946,3.89946,3.89946,0.0,0.0,0.0,0.0,0.0,0.0,0.0,0,0,0,0,0,0,0,1,0,0,1,0,0
1586980098,15.8697,15.6005,92.6759,92.6489,0.0,40835.4,0.538659,1.07689,nan,4,3.90013,3.90013,3.90013,3.90013,0.0,0.0,0.0,0.0,0.0,0.0,0.0,0,0,0,0,0,0,0,1,0,0,1,0,0
1587270216,15.7675,15.6076,92.6466,92.6498,0.0,40842.9,0.541401,1.0764,nan,4,3.90191,3.90191,3.90191,3.90191,0.0,0.0,0.0,0.0,0.0,0.0,0.0,0,0,0,0,0,0,0,1,0,0,1,0,0
1587280157,15.576,15.6073,92.6173,92.6492,0.0,40843.2,0.54128,1.07642,nan,4,3.90183,3.90183,3.90183,3.90183,0.0,0.0,0.0,0.0,0.0,0.0,0.0,0,0,0,0,0,0,0,1,0,0,1,0,0
1587290101,15.5888,15.6071,92.6173,92.6486,0.0,40843.4,0.54121,1.07643,nan,4,3.90179,3.90179,3.90179,3.90179,0.0,0.0,0.0,0.0,0.0,0.0,0.0,0,0,0,0,0,0,0,1,0,0,1,0,0
1587300099,15.4994,15.6061,92.6173,92.6479,0.0,40843.7,0.5408,1.0765,nan,4,3.90152,3.90152,3.90152,3.90152,0.0,0.0,0.0,0.0,0.0,0.0,0.0,0,0,0,0,0,0,0,1,0,0,1,0,0
1587310137,15.6399,15.6064,92.6759,92.6485,0.0,40843.9,0.540929,1.07648,nan,4,3.9016,3.9016,3.9016,3.9016,0.0,0.0,0.0,0.0,0.0,0.0,0.0,0,0,0,0,0,0,0,1,0,0,1,0,0
1587320158,15.525,15.6056,92.6173,92.6479,0.0,40844.2,0.540618,1.07654,nan,4,3.9014,3.9014,3.9014,3.9014,0.0,0.0,0.0,0.0,0.0,0.0,0.0,0,0,0,0,0,0,0,1,0,0,1,0,0
1587330110,15.7165,15.6067,92.588,92.6467,0.0,40844.5,0.54104,1.07646,nan,4,3.90168,3.90168,3.90168,3.90168,0.0,0.0,0.0,0.0,0.0,0.0,0.0,0,0,0,0,0,0,0,1,0,0,1,0,0
1587340112,15.5505,15.6061,92.6466,92.6467,0.0,40844.7,0.540827,1.0765,nan,4,3.90154,3.90154,3.90154,3.90154,0.0,0.0,0.0,0.0,0.0,0.0,0.0,0,0,0,0,0,0,0,1,0,0,1,0,0
1587350158,15.5633,15.6057,92.6759,92.6473,0.0,40845.0,0.540663,1.07653,nan,4,3.90143,3.90143,3.90143,3.90143,0.0,0.0,0.0,0.0,0.0,0.0,0.0,0,0,0,0,0,0,0,1,0,0,1,0,0
1587360120,15.3845,15.6035,92.6466,92.6473,0.0,40845.2,0.539821,1.07668,nan,4,3.90088,3.90088,3.90088,3.90088,0.0,0.0,0.0,0.0,0.0,0.0,0.0,0,0,0,0,0,0,0,1,0,0,1,0,0
1587400107,15.6526,15.6042,92.6466,92.6455,0.0,40846.3,0.540083,1.07663,nan,4,3.90105,3.90105,3.90105,3.90105,0.0,0.0,0.0,0.0,0.0,0.0,0.0,0,0,0,0,0,0,0,1,0,0,1,0,0
1587410110,15.6526,15.6047,92.6466,92.6456,0.0,40846.5,0.540267,1.0766,nan,4,3.90117,3.90117,3.90117,3.90117,0.0,0.0,0.0,0.0,0.0,0.0,0.0,0,0,0,0,0,0,0,1,0,0,1,0,0
1587420099,15.4739,15.6034,92.6759,92.6461,0.0,40846.8,0.53977,1.07669,nan,4,3.90085,3.90085,3.90085,3.90085,0.0,0.0,0.0,0.0,0.0,0.0,0.0,0,0,0,0,0,0,0,1,0,0,1,0,0
1587430096,15.6654,15.604,92.7052,92.6473,0.0,40847.0,0.540006,1.07665,nan,4,3.901,3.901,3.901,3.901,0.0,0.0,0.0,0.0,0.0,0.0,0.0,0,0,0,0,0,0,0,1,0,0,1,0,0
1587440106,15.4101,15.6021,92.6173,92.6467,0.0,40847.3,0.539267,1.07678,nan,4,3.90052,3.90052,3.90052,3.90052,0.0,0.0,0.0,0.0,0.0,0.0,0.0,0,0,0,0,0,0,0,1,0,0,1,0,0
1587760113,15.7548,15.6035,92.6759,92.6411,0.0,40855.5,0.539813,1.07668,nan,4,3.90088,3.90088,3.90088,3.90088,0.0,0.0,0.0,0.0,0.0,0.0,0.0,0,0,0,0,0,0,0,1,0,0,1,0,0
1587770098,15.6782,15.6043,92.7052,92.6423,0.0,40855.8,0.540097,1.07663,nan,4,3.90106,3.90106,3.90106,3.90106,0.0,0.0,0.0,0.0,0.0,0.0,0.0,0,0,0,0,0,0,0,1,0,0,1,0,0
1587780097,15.4228,15.6025,92.588,92.6413,0.0,40856.1,0.539406,1.07675,nan,4,3.90061,3.90061,3.90061,3.90061,0.0,0.0,0.0,0.0,0.0,0.0,0.0,0,0,0,0,0,0,0,1,0,0,1,0,0
1587790103,15.8058,15.6045,92.6173,92.6408,0.0,40856.3,0.540181,1.07661,nan,4,3.90112,3.90112,3.90112,3.90112,0.0,0.0,0.0,0.0,0.0,0.0,0.0,0,0,0,0,0,0,0,1,0,0,1,0,0
1587800132,15.6016,15.6044,92.6759,92.6415,0.0,40856.6,0.54017,1.07662,nan,4,3.90111,3.90111,3.90111,3.90111,0.0,0.0,0.0,0.0,0.0,0.0,0.0,0,0,0,0,0,0,0,1,0,0,1,0,0
1587810099,15.742,15.6058,92.6759,92.6421,0.0,40856.8,0.540693,1.07652,nan,4,3.90145,3.90145,3.90145,3.90145,0.0,0.0,0.0,0.0,0.0,0.0,0.0,0,0,0,0,0,0,0,1,0,0,1,0,0
1587820099,15.7292,15.607,92.6466,92.6422,0.0,40857.1,0.541164,1.07644,nan,4,3.90176,3.90176,3.90176,3.90176,0.0,0.0,0.0,0.0,0.0,0.0,0.0,0,0,0,0,0,0,0,1,0,0,1,0,0
1587830107,15.5505,15.6065,92.6759,92.6429,0.0,40857.3,0.540948,1.07648,nan,4,3.90162,3.90162,3.90162,3.90162,0.0,0.0,0.0,0.0,0.0,0.0,0.0,0,0,0,0,0,0,0,1,0,0,1,0,0
1587840164,15.5505,15.6059,92.6173,92.6424,0.0,40857.6,0.540735,1.07652,nan,4,3.90148,3.90148,3.90148,3.90148,0.0,0.0,0.0,0.0,0.0,0.0,0.0,0,0,0,0,0,0,0,1,0,0,1,0,0
1587850107,15.8186,15.608,92.6466,92.6425,0.0,40857.9,0.541545,1.07637,nan,4,3.902,3.902,3.902,3.902,0.0,0.0,0.0,0.0,0.0,0.0,0.0,0,0,0,0,0,0,0,1,0,0,1,0,0
1587860102,15.7292,15.6092,92.6173,92.642,0.0,40858.1,0.542007,1.07629,nan,4,3.9023,3.9023,3.9023,3.9023,0.0,0.0,0.0,0.0,0.0,0.0,0.0,0,0,0,0,0,0,0,1,0,0,1,0,0
1587880132,15.4994,15.6072,92.6466,92.6416,0.0,40858.6,0.541223,1.07643,nan,4,3.90179,3.90179,3.90179,3.90179,0.0,0.0,0.0,0.0,0.0,0.0,0.0,0,0,0,0,0,0,0,1,0,0,1,0,0
1587890099,15.5505,15.6066,92.6466,92.6417,0.0,40858.9,0.541008,1.07647,nan,4,3.90165,3.90165,3.90165,3.90165,0.0,0.0,0.0,0.0,0.0,0.0,0.0,0,0,0,0,0,0,0,1,0,0,1,0,0
1587900126,15.5377,15.6059,92.6759,92.6424,0.0,40859.1,0.540745,1.07651,nan,4,3.90148,3.90148,3.90148,3.90148,0.0,0.0,0.0,0.0,0.0,0.0,0.0,0,0,0,0,0,0,0,1,0,0,1,0,0
1587910132,15.5888,15.6058,92.6466,92.6424,0.0,40859.4,0.54068,1.07653,nan,4,3.90144,3.90144,3.90144,3.90144,0.0,0.0,0.0,0.0,0.0,0.0,0.0,0,0,0,0,0,0,0,1,0,0,1,0,0
1588210150,15.5633,15.6072,92.6466,92.6485,0.0,40867.1,0.541218,1.07643,nan,4,3.90179,3.90179,3.90179,3.90179,0.0,0.0,0.0,0.0,0.0,0.0,0.0,0,0,0,0,0,0,0,1,0,0,1,0,0
1588220171,15.4484,15.6056,92.588,92.6473,0.0,40867.4,0.540613,1.07654,nan,4,3.9014,3.9014,3.9014,3.9014,0.0,0.0,0.0,0.0,0.0,0.0,0.0,0,0,0,0,0,0,0,1,0,0,1,0,0
1588230131,15.4994,15.6045,92.6466,92.6473,0.0,40867.7,0.540209,1.07661,nan,4,3.90114,3.90114,3.90114,3.90114,0.0,0.0,0.0,0.0,0.0,0.0,0.0,0,0,0,0,0,0,0,1,0,0,1,0,0
1588240143,15.5505,15.604,92.6173,92.6467,0.0,40867.9,0.540003,1.07665,nan,4,3.901,3.901,3.901,3.901,0.0,0.0,0.0,0.0,0.0,0.0,0.0,0,0,0,0,0,0,0,1,0,0,1,0,0
1588250175,15.7037,15.605,92.6466,92.6467,0.0,40868.2,0.540382,1.07658,nan,4,3.90125,3.90125,3.90125,3.90125,0.0,0.0,0.0,0.0,0.0,0.0,0.0,0,0,0,0,0,0,0,1,0,0,1,0,0
1588260210,15.7292,15.6062,92.6466,92.6467,0.0,40868.4,0.540855,1.07649,nan,4,3.90156,3.90156,3.90156,3.90156,0.0,0.0,0.0,0.0,0.0,0.0,0.0,0,0,0,0,0,0,0,1,0,0,1,0,0
1588270153,15.5633,15.6058,92.6466,92.6467,0.0,40868.7,0.540692,1.07652,nan,4,3.90145,3.90145,3.90145,3.90145,0.0,0.0,0.0,0.0,0.0,0.0,0.0,0,0,0,0,0,0,0,1,0,0,1,0,0
1588280155,15.576,15.6055,92.6466,92.6467,0.0,40868.9,0.540579,1.07654,nan,4,3.90138,3.90138,3.90138,3.90138,0.0,0.0,0.0,0.0,0.0,0.0,0.0,0,0,0,0,0,0,0,1,0,0,1,0,0
1588290195,15.576,15.6052,92.6173,92.6461,0.0,40869.2,0.540466,1.07656,nan,4,3.9013,3.9013,3.9013,3.9013,0.0,0.0,0.0,0.0,0.0,0.0,0.0,0,0,0,0,0,0,0,1,0,0,1,0,0
1588300158,15.5505,15.6047,92.6466,92.6461,0.0,40869.5,0.540258,1.0766,nan,4,3.90117,3.90117,3.90117,3.90117,0.0,0.0,0.0,0.0,0.0,0.0,0.0,0,0,0,0,0,0,0,1,0,0,1,0,0
1588320230,15.5633,15.6056,92.6466,92.6473,0.0,40870.0,0.540618,1.07654,nan,4,3.9014,3.9014,3.9014,3.9014,0.0,0.0,0.0,0.0,0.0,0.0,0.0,0,0,0,0,0,0,0,1,0,0,1,0,0
1588330105,15.3973,15.6035,92.6466,92.6472,0.0,40870.2,0.539825,1.07668,nan,4,3.90089,3.90089,3.90089,3.90089,0.0,0.0,0.0,0.0,0.0,0.0,0.0,0,0,0,0,0,0,0,1,0,0,1,0,0
1588340106,15.4739,15.6023,92.6759,92.6478,0.0,40870.5,0.539331,1.07677,nan,4,3.90057,3.90057,3.90057,3.90057,0.0,0.0,0.0,0.0,0.0,0.0,0.0,0,0,0,0,0,0,0,1,0,0,1,0,0
1588350150,15.4867,15.6011,92.6466,92.6478,0.0,40870.7,0.538891,1.07685,nan,4,3.90028,3.90028,3.90028,3.90028,0.0,0.0,0.0,0.0,0.0,0.0,0.0,0,0,0,0,0,0,0,1,0,0,1,0,0
1588650100,15.6399,15.6049,92.6466,92.649,0.0,40878.5,0.540335,1.07659,nan,4,3.90122,3.90122,3.90122,3.90122,0.0,0.0,0.0,0.0,0.0,0.0,0.0,0,0,0,0,0,0,0,1,0,0,1,0,0
1588660109,15.576,15.6046,92.6759,92.6495,0.0,40878.7,0.540226,1.07661,nan,4,3.90115,3.90115,3.90115,3.90115,0.0,0.0,0.0,0.0,0.0,0.0,0.0,0,0,0,0,0,0,0,1,0,0,1,0,0
1588671165,15.6016,15.6046,92.6173,92.6488,0.0,40879.0,0.540214,1.07661,nan,4,3.90114,3.90114,3.90114,3.90114,0.0,0.0,0.0,0.0,0.0,0.0,0.0,0,0,0,0,0,0,0,1,0,0,1,0,0
1588680999,15.4611,15.6031,92.6466,92.6488,0.0,40879.2,0.539668,1.07671,nan,4,3.90078,3.90078,3.90078,3.90078,0.0,0.0,0.0,0.0,0.0,0.0,0.0,0,0,0,0,0,0,0,1,0,0,1,0,0
1588690792,15.4994,15.6021,92.6173,92.6482,0.0,40879.5,0.539273,1.07678,nan,4,3.90053,3.90053,3.90053,3.90053,0.0,0.0,0.0,0.0,0.0,0.0,0.0,0,0,0,0,0,0,0,1,0,0,1,0,0
1588700995,15.7165,15.6032,92.6466,92.6482,0.0,40879.8,0.539708,1.0767,nan,4,3.90081,3.90081,3.90081,3.90081,0.0,0.0,0.0,0.0,0.0,0.0,0.0,0,0,0,0,0,0,0,1,0,0,1,0,0
1588710975,15.4867,15.6021,92.6466,92.6481,0.0,40880.0,0.539265,1.07678,nan,4,3.90052,3.90052,3.90052,3.90052,0.0,0.0,0.0,0.0,0.0,0.0,0.0,0,0,0,0,0,0,0,1,0,0,1,0,0
1588720949,15.4994,15.6011,92.6173,92.6475,0.0,40880.3,0.538874,1.07685,nan,4,3.90027,3.90027,3.90027,3.90027,0.0,0.0,0.0,0.0,0.0,0.0,0.0,0,0,0,0,0,0,0,1,0,0,1,0,0
1588730992,15.7292,15.6023,92.6759,92.6481,0.0,40880.6,0.539361,1.07676,nan,4,3.90058,3.90058,3.90058,3.90058,0.0,0.0,0.0,0.0,0.0,0.0,0.0,0,0,0,0,0,0,0,1,0,0,1,0,0
1588740879,15.5888,15.6022,92.6173,92.6475,0.0,40880.8,0.53931,1.07677,nan,4,3.90055,3.90055,3.90055,3.90055,0.0,0.0,0.0,0.0,0.0,0.0,0.0,0,0,0,0,0,0,0,1,0,0,1,0,0
1588750999,15.7292,15.6035,92.6759,92.648,0.0,40881.1,0.539794,1.07668,nan,4,3.90087,3.90087,3.90087,3.90087,0.0,0.0,0.0,0.0,0.0,0.0,0.0,0,0,0,0,0,0,0,1,0,0,1,0,0
1588781222,15.6909,15.6047,92.588,92.6479,0.0,40881.8,0.540258,1.0766,nan,4,3.90117,3.90117,3.90117,3.90117,0.0,0.0,0.0,0.0,0.0,0.0,0.0,0,0,0,0,0,0,0,1,0,0,1,0,0
1588791137,15.6654,15.6053,92.7052,92.649,0.0,40882.1,0.540489,1.07656,nan,4,3.90132,3.90132,3.90132,3.90132,0.0,0.0,0.0,0.0,0.0,0.0,0.0,0,0,0,0,0,0,0,1,0,0,1,0,0
1588800936,15.7037,15.6062,92.6466,92.649,0.0,40882.4,0.540864,1.07649,nan,4,3.90156,3.90156,3.90156,3.90156,0.0,0.0,0.0,0.0,0.0,0.0,0.0,0,0,0,0,0,0,0,1,0,0,1,0,0
1588811392,15.5633,15.6058,92.588,92.6478,0.0,40882.6,0.5407,1.07652,nan,4,3.90146,3.90146,3.90146,3.90146,0.0,0.0,0.0,0.0,0.0,0.0,0.0,0,0,0,0,0,0,0,1,0,0,1,0,0
1589120719,15.5377,15.6046,92.7052,92.6493,0.0,40890.6,0.540223,1.07661,nan,4,3.90114,3.90114,3.90114,3.90114,0.0,0.0,0.0,0.0,0.0,0.0,0.0,0,0,0,0,0,0,0,1,0,0,1,0,0
1589130812,15.5505,15.604,92.6759,92.6498,0.0,40890.9,0.540017,1.07664,nan,4,3.90101,3.90101,3.90101,3.90101,0.0,0.0,0.0,0.0,0.0,0.0,0.0,0,0,0,0,0,0,0,1,0,0,1,0,0
1589140786,15.6526,15.6045,92.6466,92.6497,0.0,40891.1,0.540202,1.07661,nan,4,3.90113,3.90113,3.90113,3.90113,0.0,0.0,0.0,0.0,0.0,0.0,0.0,0,0,0,0,0,0,0,1,0,0,1,0,0
1589150824,15.6654,15.6051,92.6466,92.6497,0.0,40891.4,0.540434,1.07657,nan,4,3.90128,3.90128,3.90128,3.90128,0.0,0.0,0.0,0.0,0.0,0.0,0.0,0,0,0,0,0,0,0,1,0,0,1,0,0
1589160787,15.5505,15.6046,92.6759,92.6502,0.0,40891.6,0.540226,1.07661,nan,4,3.90115,3.90115,3.90115,3.90115,0.0,0.0,0.0,0.0,0.0,0.0,0.0,0,0,0,0,0,0,0,1,0,0,1,0,0
1589170772,15.5505,15.6041,92.6759,92.6507,0.0,40891.9,0.54002,1.07664,nan,4,3.90101,3.90101,3.90101,3.90101,0.0,0.0,0.0,0.0,0.0,0.0,0.0,0,0,0,0,0,0,0,1,0,0,1,0,0
1589180618,15.742,15.6054,92.6759,92.6512,0.0,40892.1,0.540545,1.07655,nan,4,3.90135,3.90135,3.90135,3.90135,0.0,0.0,0.0,0.0,0.0,0.0,0.0,0,0,0,0,0,0,0,1,0,0,1,0,0
1589190925,15.5377,15.6047,92.6173,92.6505,0.0,40892.4,0.540287,1.0766,nan,4,3.90119,3.90119,3.90119,3.90119,0.0,0.0,0.0,0.0,0.0,0.0,0.0,0,0,0,0,0,0,0,1,0,0,1,0,0
1589200671,15.6909,15.6056,92.6466,92.6504,0.0,40892.7,0.540616,1.07654,nan,4,3.9014,3.9014,3.9014,3.9014,0.0,0.0,0.0,0.0,0.0,0.0,0.0,0,0,0,0,0,0,0,1,0,0,1,0,0
1589211215,15.4739,15.6043,92.588,92.6492,0.0,40892.9,0.540114,1.07663,nan,4,3.90107,3.90107,3.90107,3.90107,0.0,0.0,0.0,0.0,0.0,0.0,0.0,0,0,0,0,0,0,0,1,0,0,1,0,0
1589250745,15.5122,15.6061,92.6466,92.6484,0.0,40893.9,0.54079,1.07651,nan,4,3.90151,3.90151,3.90151,3.90151,0.0,0.0,0.0,0.0,0.0,0.0,0.0,0,0,0,0,0,0,0,1,0,0,1,0,0
1589260779,15.6654,15.6066,92.7052,92.6496,0.0,40894.2,0.541016,1.07646,nan,4,3.90166,3.90166,3.90166,3.90166,0.0,0.0,0.0,0.0,0.0,0.0,0.0,0,0,0,0,0,0,0,1,0,0,1,0,0
1589270769,15.7292,15.6079,92.6173,92.6489,0.0,40894.5,0.541482,1.07638,nan,4,3.90196,3.90196,3.90196,3.90196,0.0,0.0,0.0,0.0,0.0,0.0,0.0,0,0,0,0,0,0,0,1,0,0,1,0,0
1589280467,15.5505,15.6073,92.7052,92.65,0.0,40894.7,0.541264,1.07642,nan,4,3.90182,3.90182,3.90182,3.90182,0.0,0.0,0.0,0.0,0.0,0.0,0.0,0,0,0,0,0,0,0,1,0,0,1,0,0
1589570566,15.7548,15.5964,92.7052,92.6493,0.0,40902.2,0.537073,1.07717,nan,4,3.8991,3.8991,3.8991,3.8991,0.0,0.0,0.0,0.0,0.0,0.0,0.0,0,0,0,0,0,0,0,1,0,0,1,0,0
1589580386,15.5633,15.5961,92.6466,92.6492,0.0,40902.4,0.536947,1.0772,nan,4,3.89902,3.89902,3.89902,3.89902,0.0,0.0,0.0,0.0,0.0,0.0,0.0,0,0,0,0,0,0,0,1,0,0,1,0,0
1589590394,15.742,15.5975,92.7052,92.6503,0.0,40902.7,0.537502,1.0771,nan,4,3.89938,3.89938,3.89938,3.89938,0.0,0.0,0.0,0.0,0.0,0.0,0.0,0,0,0,0,0,0,0,1,0,0,1,0,0
1589600418,15.4994,15.5965,92.6466,92.6502,0.0,40902.9,0.537129,1.07716,nan,4,3.89913,3.89913,3.89913,3.89913,0.0,0.0,0.0,0.0,0.0,0.0,0.0,0,0,0,0,0,0,0,1,0,0,1,0,0
1589610239,15.4994,15.5956,92.6466,92.6502,0.0,40903.2,0.536759,1.07723,nan,4,3.89889,3.89889,3.89889,3.89889,0.0,0.0,0.0,0.0,0.0,0.0,0.0,0,0,0,0,0,0,0,1,0,0,1,0,0
1589620377,15.525,15.5949,92.6466,92.6501,0.0,40903.5,0.53649,1.07728,nan,4,3.89872,3.89872,3.89872,3.89872,0.0,0.0,0.0,0.0,0.0,0.0,0.0,0,0,0,0,0,0,0,1,0,0,1,0,0
1589630421,15.6143,15.5951,92.6173,92.6495,0.0,40903.7,0.536564,1.07726,nan,4,3.89877,3.89877,3.89877,3.89877,0.0,0.0,0.0,0.0,0.0,0.0,0.0,0,0,0,0,0,0,0,1,0,0,1,0,0
1589640437,15.5377,15.5945,92.6466,92.6494,0.0,40904.0,0.536346,1.0773,nan,4,3.89862,3.89862,3.89862,3.89862,0.0,0.0,0.0,0.0,0.0,0.0,0.0,0,0,0,0,0,0,0,1,0,0,1,0,0
1589650616,15.7675,15.5962,92.588,92.6482,0.0,40904.2,0.537005,1.07718,nan,4,3.89905,3.89905,3.89905,3.89905,0.0,0.0,0.0,0.0,0.0,0.0,0.0,0,0,0,0,0,0,0,1,0,0,1,0,0
1589660389,15.5633,15.5959,92.6466,92.6482,0.0,40904.5,0.53688,1.07721,nan,4,3.89897,3.89897,3.89897,3.89897,0.0,0.0,0.0,0.0,0.0,0.0,0.0,0,0,0,0,0,0,0,1,0,0,1,0,0
1589700362,15.6143,15.597,92.6466,92.648,0.0,40905.5,0.537301,1.07713,nan,4,3.89925,3.89925,3.89925,3.89925,0.0,0.0,0.0,0.0,0.0,0.0,0.0,0,0,0,0,0,0,0,1,0,0,1,0,0
1589710288,15.742,15.5984,92.6759,92.6486,0.0,40905.8,0.537853,1.07703,nan,4,3.8996,3.8996,3.8996,3.8996,0.0,0.0,0.0,0.0,0.0,0.0,0.0,0,0,0,0,0,0,0,1,0,0,1,0,0
1589720270,15.7548,15.6,92.6759,92.6491,0.0,40906.0,0.538448,1.07693,nan,4,3.89999,3.89999,3.89999,3.89999,0.0,0.0,0.0,0.0,0.0,0.0,0.0,0,0,0,0,0,0,0,1,0,0,1,0,0
1589730324,15.6526,15.6005,92.7052,92.6502,0.0,40906.3,0.538649,1.07689,nan,4,3.90012,3.90012,3.90012,3.90012,0.0,0.0,0.0,0.0,0.0,0.0,0.0,0,0,0,0,0,0,0,1,0,0,1,0,0
1590020144,15.576,15.6062,92.6759,92.6524,0.0,40913.8,0.540854,1.07649,nan,4,3.90156,3.90156,3.90156,3.90156,0.0,0.0,0.0,0.0,0.0,0.0,0.0,0,0,0,0,0,0,0,1,0,0,1,0,0
1590030116,15.7675,15.6078,92.7052,92.6534,0.0,40914.0,0.541469,1.07638,nan,4,3.90195,3.90195,3.90195,3.90195,0.0,0.0,0.0,0.0,0.0,0.0,0.0,0,0,0,0,0,0,0,1,0,0,1,0,0
1590040209,15.5377,15.6071,92.6759,92.6538,0.0,40914.3,0.541202,1.07643,nan,4,3.90178,3.90178,3.90178,3.90178,0.0,0.0,0.0,0.0,0.0,0.0,0.0,0,0,0,0,0,0,0,1,0,0,1,0,0
1590050110,15.4228,15.6053,92.588,92.6525,0.0,40914.5,0.5405,1.07656,nan,4,3.90132,3.90132,3.90132,3.90132,0.0,0.0,0.0,0.0,0.0,0.0,0.0,0,0,0,0,0,0,0,1,0,0,1,0,0
1590060245,15.4867,15.6041,92.6173,92.6519,0.0,40914.8,0.540048,1.07664,nan,4,3.90103,3.90103,3.90103,3.90103,0.0,0.0,0.0,0.0,0.0,0.0,0.0,0,0,0,0,0,0,0,1,0,0,1,0,0
1590070292,15.5505,15.6036,92.7052,92.6529,0.0,40915.0,0.539844,1.07668,nan,4,3.9009,3.9009,3.9009,3.9009,0.0,0.0,0.0,0.0,0.0,0.0,0.0,0,0,0,0,0,0,0,1,0,0,1,0,0
1590080099,15.3973,15.6016,92.6759,92.6534,0.0,40915.3,0.539058,1.07682,nan,4,3.90039,3.90039,3.90039,3.90039,0.0,0.0,0.0,0.0,0.0,0.0,0.0,0,0,0,0,0,0,0,1,0,0,1,0,0
1590090100,15.6016,15.6016,92.6466,92.6532,0.0,40915.6,0.539058,1.07682,nan,4,3.90039,3.90039,3.90039,3.90039,0.0,0.0,0.0,0.0,0.0,0.0,0.0,0,0,0,0,0,0,0,1,0,0,1,0,0
1590100106,15.6143,15.6017,92.6466,92.6531,0.0,40915.8,0.539107,1.07681,nan,4,3.90042,3.90042,3.90042,3.90042,0.0,0.0,0.0,0.0,0.0,0.0,0.0,0,0,0,0,0,0,0,1,0,0,1,0,0
1590110102,15.6909,15.6026,92.6173,92.6524,0.0,40916.1,0.539447,1.07675,nan,4,3.90064,3.90064,3.90064,3.90064,0.0,0.0,0.0,0.0,0.0,0.0,0.0,0,0,0,0,0,0,0,1,0,0,1,0,0
1590160131,15.7165,15.6067,92.588,92.6496,0.0,40917.4,0.54104,1.07646,nan,4,3.90168,3.90168,3.90168,3.90168,0.0,0.0,0.0,0.0,0.0,0.0,0.0,0,0,0,0,0,0,0,1,0,0,1,0,0
1590170364,15.7675,15.6083,92.6466,92.6496,0.0,40917.6,0.541652,1.07635,nan,4,3.90207,3.90207,3.90207,3.90207,0.0,0.0,0.0,0.0,0.0,0.0,0.0,0,0,0,0,0,0,0,1,0,0,1,0,0
1590180137,15.3079,15.6053,92.6466,92.6495,0.0,40917.9,0.540509,1.07656,nan,4,3.90133,3.90133,3.90133,3.90133,0.0,0.0,0.0,0.0,0.0,0.0,0.0,0,0,0,0,0,0,0,1,0,0,1,0,0
1590190133,15.576,15.605,92.6466,92.6495,0.0,40918.1,0.540397,1.07658,nan,4,3.90126,3.90126,3.90126,3.90126,0.0,0.0,0.0,0.0,0.0,0.0,0.0,0,0,0,0,0,0,0,1,0,0,1,0,0
1590480163,15.4994,15.5991,92.6466,92.6532,0.0,40925.6,0.538128,1.07698,nan,4,3.89978,3.89978,3.89978,3.89978,0.0,0.0,0.0,0.0,0.0,0.0,0.0,0,0,0,0,0,0,0,1,0,0,1,0,0
1590490205,15.6016,15.5992,92.6759,92.6536,0.0,40925.9,0.538137,1.07698,nan,4,3.89979,3.89979,3.89979,3.89979,0.0,0.0,0.0,0.0,0.0,0.0,0.0,0,0,0,0,0,0,0,1,0,0,1,0,0
1590500184,15.5505,15.5987,92.6759,92.654,0.0,40926.1,0.537952,1.07701,nan,4,3.89967,3.89967,3.89967,3.89967,0.0,0.0,0.0,0.0,0.0,0.0,0.0,0,0,0,0,0,0,0,1,0,0,1,0,0
1590510264,15.6782,15.5995,92.6759,92.6545,0.0,40926.4,0.538255,1.07696,nan,4,3.89987,3.89987,3.89987,3.89987,0.0,0.0,0.0,0.0,0.0,0.0,0.0,0,0,0,0,0,0,0,1,0,0,1,0,0
1590520160,15.5505,15.599,92.6466,92.6543,0.0,40926.6,0.538069,1.07699,nan,4,3.89974,3.89974,3.89974,3.89974,0.0,0.0,0.0,0.0,0.0,0.0,0.0,0,0,0,0,0,0,0,1,0,0,1,0,0
1590530131,15.4994,15.598,92.6466,92.6542,0.0,40926.9,0.53769,1.07706,nan,4,3.8995,3.8995,3.8995,3.8995,0.0,0.0,0.0,0.0,0.0,0.0,0.0,0,0,0,0,0,0,0,1,0,0,1,0,0
1590540126,15.742,15.5994,92.6173,92.6534,0.0,40927.1,0.538238,1.07696,nan,4,3.89985,3.89985,3.89985,3.89985,0.0,0.0,0.0,0.0,0.0,0.0,0.0,0,0,0,0,0,0,0,1,0,0,1,0,0
1590550175,15.5505,15.5989,92.6759,92.6539,0.0,40927.4,0.538052,1.077,nan,4,3.89973,3.89973,3.89973,3.89973,0.0,0.0,0.0,0.0,0.0,0.0,0.0,0,0,0,0,0,0,0,1,0,0,1,0,0
1590560152,15.5377,15.5983,92.588,92.6526,0.0,40927.7,0.537819,1.07704,nan,4,3.89958,3.89958,3.89958,3.89958,0.0,0.0,0.0,0.0,0.0,0.0,0.0,0,0,0,0,0,0,0,1,0,0,1,0,0
1590570101,15.742,15.5998,92.6466,92.6525,0.0,40927.9,0.538366,1.07694,nan,4,3.89994,3.89994,3.89994,3.89994,0.0,0.0,0.0,0.0,0.0,0.0,0.0,0,0,0,0,0,0,0,1,0,0,1,0,0
1590620099,15.7165,15.5974,92.6173,92.6503,0.0,40929.2,0.537455,1.0771,nan,4,3.89935,3.89935,3.89935,3.89935,0.0,0.0,0.0,0.0,0.0,0.0,0.0,0,0,0,0,0,0,0,1,0,0,1,0,0
1590630107,15.5505,15.5969,92.6759,92.6508,0.0,40929.5,0.537276,1.07714,nan,4,3.89923,3.89923,3.89923,3.89923,0.0,0.0,0.0,0.0,0.0,0.0,0.0,0,0,0,0,0,0,0,1,0,0,1,0,0
