timestamp,indicated_airspeed_m_s,true_airspeed_m_s,air_temperature_celsius,confidence
1925663062,2.1556,2.23817,26.6185,1.0
1925673820,2.11954,2.20065,26.6014,1.0
1925684534,2.07823,2.15782,26.6242,1.0
1925695297,2.03178,2.10961,26.6314,1.0
1925706014,1.9834,2.05934,26.6214,1.0
1925995903,2.06617,2.14526,26.6057,1.0
1926006643,2.07163,2.15092,26.61,1.0
1926017345,2.07387,2.15322,26.6028,1.0
1926028040,2.07367,2.15309,26.6242,1.0
1926038798,2.07177,2.15103,26.6014,1.0
1926049492,2.06797,2.14716,26.6157,1.0
1926060252,2.06218,2.14109,26.6028,1.0
1926070967,2.05299,2.13155,26.6014,1.0
1926081752,2.04023,2.11841,26.6328,1.0
1926092509,2.02831,2.10608,26.6443,1.0
1926113927,2.00628,2.08309,26.6171,1.0
1926124648,1.99249,2.06874,26.6071,1.0
1926135350,1.98264,2.05855,26.6185,1.0
1926146122,1.98018,2.05603,26.6257,1.0
1926156875,1.98696,2.06305,26.62,1.0
1926447215,2.09365,2.17394,26.6485,1.0
1926457988,2.06951,2.14888,26.6485,1.0
1926468717,2.04917,2.12776,26.6485,1.0
1926479477,2.03335,2.11131,26.6428,1.0
1926490182,2.02096,2.09831,26.6057,1.0
1926500899,2.00822,2.08506,26.5971,1.0
1926511645,1.99325,2.06954,26.6028,1.0
1926522373,1.97649,2.05213,26.6042,1.0
1926533088,1.95943,2.0345,26.6271,1.0
1926576030,1.92355,1.99717,26.6028,1.0
1926586725,1.91722,1.99069,26.63,1.0
1926597482,1.91179,1.98502,26.62,1.0
1926876599,2.51596,2.61229,26.6185,1.0
1926887321,2.52326,2.61981,26.6028,1.0
1926898147,2.52683,2.62371,26.6485,1.0
1926908840,2.52932,2.62627,26.6443,1.0
1926919531,2.53203,2.62889,26.6014,1.0
1926930264,2.53546,2.63255,26.6228,1.0
1926940966,2.54013,2.63729,26.5985,1.0
1926951716,2.54579,2.64327,26.6228,1.0
1926962527,2.55319,2.65104,26.6271,1.0
1927026922,2.65017,2.75157,26.5985,1.0
1927037648,2.65689,2.75859,26.6071,1.0
1927048346,2.65583,2.75758,26.6285,1.0
1927059160,2.6485,2.74998,26.63,1.0
1927370682,2.4392,2.5327,26.6428,1.0
1927381415,2.431,2.5241,26.6242,1.0
1927392196,2.41946,2.51221,26.65,1.0
1927402930,2.40442,2.49656,26.6443,1.0
1927413664,2.38461,2.47593,26.6257,1.0
1927424388,2.36069,2.45099,26.6014,1.0
1927435117,2.33475,2.42411,26.6171,1.0
1927445850,2.30864,2.39705,26.6271,1.0
1927456546,2.28352,2.37095,26.62,1.0
1927467265,2.25925,2.34575,26.62,1.0
1927488668,2.21705,2.30205,26.65,1.0
1927499384,2.20165,2.28603,26.6342,1.0
1927510109,2.19106,2.27507,26.6443,1.0
1927520857,2.1858,2.26953,26.6214,1.0
1927822264,2.20789,2.29251,26.6428,1.0
1927833066,2.2028,2.28709,26.6042,1.0
1927843796,2.19629,2.28035,26.6114,1.0
1927854522,2.18794,2.27171,26.62,1.0
1927865300,2.17807,2.26138,26.5985,1.0
1927876018,2.16819,2.25123,26.6257,1.0
1927886814,2.16265,2.24547,26.6214,1.0
1927897566,2.16176,2.24453,26.6214,1.0
1927908277,2.16104,2.24372,26.6042,1.0
1927919001,2.15747,2.24001,26.6014,1.0
1927951319,2.13637,2.21814,26.6057,1.0
1927962073,2.12605,2.20741,26.5999,1.0
1927972766,2.1139,2.19488,26.6242,1.0
1927983492,2.10101,2.18141,26.6042,1.0
1928284203,2.14849,2.23086,26.6443,1.0
1928294940,2.12524,2.20661,26.6157,1.0
1928305638,2.10076,2.18124,26.6271,1.0
1928316334,2.07626,2.15572,26.6014,1.0
1928327105,2.05212,2.13072,26.62,1.0
1928337796,2.0282,2.10583,26.6028,1.0
1928348555,2.00355,2.08021,26.5928,1.0
1928359320,1.97793,2.05369,26.62,1.0
1928370147,1.95337,2.0282,26.6214,1.0
1928380845,1.93112,2.00506,26.62,1.0
1928423905,1.88181,1.95383,26.5985,1.0
1928434640,1.87907,1.95115,26.6471,1.0
1928445364,1.88013,1.95216,26.6171,1.0
1928456103,1.88189,1.95395,26.6085,1.0
1928767474,1.82076,1.89051,26.6214,1.0
1928778165,1.82395,1.89381,26.62,1.0
1928788859,1.82813,1.89814,26.6185,1.0
1928799552,1.82969,1.89976,26.6157,1.0
1928810270,1.82998,1.90007,26.6185,1.0
1928821061,1.83052,1.90063,26.6185,1.0
1928831755,1.83166,1.90183,26.6242,1.0
1928842502,1.83364,1.90388,26.62,1.0
1928853309,1.83945,1.91,26.65,1.0
1928864020,1.85269,1.92372,26.6443,1.0
1928885528,1.88766,1.95995,26.62,1.0
1928896311,1.90358,1.9765,26.6228,1.0
1928907027,1.91809,1.99153,26.6157,1.0
1928917717,1.93101,2.00497,26.6214,1.0
1929218357,2.25096,2.33719,26.6257,1.0
1929229081,2.26499,2.35171,26.6128,1.0
1929239813,2.28189,2.3693,26.6242,1.0
1929250633,2.30081,2.38886,26.6028,1.0
1929261326,2.32015,2.40892,26.5985,1.0
1929272019,2.34097,2.43062,26.6214,1.0
1929282708,2.36526,2.45579,26.6042,1.0
1929293419,2.38873,2.48023,26.6214,1.0
1929304142,2.40672,2.49893,26.6242,1.0
1929336359,2.4374,2.53087,26.6443,1.0
1929347102,2.43936,2.53281,26.6214,1.0
1929357828,2.43883,2.53228,26.6242,1.0
1929368574,2.4364,2.52974,26.6228,1.0
1929680029,1.71197,1.77758,26.6371,1.0
1929690803,1.69345,1.75824,26.5999,1.0
1929701565,1.67708,1.7413,26.6214,1.0
1929712265,1.66264,1.72629,26.6128,1.0
1929723016,1.64927,1.71243,26.6214,1.0
1929733712,1.63575,1.69838,26.6171,1.0
1929744532,1.62356,1.686,26.7148,1.0
1929755266,1.61296,1.67501,26.7248,1.0
1929766042,1.60111,1.66266,26.7077,1.0
1929776760,1.58839,1.64953,26.7362,1.0
1929830340,1.6678,1.73197,26.7177,1.0
1929841041,1.70764,1.77299,26.6028,1.0
1929851734,1.75066,1.81773,26.6257,1.0
1929862436,1.79923,1.86817,26.6257,1.0
1931129669,2.25044,2.33657,26.6042,1.0
1931140378,2.23406,2.31963,26.6228,1.0
1931151100,2.21647,2.30136,26.6228,1.0
1931161795,2.19874,2.28295,26.6285,1.0
1931172575,2.18145,2.26494,26.6157,1.0
1931183365,2.16774,2.25067,26.6042,1.0
1931194124,2.15841,2.24095,26.5957,1.0
1931204924,2.15221,2.23458,26.5999,1.0
1931215694,2.14988,2.23226,26.6271,1.0
1931226399,2.15316,2.23565,26.6242,1.0
1931237145,2.16148,2.24423,26.6042,1.0
1931269277,2.19102,2.27483,26.5957,1.0
1931279969,2.19329,2.27718,26.5971,1.0
1931290801,2.19069,2.2746,26.6271,1.0
1931301505,2.18336,2.26693,26.6128,1.0
1931602289,1.9292,2.003,26.5971,1.0
1931613015,1.92114,1.9947,26.6157,1.0
1931623737,1.91275,1.986,26.6214,1.0
1931634427,1.9059,1.97894,26.6342,1.0
1931645116,1.90123,1.97405,26.62,1.0
1931655810,1.89709,1.96969,26.6014,1.0
1931666506,1.89212,1.96459,26.6214,1.0
1931677238,1.8866,1.9588,26.6042,1.0
1931687988,1.8795,1.95149,26.6214,1.0
1931730943,1.85312,1.92415,26.6385,1.0
1931741688,1.85236,1.92339,26.6443,1.0
1931752483,1.85588,1.92702,26.6371,1.0
1931763210,1.86133,1.93257,26.6028,1.0
1932042440,1.99905,2.07563,26.6228,1.0
1932053173,2.00103,2.07768,26.6214,1.0
1932063873,2.00072,2.07728,26.5985,1.0
1932074622,1.99647,2.07296,26.6271,1.0
1932085346,1.99056,2.06687,26.64,1.0
1932096036,1.98569,2.06183,26.6471,1.0
1932106734,1.98209,2.05792,26.5985,1.0
1932117430,1.97807,2.05416,26.7191,1.0
1932128128,1.97353,2.04945,26.7177,1.0
1932138848,1.97095,2.04675,26.7134,1.0
1932171125,1.98443,2.06075,26.7191,1.0
1932181845,1.9942,2.07082,26.6934,1.0
1932192640,2.00433,2.08142,26.7191,1.0
1932203392,2.01597,2.09355,26.7248,1.0
1932504065,2.18966,2.27355,26.6228,1.0
1932514760,2.17667,2.26006,26.62,1.0
1932525560,2.16386,2.24672,26.62,1.0
1932536266,2.15143,2.23384,26.6271,1.0
1932547040,2.1399,2.22186,26.6257,1.0
1932557778,2.12935,2.2109,26.6242,1.0
1932568571,2.12035,2.20165,26.6443,1.0
1932579284,2.11318,2.19411,26.6157,1.0
1932589979,2.10568,2.18637,26.6285,1.0
1932600703,2.0966,2.17693,26.6257,1.0
1932643717,2.05649,2.13525,26.6257,1.0
1932654434,2.03927,2.11736,26.6228,1.0
1932665198,2.02117,2.09865,26.6443,1.0
1932675912,2.00638,2.08329,26.6471,1.0
1932976677,1.76991,1.8377,26.6271,1.0
1932987426,1.79097,1.85954,26.62,1.0
1932998159,1.8167,1.88625,26.6214,1.0
1933008924,1.84344,1.91399,26.6042,1.0
1933019673,1.87219,1.9439,26.6242,1.0
1933030429,1.90476,1.97769,26.6128,1.0
1933041145,1.93997,2.01422,26.6057,1.0
1933051867,1.9743,2.04985,26.6042,1.0
1933062597,2.00348,2.08022,26.6257,1.0
1933105584,2.06921,2.14842,26.6142,1.0
1933116356,2.07591,2.15533,26.5971,1.0
1933127049,2.07725,2.15672,26.5971,1.0
1933137797,2.07532,2.15488,26.64,1.0
1933427608,2.16078,2.24394,26.7262,1.0
1933438371,2.17422,2.25781,26.7119,1.0
1933449142,2.18496,2.26899,26.7177,1.0
1933459933,2.19316,2.2775,26.7177,1.0
1933470637,2.19931,2.28389,26.7191,1.0
1933481392,2.20454,2.28944,26.742,1.0
1933492096,2.21053,2.29565,26.7391,1.0
1933502787,2.21697,2.30188,26.6185,1.0
1933513478,2.22341,2.30855,26.6142,1.0
1933524167,2.23054,2.31598,26.6228,1.0
1933556514,2.24654,2.33258,26.6228,1.0
1933567239,2.24423,2.32991,26.5499,1.0
1933577948,2.23386,2.31931,26.5971,1.0
1933878348,2.27906,2.36674,26.7148,1.0
1933889039,2.268,2.35522,26.7048,1.0
1933899738,2.25528,2.34205,26.7148,1.0
1933910458,2.24105,2.32722,26.7034,1.0
1933921229,2.22555,2.31116,26.7177,1.0
1933931977,2.21041,2.29553,26.7405,1.0
1933942707,2.19685,2.28144,26.7405,1.0
1933953401,2.18112,2.26502,26.7191,1.0
1933964166,2.15764,2.24065,26.7205,1.0
1933974915,2.12456,2.2063,26.7162,1.0
1934017892,1.93558,2.00999,26.6977,1.0
1934028641,1.88039,1.95273,26.7134,1.0
1934039441,1.82238,1.89243,26.6948,1.0
1934050251,1.76338,1.83125,26.7234,1.0
1934340565,1.98282,2.05878,26.6214,1.0
1934351272,1.99914,2.07568,26.6085,1.0
1934362204,2.01147,2.08843,26.5928,1.0
1934372902,2.01947,2.09683,26.6185,1.0
1934383663,2.02501,2.10258,26.6185,1.0
1934394358,2.03025,2.1081,26.6414,1.0
1934405063,2.03609,2.11417,26.6471,1.0
1934415821,2.04414,2.1225,26.6414,1.0
1934426546,2.0559,2.13464,26.6214,1.0
1934437269,2.06512,2.14416,26.6057,1.0
1934480206,2.00592,2.08276,26.6242,1.0
1934490918,1.98106,2.05729,26.7248,1.0
1934501693,1.95369,2.02881,26.7034,1.0
1934802264,1.68904,1.75376,26.6214,1.0
1934812978,1.69063,1.75543,26.6257,1.0
1934823697,1.69225,1.75706,26.6085,1.0
1934834388,1.69108,1.75584,26.6085,1.0
1934845082,1.68762,1.75221,26.6014,1.0
1934855782,1.68499,1.74961,26.6471,1.0
1934866474,1.6862,1.75081,26.6271,1.0
1934877169,1.69194,1.75682,26.6443,1.0
1934887906,1.70121,1.76638,26.62,1.0
1934898614,1.71111,1.77668,26.6285,1.0
1934920001,1.72095,1.78684,26.6085,1.0
1934930754,1.72428,1.79032,26.6171,1.0
1934941630,1.73396,1.80039,26.6242,1.0
1934952321,1.75133,1.81836,26.6042,1.0
1935263721,2.05317,2.13181,26.6228,1.0
1935274417,2.04153,2.11973,26.6242,1.0
1935285145,2.03011,2.10788,26.6271,1.0
1935295834,2.02026,2.09764,26.6242,1.0
1935306564,2.01166,2.08871,26.6214,1.0
1935317300,2.005,2.08188,26.6485,1.0
1935328058,2.00133,2.07801,26.6271,1.0
1935338784,1.99953,2.07611,26.6214,1.0
1935349590,1.99767,2.07425,26.64,1.0
1935360314,1.99522,2.07164,26.6228,1.0
1935413986,1.9594,2.03478,26.7191,1.0
1935424721,1.94788,2.02279,26.7077,1.0
1935435465,1.93603,2.01051,26.7162,1.0
1935446252,1.92923,2.00347,26.7219,1.0
1935736250,2.11991,2.20101,26.5985,1.0
1935746984,2.11113,2.192,26.6257,1.0
1935757756,2.09977,2.18019,26.62,1.0
1935768499,2.08588,2.16569,26.5985,1.0
1935779241,2.06885,2.14845,26.7219,1.0
1935790034,2.05052,2.12944,26.7305,1.0
1935800784,2.03165,2.10975,26.7019,1.0
1935811482,2.01,2.08722,26.6919,1.0
1935822181,1.98443,2.06071,26.7048,1.0
1935832896,1.95778,2.03309,26.7205,1.0
1935854307,1.90611,1.97941,26.7034,1.0
1935865030,1.88042,1.95278,26.7191,1.0
1935875836,1.8569,1.92835,26.7177,1.0
1935886590,1.83506,1.90568,26.7234,1.0
1936176629,1.6879,1.75277,26.7019,1.0
1936187458,1.6866,1.75147,26.7191,1.0
1936198179,1.68242,1.74706,26.6934,1.0
1936208887,1.67406,1.73838,26.6948,1.0
1936219623,1.66619,1.73028,26.7191,1.0
1936230334,1.66798,1.7321,26.7005,1.0
1936241080,1.67896,1.74362,26.7391,1.0
1936251829,1.69676,1.76198,26.6977,1.0
1936262551,1.72495,1.7913,26.7105,1.0
1936273268,1.76501,1.83259,26.6114,1.0
1936305592,1.9253,1.999,26.62,1.0
1936316287,1.98227,2.05818,26.6271,1.0
1936327012,2.03314,2.11098,26.6214,1.0
1936337742,2.0739,2.15325,26.6071,1.0
1936348431,2.10399,2.18455,26.6228,1.0
1936627806,2.01768,2.09519,26.6977,1.0
1936638573,2.01726,2.09482,26.7162,1.0
1936649333,2.02786,2.10585,26.7234,1.0
1936660193,2.05107,2.12995,26.7219,1.0
1936671010,2.08333,2.16343,26.7148,1.0
1936681704,2.11954,2.20105,26.7219,1.0
1936692461,2.15746,2.24043,26.7205,1.0
1936703208,2.199,2.28364,26.7391,1.0
1936713950,2.24445,2.33082,26.7348,1.0
1936778366,2.38391,2.47562,26.7162,1.0
1936789064,2.38426,2.47596,26.7148,1.0
1936799756,2.37873,2.47017,26.7019,1.0
1936810468,2.36904,2.46018,26.7191,1.0
1937132610,2.32986,2.41907,26.62,1.0
1937143373,2.32506,2.41405,26.6128,1.0
1937154104,2.31536,2.40401,26.62,1.0
1937164878,2.30206,2.39064,26.7334,1.0
1937175569,2.28834,2.37646,26.7462,1.0
1937186406,2.27367,2.36109,26.7148,1.0
1937197213,2.25644,2.3432,26.7162,1.0
1937207902,2.23818,2.32427,26.7219,1.0
1937218600,2.22053,2.30596,26.7205,1.0
1937240037,2.18887,2.27308,26.7219,1.0
1937250752,2.17731,2.261,26.7019,1.0
1937261456,2.16622,2.24917,26.6185,1.0
1937272294,2.15374,2.23616,26.6028,1.0
1937573329,2.35271,2.44322,26.7191,1.0
1937584083,2.34418,2.43438,26.7234,1.0
1937594812,2.33074,2.42037,26.7105,1.0
1937605646,2.31504,2.40411,26.7219,1.0
1937616338,2.30261,2.39119,26.7191,1.0
1937627154,2.29673,2.38517,26.7405,1.0
1937637917,2.29644,2.38484,26.7334,1.0
1937648720,2.29948,2.38794,26.7205,1.0
1937659433,2.30493,2.39349,26.6948,1.0
1937670247,2.31271,2.40169,26.7219,1.0
1937691708,2.33338,2.42305,26.6977,1.0
1937702423,2.34511,2.43536,26.7234,1.0
1937713241,2.3593,2.45009,26.7191,1.0
1937724002,2.37461,2.46597,26.7162,1.0
1938035173,2.29841,2.38685,26.7248,1.0
1938045883,2.27137,2.35868,26.7034,1.0
1938056597,2.24339,2.32969,26.7191,1.0
1938067479,2.21617,2.30145,26.7219,1.0
1938078207,2.19035,2.27461,26.7162,1.0
1938088918,2.16505,2.24827,26.7005,1.0
1938099631,2.13984,2.22219,26.7248,1.0
1938110401,2.11494,2.19633,26.7234,1.0
1938121158,2.08944,2.16976,26.7048,1.0
1938131907,2.06348,2.14285,26.7148,1.0
1938185486,1.94502,2.01981,26.7134,1.0
1938196283,1.91706,1.9908,26.7191,1.0
1938207009,1.8926,1.96542,26.7248,1.0
1938217787,1.87602,1.94825,26.7405,1.0
1938508046,1.62447,1.68666,26.6142,1.0
1938518784,1.63894,1.70171,26.6242,1.0
1938529530,1.65616,1.71959,26.6257,1.0
1938540298,1.67815,1.74241,26.6214,1.0
1938551025,1.70257,1.76811,26.7362,1.0
1938561752,1.72741,1.79386,26.7177,1.0
1938572475,1.75175,1.81914,26.7219,1.0
1938583228,1.77608,1.84435,26.7019,1.0
1938593919,1.80056,1.86977,26.7019,1.0
1938604658,1.82324,1.89339,26.7248,1.0
1938647629,1.8773,1.94946,26.7019,1.0
1938658395,1.87795,1.95021,26.7219,1.0
1938669139,1.87411,1.94615,26.6991,1.0
1938679938,1.86814,1.94009,26.7405,1.0
1938959199,2.2485,2.33497,26.7205,1.0
1938969892,2.23743,2.32349,26.7277,1.0
1938980616,2.22678,2.31241,26.7177,1.0
1938991310,2.21758,2.30285,26.7148,1.0
1939002086,2.21231,2.29738,26.7148,1.0
1939012897,2.21236,2.29745,26.7219,1.0
1939023620,2.21759,2.30287,26.7191,1.0
1939034355,2.22748,2.31314,26.7191,1.0
1939045096,2.24066,2.32676,26.7005,1.0
1939055895,2.25452,2.34124,26.7205,1.0
1939088102,2.28886,2.37685,26.7077,1.0
1939098804,2.29465,2.38284,26.7019,1.0
1939109513,2.29675,2.38509,26.7205,1.0
1939120241,2.2966,2.38493,26.7191,1.0
1939420777,2.18107,2.26495,26.7162,1.0
1939431540,2.18358,2.26753,26.7077,1.0
1939442298,2.18532,2.2693,26.7005,1.0
1939453049,2.18292,2.26682,26.7019,1.0
1939463778,2.17674,2.26045,26.7191,1.0
1939474517,2.17037,2.25391,26.7405,1.0
1939485274,2.1662,2.24959,26.7434,1.0
1939496001,2.16499,2.24834,26.742,1.0
1939506801,2.1653,2.24854,26.7105,1.0
1939560458,2.17252,2.25572,26.6271,1.0
1939571154,2.17225,2.25534,26.5999,1.0
1939581855,2.16968,2.25277,26.6214,1.0
1939871644,1.93694,2.01107,26.62,1.0
1939882407,1.92677,2.00053,26.6242,1.0
1939893205,1.91922,1.99262,26.6042,1.0
1939903962,1.91619,1.98951,26.6042,1.0
1939914708,1.92012,1.9936,26.6057,1.0
1939925426,1.93215,2.00609,26.6057,1.0
1939936197,1.9502,2.0252,26.7191,1.0
1939946933,1.97537,2.0514,26.7362,1.0
1939957707,2.00856,2.08573,26.6934,1.0
1939968451,2.0467,2.12542,26.7191,1.0
1940011332,2.20447,2.2892,26.7034,1.0
1940022061,2.23204,2.31791,26.7248,1.0
1940032792,2.25435,2.34097,26.6962,1.0
1940043511,2.273,2.36042,26.7191,1.0
1940322727,2.57122,2.67011,26.7219,1.0
1940333541,2.60942,2.70968,26.6991,1.0
1940344277,2.64933,2.75115,26.7048,1.0
1940354967,2.68987,2.79322,26.6977,1.0
1940365699,2.73098,2.83599,26.7162,1.0
1940376424,2.77321,2.87985,26.7177,1.0
1940387306,2.81561,2.92391,26.7219,1.0
1940398046,2.85561,2.96543,26.7177,1.0
1940408741,2.89259,3.00395,26.7405,1.0
1940451697,3.01361,3.12912,26.6457,1.0
1940462450,3.03828,3.15459,26.6185,1.0
1940473196,3.06188,3.17913,26.6242,1.0
1940483927,3.08568,3.20373,26.6028,1.0
1940784752,3.64699,3.78724,26.7219,1.0
1940795448,3.64643,3.78661,26.7119,1.0
1940806174,3.64831,3.78865,26.7191,1.0
1940816921,3.65236,3.79283,26.7148,1.0
1940827680,3.65795,3.79853,26.6991,1.0
1940838386,3.66508,3.80595,26.7005,1.0
1940849141,3.67409,3.81527,26.6948,1.0
1940859832,3.68448,3.82632,26.7362,1.0
1940870604,3.69579,3.83806,26.7348,1.0
1940881377,3.70694,3.84939,26.6962,1.0
1940935105,3.76384,3.90848,26.7019,1.0
1940945800,3.77675,3.92201,26.7205,1.0
1940956528,3.79165,3.93747,26.7177,1.0
1941246823,4.79886,4.98276,26.6328,1.0
1941257552,4.8406,5.02604,26.6242,1.0
1941268297,4.8809,5.06786,26.6228,1.0
1941279060,4.92021,5.1087,26.6242,1.0
1941289776,4.9578,5.14782,26.6271,1.0
1941300528,4.99301,5.18436,26.6242,1.0
1941311281,5.02588,5.21848,26.6242,1.0
1941322020,5.05817,5.25307,26.7448,1.0
1941332847,5.09278,5.28915,26.7605,1.0
1941343540,5.12841,5.32598,26.7405,1.0
1941418656,5.3262,5.53106,26.7177,1.0
1941429359,5.35538,5.56136,26.7162,1.0
1941440157,5.38398,5.59104,26.7148,1.0
1941450957,5.41056,5.61874,26.7148,1.0
1941740931,5.92552,6.15362,26.7219,1.0
1941751706,5.94032,6.16896,26.7191,1.0
1941762448,5.95735,6.18667,26.7205,1.0
1941773197,5.97627,6.20625,26.7191,1.0
1941783924,5.99754,6.22852,26.7362,1.0
1941794641,6.02125,6.25315,26.7377,1.0
1941805388,6.04458,6.27695,26.6962,1.0
1941816106,6.06567,6.29904,26.7148,1.0
1941826877,6.08605,6.32018,26.7119,1.0
1941837570,6.10634,6.34132,26.7191,1.0
1941869818,6.16307,6.39998,26.6962,1.0
1941880581,6.18545,6.42346,26.7191,1.0
1941891283,6.21117,6.44997,26.7019,1.0
1941901997,6.23887,6.47911,26.7362,1.0
1942192409,6.94127,7.20813,26.6962,1.0
1942203156,6.9661,7.23414,26.7134,1.0
1942213903,6.99312,7.26225,26.7177,1.0
1942224680,7.02377,7.29399,26.7105,1.0
1942235453,7.05628,7.32782,26.7162,1.0
1942246192,7.08799,7.36108,26.7434,1.0
1942256981,7.11683,7.39071,26.7248,1.0
1942267798,7.14109,7.41559,26.6991,1.0
1942278532,7.162,7.43752,26.7162,1.0
1942343017,7.26865,7.54819,26.7005,1.0
1942353723,7.28785,7.56813,26.7005,1.0
1942364450,7.30689,7.58845,26.7448,1.0
1942375158,7.32759,7.61003,26.7448,1.0
1942654570,7.904,8.20687,26.6228,1.0
1942665436,7.92378,8.22749,26.6285,1.0
1942676238,7.94398,8.24833,26.6185,1.0
1942686930,7.96582,8.27088,26.61,1.0
1942697680,7.98897,8.29517,26.6214,1.0
1942708407,8.01179,8.32029,26.7248,1.0
1942719180,8.03347,8.34273,26.7191,1.0
1942729876,8.0534,8.36322,26.7048,1.0
1942740636,8.07211,8.3826,26.7005,1.0
1942783625,8.15356,8.46727,26.7162,1.0
1942794322,8.17253,8.48707,26.7234,1.0
1942805055,8.191,8.50635,26.7219,1.0
1942815829,8.20961,8.52519,26.6876,1.0
1943105954,8.47947,8.80567,26.7019,1.0
1943116785,8.48999,8.81678,26.7148,1.0
1943127562,8.49958,8.82642,26.6977,1.0
1943138292,8.50971,8.83692,26.6962,1.0
1943149007,8.52157,8.84965,26.7248,1.0
1943159808,8.53536,8.86388,26.7177,1.0
1943170553,8.54994,8.87933,26.7391,1.0
1943181342,8.56464,8.8941,26.6948,1.0
1943192078,8.58079,8.91089,26.6962,1.0
1943202778,8.59659,8.92762,26.7177,1.0
1943224239,8.62173,8.95377,26.7205,1.0
1943234962,8.6331,8.96536,26.7062,1.0
1943245695,8.64386,8.97674,26.7219,1.0
1943256420,8.6542,8.9875,26.7234,1.0
1943267136,8.66409,8.99747,26.7034,1.0
1943567641,8.65962,8.99115,26.5957,1.0
1943578463,8.64519,8.97608,26.5899,1.0
1943589178,8.63053,8.96246,26.6977,1.0
1943599943,8.61665,8.94824,26.7105,1.0
1943610660,8.60384,8.93511,26.7191,1.0
1943621370,8.5915,8.92223,26.7148,1.0
1943632269,8.57991,8.91062,26.7434,1.0
1943642971,8.56908,8.89927,26.7362,1.0
1943653667,8.55925,8.88859,26.7048,1.0
1943718133,8.51353,8.841,26.6991,1.0
1943728851,8.51104,8.83851,26.7048,1.0
1943739558,8.51038,8.83812,26.7248,1.0
1943750306,8.51262,8.84065,26.7391,1.0
1944029676,8.79485,9.13178,26.6014,1.0
1944040391,8.80382,9.1413,26.6214,1.0
1944051116,8.81216,9.14994,26.62,1.0
1944061826,8.82216,9.16032,26.62,1.0
1944072668,8.83434,9.17271,26.6028,1.0
1944083472,8.84791,9.18864,26.7234,1.0
1944094281,8.86128,9.20248,26.7177,1.0
1944105171,8.87284,9.21455,26.7219,1.0
1944115865,8.88375,9.22579,26.7162,1.0
1944126556,8.89537,9.23764,26.7019,1.0
1944158815,8.92669,9.27034,26.7177,1.0
1944169539,8.93835,9.28249,26.7205,1.0
1944180277,8.94898,9.29348,26.7177,1.0
1944190981,8.95758,9.30246,26.7205,1.0
1944481091,8.92183,9.26532,26.7162,1.0
1944491851,8.93033,9.27406,26.7048,1.0
1944502613,8.9387,9.28262,26.6962,1.0
1944513309,8.9463,9.29056,26.6991,1.0
1944524001,8.95421,9.29906,26.7177,1.0
1944534705,8.96185,9.3071,26.7219,1.0
1944545399,8.96791,9.31342,26.7234,1.0
1944556164,8.97266,9.31871,26.7462,1.0
1944566916,8.97719,9.32304,26.7219,1.0
1944609758,8.98057,9.32606,26.6962,1.0
1944620471,8.98063,9.32617,26.6991,1.0
1944631163,8.98346,9.32909,26.6977,1.0
1944641875,8.98828,9.33436,26.7148,1.0
1944931575,9.04404,9.39197,26.6991,1.0
1944942449,9.03423,9.38183,26.7019,1.0
1944953219,9.02561,9.37274,26.6934,1.0
1944963976,9.01804,9.36508,26.7005,1.0
1944974669,9.01029,9.35737,26.7219,1.0
1944985361,9.00201,9.34883,26.7262,1.0
1944996147,8.99345,9.33977,26.7148,1.0
1945006840,8.98441,9.33018,26.7019,1.0
1945017536,8.97705,9.32312,26.7391,1.0
1945028300,8.97347,9.3194,26.7391,1.0
1945092815,8.98505,9.33063,26.6962,1.0
1945103615,8.9889,9.33494,26.7162,1.0
1945114337,8.99365,9.33989,26.7177,1.0
1945125102,8.99793,9.34447,26.7148,1.0
1945135795,9.00143,9.34843,26.7362,1.0
1945447207,9.01665,9.36252,26.6214,1.0
1945457934,9.00908,9.35449,26.61,1.0
1945468626,9.00025,9.34671,26.6991,1.0
1945479395,8.99109,9.33761,26.7262,1.0
1945490206,8.98262,9.32908,26.7434,1.0
1945500899,8.97462,9.32043,26.7305,1.0
1945511595,8.96618,9.31138,26.7119,1.0
1945522297,8.95824,9.30333,26.7248,1.0
1945533000,8.95131,9.29604,26.7191,1.0
1945565130,8.93043,9.27409,26.7005,1.0
1945575823,8.92566,9.26937,26.7162,1.0
1945586516,8.92032,9.26385,26.7177,1.0
1945897853,8.7455,9.08243,26.7191,1.0
1945908637,8.73768,9.07393,26.6948,1.0
1945919353,8.73091,9.06728,26.7191,1.0
1945930110,8.72712,9.06334,26.7219,1.0
1945940898,8.72596,9.06246,26.7434,1.0
1945951633,8.72708,9.06343,26.7305,1.0
1945962387,8.73039,9.06631,26.6934,1.0
1945973133,8.73415,9.07061,26.7191,1.0
1945983910,8.73739,9.0739,26.7062,1.0
1945994604,8.74023,9.077,26.7162,1.0
1946005413,8.7426,9.07921,26.6991,1.0
1946016163,8.74526,9.08199,26.7005,1.0
1946026943,8.74966,9.08677,26.7191,1.0
1946037707,8.75647,9.09385,26.7191,1.0
1946349264,9.00002,9.34684,26.7234,1.0
1946360044,8.99601,9.34254,26.7177,1.0
1946370744,8.99061,9.33699,26.7219,1.0
1946381458,8.98486,9.33072,26.7019,1.0
1946392232,8.97816,9.32358,26.6905,1.0
1946403056,8.96984,9.31536,26.7177,1.0
1946413752,8.96048,9.30557,26.7177,1.0
1946424501,8.95011,9.2948,26.7177,1.0
1946435222,8.93985,9.28447,26.7391,1.0
1946445960,8.93152,9.27556,26.7219,1.0
1946499607,8.89853,9.23979,26.6214,1.0
1946510297,8.89678,9.2384,26.6485,1.0
1946521144,8.89771,9.23906,26.6285,1.0
1946531888,8.90086,9.24222,26.6214,1.0
1946811070,8.9468,9.28963,26.5942,1.0
1946821767,8.94811,9.29138,26.62,1.0
1946832472,8.94981,9.29309,26.6271,1.0
1946843181,8.95131,9.29462,26.6257,1.0
1946853904,8.95263,9.29596,26.6242,1.0
1946864650,8.95379,9.29875,26.7262,1.0
1946875418,8.95554,9.30086,26.7448,1.0
1946886182,8.95854,9.30366,26.7248,1.0
1946896921,8.96185,9.30709,26.7177,1.0
1946907661,8.96521,9.31071,26.7262,1.0
1946950451,8.95629,9.30101,26.6962,1.0
1946961176,8.94969,9.29443,26.7134,1.0
1946971870,8.94353,9.2881,26.7177,1.0
1946982561,8.93825,9.28299,26.742,1.0
1946993275,8.9333,9.27775,26.7362,1.0
1947272588,8.88366,9.22593,26.7191,1.0
1947283313,8.87875,9.22094,26.7262,1.0
1947294042,8.87346,9.21525,26.7134,1.0
1947304799,8.87042,9.21187,26.6991,1.0
1947315606,8.87124,9.21322,26.7248,1.0
1947326356,8.87498,9.21693,26.7134,1.0
1947337085,8.8808,9.22336,26.7391,1.0
1947347883,8.88792,9.2308,26.742,1.0
1947358678,8.89496,9.2365,26.6371,1.0
1947369411,8.90111,9.24262,26.62,1.0
1947401697,8.91715,9.25918,26.6171,1.0
1947412450,8.92049,9.2628,26.6271,1.0
1947423205,8.92173,9.264,26.6214,1.0
1947433894,8.92082,9.26315,26.6242,1.0
1947724175,8.91734,9.26093,26.7148,1.0
1947734927,8.92557,9.26956,26.7205,1.0
1947745654,8.93511,9.27916,26.7048,1.0
1947756418,8.94407,9.28881,26.7277,1.0
1947767145,8.95316,9.2981,26.7177,1.0
1947777839,8.96443,9.30985,26.7205,1.0
1947788565,8.97811,9.3239,26.7105,1.0
1947799294,8.99102,9.33764,26.7262,1.0
1947810124,9.00104,9.34802,26.7248,1.0
1947820823,9.0085,9.35572,26.7219,1.0
1947885266,9.02029,9.36795,26.7262,1.0
1947895993,9.01657,9.36391,26.7148,1.0
1947906694,9.01397,9.36128,26.7191,1.0
1948196765,9.20956,9.56252,26.5928,1.0
1948207483,9.20673,9.55999,26.6185,1.0
1948218184,9.20319,9.55627,26.6157,1.0
1948228906,9.19897,9.55216,26.6328,1.0
1948239791,9.19533,9.54816,26.6185,1.0
1948250512,9.19287,9.54607,26.6471,1.0
1948261309,9.19119,9.54398,26.6257,1.0
1948272002,9.18902,9.54163,26.62,1.0
1948282725,9.18564,9.53815,26.6214,1.0
1948293453,9.18155,9.53368,26.6071,1.0
1948325605,9.16515,9.5167,26.6142,1.0
1948336298,9.15921,9.5106,26.6185,1.0
1948346993,9.1529,9.50528,26.6962,1.0
1948357871,9.14606,9.49865,26.7191,1.0
1948647696,8.95876,9.30427,26.7248,1.0
1948658390,8.95536,9.30069,26.7219,1.0
1948669120,8.95215,9.29691,26.6991,1.0
1948679905,8.95031,9.2953,26.7191,1.0
1948690638,8.94986,9.29483,26.7191,1.0
1948701371,8.94967,9.29508,26.7477,1.0
1948712137,8.94981,9.29516,26.7434,1.0
1948722845,8.95075,9.29577,26.7219,1.0
1948733561,8.95219,9.29695,26.7019,1.0
1948744393,8.95407,9.29919,26.7205,1.0
1948776550,8.96037,9.30576,26.7219,1.0
1948787264,8.96299,9.30855,26.7219,1.0
1948798016,8.96463,9.30992,26.7005,1.0
1948808821,8.96539,9.31073,26.7019,1.0
1949110059,9.04887,9.39768,26.7219,1.0
1949120806,9.05424,9.40293,26.7005,1.0
1949131529,9.05894,9.4081,26.7191,1.0
1949142304,9.0639,9.41303,26.7048,1.0
1949153057,9.06861,9.41792,26.7048,1.0
1949163806,9.07302,9.42248,26.7005,1.0
1949174517,9.07813,9.42808,26.7191,1.0
1949185316,9.08362,9.43377,26.7191,1.0
1949196068,9.08736,9.43757,26.7134,1.0
1949206791,9.0895,9.43988,26.7234,1.0
1949260638,9.11329,9.46422,26.7005,1.0
1949271429,9.1167,9.46786,26.7062,1.0
1949282234,9.12061,9.47215,26.7205,1.0
1949292930,9.12435,9.47602,26.7191,1.0
1949582925,9.12936,9.48139,26.7191,1.0
1949593699,9.13084,9.4828,26.7219,1.0
1949604417,9.13335,9.48531,26.7162,1.0
1949615171,9.1366,9.48876,26.7205,1.0
1949625889,9.14174,9.49246,26.6171,1.0
1949636594,9.14909,9.50046,26.6271,1.0
1949647348,9.15785,9.50976,26.64,1.0
1949658158,9.16668,9.51857,26.6171,1.0
1949668866,9.17475,9.52697,26.6185,1.0
1949711804,9.18676,9.53926,26.6171,1.0
1949722500,9.18578,9.53823,26.6157,1.0
1949733251,9.18503,9.53874,26.6962,1.0
1949743965,9.18389,9.53799,26.7191,1.0
1950034103,9.15541,9.508,26.6934,1.0
1950044794,9.14382,9.49644,26.7234,1.0
1950055519,9.13171,9.48389,26.7248,1.0
1950066305,9.11975,9.47123,26.7105,1.0
1950077039,9.10906,9.4602,26.7177,1.0
1950087823,9.10074,9.45136,26.7048,1.0
1950098546,9.09395,9.44477,26.7348,1.0
1950109279,9.08774,9.43817,26.7248,1.0
1950120005,9.08088,9.43102,26.7219,1.0
1950130715,9.07217,9.42195,26.7205,1.0
1950162976,9.03878,9.38735,26.7248,1.0
1950173750,9.02864,9.37674,26.7234,1.0
1950184487,9.02063,9.36842,26.7234,1.0
1950195236,9.01487,9.36206,26.6991,1.0
1950485499,9.03619,9.38455,26.7162,1.0
1950496241,9.03187,9.38026,26.7191,1.0
1950506956,9.02681,9.37473,26.7019,1.0
1950517722,9.02133,9.36925,26.7148,1.0
1950528499,9.01617,9.364,26.7219,1.0
1950539265,9.01166,9.35927,26.7191,1.0
1950549958,9.00777,9.35511,26.7191,1.0
1950560648,9.00537,9.35288,26.7362,1.0
1950571373,9.00467,9.35224,26.742,1.0
1950582088,9.00605,9.35328,26.7162,1.0
1950635790,9.02263,9.37056,26.7177,1.0
1950646600,9.02281,9.37072,26.7162,1.0
1950657298,9.02147,9.36917,26.7062,1.0
1950668038,9.01909,9.36669,26.7062,1.0
1950979579,9.13233,9.48307,26.6285,1.0
1950990277,9.1333,9.48403,26.6257,1.0
1951000971,9.13597,9.48673,26.6214,1.0
1951011677,9.14046,9.4917,26.6414,1.0
1951022368,9.14549,9.4967,26.6271,1.0
1951033075,9.15041,9.50115,26.5999,1.0
1951043822,9.15529,9.50657,26.6214,1.0
1951054519,9.16012,9.51133,26.6057,1.0
1951065255,9.1653,9.51695,26.6214,1.0
1951075965,9.17192,9.52363,26.6085,1.0
1951118937,9.19171,9.54564,26.6934,1.0
1951129663,9.19304,9.54706,26.6962,1.0
1951140359,9.19447,9.54892,26.7262,1.0
1951151161,9.1969,9.55137,26.7219,1.0
1951430437,9.04,9.38853,26.7205,1.0
1951441196,9.03553,9.38387,26.7191,1.0
1951451922,9.03082,9.37861,26.6962,1.0
1951462623,9.025,9.37259,26.6977,1.0
1951473427,9.01896,9.36636,26.7005,1.0
1951484192,9.01405,9.36164,26.7248,1.0
1951494886,9.01018,9.35747,26.7148,1.0
1951505579,9.0066,9.35408,26.7362,1.0
1951516321,9.00452,9.35197,26.7405,1.0
1951527100,9.00544,9.35302,26.7477,1.0
1951559383,9.0213,9.3688,26.7034,1.0
1951570105,9.02577,9.37325,26.7005,1.0
1951580819,9.02976,9.37766,26.7177,1.0
1951591600,9.03397,9.38206,26.7191,1.0
1951881612,9.01974,9.36734,26.7219,1.0
1951892396,9.01482,9.3622,26.7191,1.0
1951903154,9.00934,9.35623,26.7005,1.0
1951913909,9.00336,9.34987,26.6919,1.0
1951924627,8.9963,9.34266,26.6991,1.0
1951935318,8.98782,9.33425,26.7248,1.0
1951946047,8.97815,9.32454,26.742,1.0
1951956756,8.96807,9.31401,26.7377,1.0
1951967575,8.95969,9.30529,26.7362,1.0
1952042641,8.93259,9.27671,26.7177,1.0
1952053329,8.92846,9.27269,26.7205,1.0
1952064040,8.92788,9.27216,26.7248,1.0
1952074741,8.93164,9.27631,26.7405,1.0
1952354096,9.18922,9.54155,26.6028,1.0
1952364847,9.19328,9.54583,26.6071,1.0
1952375576,9.19619,9.54896,26.6214,1.0
1952386298,9.19829,9.55127,26.63,1.0
1952397054,9.20067,9.55528,26.7262,1.0
1952407772,9.20201,9.55655,26.7191,1.0
1952418466,9.20249,9.55761,26.7434,1.0
1952429159,9.20341,9.55853,26.7405,1.0
1952439885,9.20431,9.5591,26.7177,1.0
1952493498,9.2026,9.5572,26.7191,1.0
1952504276,9.19723,9.55161,26.7191,1.0
1952515097,9.19037,9.5442,26.7005,1.0
1952525843,9.18294,9.53677,26.7191,1.0
1952815853,9.03444,9.38254,26.7148,1.0
1952826599,9.02795,9.37551,26.6962,1.0
1952837376,9.02142,9.36879,26.7005,1.0
1952848112,9.01354,9.36063,26.7019,1.0
1952858842,9.006,9.35319,26.7219,1.0
1952869614,9.00101,9.34802,26.7234,1.0
1952880323,8.99772,9.34454,26.7191,1.0
1952891041,8.99441,9.3407,26.6934,1.0
1952901791,8.99068,9.33706,26.7034,1.0
1952944736,8.97316,9.31906,26.7162,1.0
1952955476,8.97175,9.31757,26.7148,1.0
1952966176,8.97075,9.31648,26.7205,1.0
1952976899,8.97098,9.3167,26.7191,1.0
1953320680,9.09326,9.44409,26.742,1.0
1953331492,9.09347,9.44417,26.7405,1.0
1953342217,9.09554,9.44587,26.7119,1.0
1953352934,9.09647,9.44731,26.742,1.0
1953363691,9.09443,9.44488,26.7219,1.0
1953374384,9.08842,9.43828,26.6991,1.0
1953385179,9.07858,9.42836,26.7034,1.0
1953395875,9.0663,9.41552,26.6977,1.0
1953406598,9.0529,9.40192,26.7177,1.0
1953460340,8.98693,9.33361,26.7377,1.0
1953471102,8.98407,9.33,26.6962,1.0
1953481882,8.98237,9.32868,26.7248,1.0
1953492574,8.98214,9.32707,26.6428,1.0
1953503269,8.98465,9.32962,26.64,1.0
1953793069,9.1829,9.53554,26.6414,1.0
1953803822,9.18389,9.53584,26.5957,1.0
1953814516,9.18441,9.53642,26.5985,1.0
1953825303,9.18447,9.53638,26.5928,1.0
1953836029,9.18343,9.53574,26.6214,1.0
1953846753,9.1829,9.53483,26.5985,1.0
1953857526,9.18328,9.53561,26.6228,1.0
1953868290,9.1832,9.53514,26.5957,1.0
1953879037,9.18282,9.5352,26.6242,1.0
1953889760,9.18219,9.53565,26.6934,1.0
1953921844,9.17291,9.52616,26.7019,1.0
1953932537,9.16941,9.52303,26.7248,1.0
1953943267,9.16578,9.51918,26.7205,1.0
1953953975,9.16175,9.51493,26.7162,1.0
1954255005,9.06172,9.41088,26.7162,1.0
1954265813,9.05726,9.40627,26.7177,1.0
1954276505,9.05203,9.40079,26.7148,1.0
1954287266,9.0454,9.39402,26.7219,1.0
1954297961,9.03854,9.38704,26.7219,1.0
1954308686,9.03271,9.38074,26.7062,1.0
1954319393,9.02728,9.37528,26.7177,1.0
1954330091,9.02322,9.37108,26.7191,1.0
1954340787,9.02074,9.36819,26.6991,1.0
1954362215,9.01568,9.36271,26.6962,1.0
1954372908,9.01293,9.36016,26.7162,1.0
1954383627,9.01041,9.35639,26.6428,1.0
1954394339,9.009,9.35456,26.6185,1.0
1954705660,9.18104,9.53476,26.7077,1.0
1954716365,9.16706,9.52053,26.7262,1.0
1954727180,9.15186,9.50431,26.6991,1.0
1954737936,9.1383,9.49057,26.7205,1.0
1954748688,9.12912,9.48109,26.7234,1.0
1954759448,9.12458,9.47639,26.7248,1.0
1954770148,9.12344,9.47505,26.7148,1.0
1954780861,9.12523,9.47708,26.7191,1.0
1954791572,9.13039,9.48245,26.7191,1.0
1954802268,9.13898,9.49137,26.7191,1.0
1954866723,9.18857,9.54256,26.7005,1.0
1954877419,9.19215,9.5466,26.7205,1.0
1954888252,9.19231,9.54658,26.7091,1.0
1954898965,9.18881,9.54313,26.7177,1.0
1955199664,9.12647,9.47655,26.6028,1.0
1955210439,9.14496,9.49579,26.61,1.0
1955221233,9.16263,9.51432,26.6214,1.0
1955231961,9.17772,9.52999,26.6214,1.0
1955242750,9.19162,9.54413,26.6028,1.0
1955253445,9.20669,9.56022,26.6314,1.0
1955264254,9.22118,9.57493,26.6042,1.0
1955275020,9.23126,9.58702,26.7062,1.0
1955285815,9.23829,9.59433,26.7062,1.0
1955318158,9.25963,9.61628,26.6962,1.0
1955328863,9.26604,9.6233,26.7191,1.0
1955339610,9.27201,9.6295,26.7191,1.0
1955350363,9.27603,9.63372,26.7219,1.0
1955640903,9.13057,9.48295,26.7377,1.0
1955651659,9.12228,9.47407,26.7205,1.0
1955662404,9.11388,9.46526,26.7148,1.0
1955673116,9.10573,9.45686,26.7191,1.0
1955683923,9.09929,9.45019,26.7205,1.0
1955694694,9.09467,9.44498,26.6991,1.0
1955705457,9.09044,9.44057,26.6977,1.0
1955716151,9.08614,9.43638,26.7148,1.0
1955726844,9.08142,9.43118,26.6962,1.0
1955737578,9.07621,9.42584,26.7005,1.0
1955769659,9.06752,9.4159,26.6428,1.0
1955780352,9.06717,9.41524,26.6242,1.0
1955791096,9.06634,9.41395,26.5971,1.0
1955801790,9.06506,9.41307,26.6242,1.0
1955812560,9.06495,9.41257,26.5999,1.0
1956081266,9.3239,9.6832,26.7005,1.0
1956091999,9.32975,9.68955,26.7177,1.0
1956102692,9.33527,9.69511,26.7062,1.0
1956113476,9.34043,9.70068,26.7205,1.0
1956124214,9.34408,9.70441,26.7162,1.0
1956134947,9.34564,9.7057,26.6962,1.0
1956145689,9.3452,9.70554,26.7148,1.0
1956156382,9.34347,9.70373,26.7134,1.0
1956167235,9.3389,9.69903,26.7162,1.0
1956177977,9.33113,9.69098,26.7219,1.0
1956231664,9.28673,9.6448,26.7191,1.0
1956242355,9.27897,9.63681,26.7234,1.0
1956253145,9.27105,9.62831,26.7062,1.0
1956263878,9.26364,9.62087,26.7219,1.0
1956553870,9.13403,9.48512,26.6428,1.0
1956564580,9.13332,9.48447,26.6485,1.0
1956575283,9.13363,9.48398,26.5971,1.0
1956586004,9.1314,9.48176,26.6028,1.0
1956596849,9.1254,9.47575,26.6171,1.0
1956607667,9.11776,9.46787,26.62,1.0
1956618406,9.11079,9.46045,26.6085,1.0
1956629208,9.10531,9.45501,26.6242,1.0
1956639900,9.10116,9.45029,26.5985,1.0
1956650596,9.09817,9.44767,26.6285,1.0
1956682840,9.09333,9.44445,26.7405,1.0
1956693544,9.09469,9.44585,26.7391,1.0
1956704322,9.09785,9.44888,26.7234,1.0
1956715040,9.10126,9.45205,26.7048,1.0
1956994026,9.07865,9.42873,26.7134,1.0
1957004801,9.0748,9.42489,26.7234,1.0
1957015495,9.07396,9.42368,26.7019,1.0
1957026251,9.07583,9.42616,26.7362,1.0
1957036945,9.08041,9.43068,26.7205,1.0
1957047718,9.08686,9.43706,26.7005,1.0
1957058511,9.09378,9.44463,26.7248,1.0
1957069212,9.1006,9.45131,26.6991,1.0
1957079939,9.10854,9.45973,26.7219,1.0
1957090636,9.11833,9.46964,26.7048,1.0
1957133681,9.14375,9.4963,26.7219,1.0
1957144427,9.14818,9.50141,26.7405,1.0
1957155133,9.15286,9.50461,26.6357,1.0
1957165980,9.15802,9.50972,26.62,1.0
1957176674,9.16286,9.51474,26.62,1.0
1957445372,9.22384,9.57824,26.6443,1.0
1957456160,9.22523,9.57961,26.64,1.0
1957466891,9.22619,9.58002,26.5985,1.0
1957477589,9.22564,9.57953,26.6028,1.0
1957488322,9.22254,9.57621,26.5971,1.0
1957499050,9.21802,9.57187,26.6185,1.0
1957509874,9.21386,9.56757,26.62,1.0
1957520639,9.21024,9.56378,26.6185,1.0
1957531331,9.20698,9.5602,26.6042,1.0
1957617347,9.17724,9.53154,26.7405,1.0
1957628140,9.17159,9.52528,26.7162,1.0
1957638858,9.16567,9.51903,26.7191,1.0
1957649551,9.15825,9.51132,26.7191,1.0
1957928879,9.23551,9.59157,26.7205,1.0
1957939604,9.24656,9.60141,26.6185,1.0
1957950328,9.25838,9.61406,26.6414,1.0
1957961020,9.27109,9.62709,26.6285,1.0
1957971740,9.28443,9.64086,26.6228,1.0
1957982506,9.29767,9.65456,26.62,1.0
1957993301,9.31059,9.66788,26.6142,1.0
1958004012,9.32334,9.68092,26.6071,1.0
1958014740,9.335,9.69335,26.6271,1.0
1958025462,9.34384,9.70259,26.6314,1.0
1958057720,9.35206,9.71255,26.7191,1.0
1958068420,9.34911,9.70912,26.6876,1.0
1958079147,9.34542,9.70613,26.7391,1.0
1958089847,9.34267,9.70271,26.7048,1.0
1958100619,9.33825,9.69813,26.7048,1.0
1958380425,9.17171,9.52551,26.7291,1.0
1958391208,9.16709,9.52056,26.7177,1.0
1958401922,9.1625,9.51618,26.742,1.0
1958412673,9.15791,9.51139,26.7405,1.0
1958423448,9.15304,9.50635,26.742,1.0
1958434192,9.14835,9.50153,26.7448,1.0
1958444955,9.14439,9.49739,26.7405,1.0
1958455706,9.14064,9.49343,26.7362,1.0
1958466467,9.13739,9.49009,26.7391,1.0
1958509356,9.14136,9.49353,26.7034,1.0
1958520072,9.14595,9.49821,26.6977,1.0
1958530770,9.15114,9.50396,26.7205,1.0
1958541580,9.15757,9.51062,26.7191,1.0
1958820643,9.19917,9.55354,26.7005,1.0
1958831422,9.19382,9.54804,26.7048,1.0
1958842137,9.18919,9.5431,26.6962,1.0
1958852883,9.184,9.53816,26.7248,1.0
1958863646,9.17876,9.53275,26.7262,1.0
1958874341,9.1753,9.52939,26.7391,1.0
1958885080,9.17251,9.5262,26.7205,1.0
1958895830,9.16896,9.52247,26.7177,1.0
1958906524,9.16545,9.51864,26.7062,1.0
1958917267,9.16151,9.51457,26.7048,1.0
1958970994,9.12222,9.47383,26.7105,1.0
1958981726,9.11117,9.46249,26.7191,1.0
1958992518,9.10135,9.45264,26.742,1.0
1959003290,9.09315,9.44413,26.742,1.0
1959293588,9.14235,9.49338,26.6214,1.0
1959304320,9.15503,9.50659,26.6242,1.0
1959315074,9.16792,9.51985,26.6157,1.0
1959325768,9.18055,9.53469,26.7248,1.0
1959336468,9.19231,9.54727,26.7477,1.0
1959347162,9.20315,9.55839,26.7391,1.0
1959357901,9.21262,9.56795,26.7205,1.0
1959368607,9.2195,9.57505,26.7177,1.0
1959379298,9.22369,9.57943,26.7191,1.0
1959390013,9.22532,9.58087,26.7034,1.0
1959411653,9.22271,9.57796,26.6991,1.0
1959422390,9.21902,9.57417,26.7019,1.0
1959433102,9.21566,9.571,26.7219,1.0
1959443793,9.21449,9.56974,26.7191,1.0
1959454549,9.21564,9.57134,26.7448,1.0
1959744788,9.08839,9.4388,26.7191,1.0
1959755584,9.08635,9.43664,26.7162,1.0
1959766339,9.0861,9.43615,26.7019,1.0
1959777075,9.08647,9.43688,26.7234,1.0
1959787800,9.08762,9.438,26.7191,1.0
1959798493,9.08806,9.43807,26.6934,1.0
1959809334,9.08732,9.43786,26.7291,1.0
1959820038,9.0871,9.43748,26.7191,1.0
1959830805,9.08749,9.43785,26.7177,1.0
1959841528,9.08881,9.43936,26.7191,1.0
1959884460,9.09564,9.44623,26.7048,1.0
1959895230,9.09642,9.4469,26.7005,1.0
1959905983,9.09714,9.44798,26.7219,1.0
1959916752,9.09872,9.44996,26.7434,1.0
1960196068,9.04811,9.39652,26.6962,1.0
1960206824,9.05517,9.40409,26.7119,1.0
1960217579,9.06363,9.4115,26.6214,1.0
1960228275,9.0727,9.42091,26.6214,1.0
1960238993,9.08136,9.42979,26.6142,1.0
1960249700,9.09009,9.43903,26.6257,1.0
1960260431,9.10023,9.44954,26.6242,1.0
1960271159,9.11121,9.46096,26.63,1.0
1960281938,9.12071,9.47067,26.62,1.0
1960292663,9.12688,9.47676,26.5999,1.0
1960378582,9.12054,9.47248,26.7362,1.0
1960389296,9.11835,9.47029,26.742,1.0
1960400093,9.11633,9.46822,26.7434,1.0
1960410872,9.11583,9.46768,26.742,1.0
1960700857,9.18567,9.53818,26.6185,1.0
1960711596,9.18339,9.53617,26.6414,1.0
1960722354,9.18092,9.53333,26.6242,1.0
1960733047,9.17814,9.53038,26.62,1.0
1960743741,9.17572,9.528,26.6285,1.0
1960754432,9.17377,9.52605,26.6328,1.0
1960765152,9.17251,9.52461,26.6285,1.0
1960775850,9.17229,9.52429,26.6228,1.0
1960786547,9.17194,9.52385,26.6185,1.0
1960797279,9.16963,9.52155,26.6242,1.0
1960829505,9.15258,9.50517,26.7005,1.0
1960840281,9.14621,9.49881,26.7162,1.0
1960851063,9.14089,9.49344,26.7262,1.0
1960861797,9.13625,9.48819,26.6991,1.0
1961205938,9.11176,9.46266,26.6991,1.0
1961216662,9.11927,9.47042,26.6962,1.0
1961227365,9.12833,9.48024,26.7219,1.0
1961238171,9.13786,9.48993,26.7034,1.0
1961248938,9.14819,9.50097,26.7234,1.0
1961259663,9.1596,9.51276,26.7191,1.0
1961270377,9.17017,9.52337,26.6962,1.0
1961281071,9.17934,9.5333,26.7219,1.0
1961291904,9.18762,9.54221,26.742,1.0
1961302594,9.19438,9.54878,26.7134,1.0
1961367044,9.21758,9.5729,26.7219,1.0
1961377804,9.21918,9.57455,26.7219,1.0
1961388580,9.21958,9.57491,26.7177,1.0
1961399319,9.21965,9.57514,26.7234,1.0
1961710808,9.20225,9.55677,26.7019,1.0
1961721535,9.20485,9.55935,26.6948,1.0
1961732266,9.20763,9.56277,26.7219,1.0
1961743024,9.21042,9.56535,26.7019,1.0
1961753759,9.21285,9.56813,26.7177,1.0
1961764454,9.21507,9.57048,26.7205,1.0
1961775271,9.21666,9.57212,26.7205,1.0
1961786005,9.21555,9.57085,26.7219,1.0
1961796698,9.21149,9.56627,26.6991,1.0
1961807386,9.20612,9.56062,26.6948,1.0
1961850487,9.17876,9.53252,26.7177,1.0
1961861267,9.16916,9.52266,26.7248,1.0
1961872014,9.15963,9.51263,26.7162,1.0
1961882759,9.1501,9.50315,26.742,1.0
1962161915,9.18911,9.54175,26.62,1.0
1962172693,9.19855,9.55149,26.6157,1.0
1962183419,9.20677,9.55979,26.6014,1.0
1962194213,9.21317,9.56823,26.7134,1.0
1962204968,9.2181,9.57344,26.7191,1.0
1962215745,9.22192,9.57763,26.7219,1.0
1962226488,9.2249,9.5809,26.732,1.0
1962237223,9.22769,9.58374,26.7291,1.0
1962247968,9.23001,9.58563,26.6962,1.0
1962258670,9.23173,9.58746,26.6991,1.0
1962290808,9.24001,9.59653,26.7205,1.0
1962301519,9.24429,9.60087,26.7134,1.0
1962312287,9.2485,9.60494,26.6948,1.0
1962323076,9.25359,9.61066,26.7219,1.0
1962333781,9.25938,9.61665,26.7362,1.0
1962624184,9.23348,9.58914,26.7005,1.0
1962634957,9.2384,9.59455,26.7191,1.0
1962645653,9.24274,9.59896,26.7077,1.0
1962656517,9.24567,9.60207,26.7119,1.0
1962667212,9.24789,9.60455,26.7234,1.0
1962677944,9.25038,9.6068,26.7019,1.0
1962688704,9.25339,9.61027,26.7234,1.0
1962699584,9.25675,9.61377,26.7334,1.0
1962710279,9.26021,9.61705,26.7134,1.0
1962721020,9.26371,9.62038,26.6948,1.0
1962753229,9.27569,9.63296,26.7005,1.0
1962763927,9.27956,9.63707,26.7062,1.0
1962774627,9.28261,9.64042,26.7177,1.0
1962785319,9.28467,9.64261,26.7205,1.0
1962796010,9.28687,9.64335,26.6242,1.0
1963107929,9.2851,9.64329,26.7234,1.0
1963118812,9.28017,9.63813,26.7205,1.0
1963129551,9.27502,9.63267,26.7191,1.0
1963140340,9.26893,9.62667,26.7391,1.0
1963151197,9.26331,9.62095,26.7462,1.0
1963161891,9.25886,9.61551,26.6948,1.0
1963172634,9.25423,9.61088,26.7019,1.0
1963183329,9.24877,9.60545,26.7177,1.0
1963194121,9.24274,9.59884,26.6962,1.0
1963204946,9.23568,9.59188,26.7191,1.0
1963237090,9.21907,9.57439,26.7162,1.0
1963247821,9.21456,9.56991,26.7291,1.0
1963258604,9.21106,9.56628,26.7291,1.0
1963269332,9.20871,9.56404,26.742,1.0
1963559880,8.96693,9.31255,26.7077,1.0
1963570584,8.95195,9.29682,26.6962,1.0
1963581293,8.93883,9.2836,26.7219,1.0
1963592032,8.92814,9.27236,26.7134,1.0
1963602763,8.92001,9.26433,26.7405,1.0
1963613459,8.91407,9.25778,26.7191,1.0
1963624179,8.90892,9.25217,26.7019,1.0
1963634980,8.90364,9.24673,26.7048,1.0
1963645737,8.89904,9.24189,26.7005,1.0
1963699489,8.88454,9.22712,26.7134,1.0
1963710212,8.88668,9.22976,26.7405,1.0
1963720936,8.88897,9.23201,26.732,1.0
1963731630,8.89081,9.23414,26.7462,1.0
1964010969,9.17902,9.53261,26.6962,1.0
1964021695,9.19941,9.55422,26.7234,1.0
1964032390,9.21948,9.57498,26.7177,1.0
1964043153,9.2373,9.59356,26.7219,1.0
1964053890,9.25319,9.61011,26.7248,1.0
1964064663,9.26789,9.62499,26.7005,1.0
1964075455,9.28002,9.63663,26.6414,1.0
1964086174,9.28937,9.64637,26.6428,1.0
1964096944,9.29598,9.65271,26.6214,1.0
1964161578,9.31488,9.67256,26.6257,1.0
1964172275,9.32138,9.67924,26.6214,1.0
1964183111,9.32754,9.68596,26.6414,1.0
1964193829,9.33232,9.69076,26.6285,1.0
1964483891,9.27066,9.62815,26.7177,1.0
1964494641,9.27329,9.63065,26.7034,1.0
1964505368,9.27674,9.63426,26.7048,1.0
1964516087,9.28143,9.63929,26.7177,1.0
1964526817,9.28764,9.64616,26.7434,1.0
1964537571,9.29552,9.65388,26.7148,1.0
1964548266,9.30276,9.66109,26.6948,1.0
1964558959,9.30776,9.66662,26.7162,1.0
1964569662,9.31094,9.66999,26.7205,1.0
1964580462,9.31184,9.67085,26.7177,1.0
1964612722,9.29794,9.65643,26.7191,1.0
1964623421,9.29011,9.6485,26.7234,1.0
1964634402,9.28255,9.64058,26.7191,1.0
1964645092,9.27668,9.63485,26.742,1.0
1964655821,9.27325,9.63065,26.7019,1.0
1964924221,9.36745,9.72672,26.6057,1.0
1964934949,9.36862,9.72781,26.5985,1.0
1964945681,9.36566,9.72512,26.6228,1.0
1964956462,9.36021,9.71939,26.6185,1.0
1964967256,9.35505,9.71542,26.7048,1.0
1964977957,9.35041,9.71079,26.7162,1.0
1964988675,9.34464,9.70483,26.7177,1.0
1964999369,9.33734,9.69767,26.7391,1.0
1965010148,9.32981,9.68962,26.7248,1.0
1965020886,9.32357,9.68273,26.6991,1.0
1965063703,9.28858,9.64674,26.7148,1.0
1965074424,9.27992,9.63777,26.7162,1.0
1965085136,9.27349,9.63091,26.7048,1.0
1965095887,9.26794,9.62537,26.7191,1.0
1965375323,9.14088,9.49331,26.7162,1.0
1965386187,9.13454,9.48632,26.6962,1.0
1965396936,9.12782,9.47979,26.7248,1.0
1965407858,9.12268,9.4741,26.7019,1.0
1965418742,9.11866,9.47023,26.7219,1.0
1965429504,9.11402,9.46552,26.7219,1.0
1965440255,9.10781,9.45913,26.7262,1.0
1965451042,9.10006,9.45138,26.7448,1.0
1965461875,9.09278,9.4419,26.6228,1.0
1965526287,9.05629,9.40401,26.6214,1.0
1965537038,9.05141,9.39882,26.6171,1.0
1965547790,9.04759,9.39458,26.5999,1.0
1965558517,9.04333,9.39165,26.6948,1.0
1965847772,9.11937,9.47106,26.7191,1.0
1965858513,9.11822,9.46943,26.6905,1.0
1965869265,9.11838,9.47,26.7162,1.0
1965880051,9.11993,9.47161,26.7162,1.0
1965890814,9.12199,9.47363,26.7091,1.0
1965901568,9.12308,9.47498,26.7219,1.0
1965912323,9.12369,9.47583,26.7462,1.0
1965923019,9.12536,9.47748,26.7405,1.0
1965933707,9.12751,9.47935,26.7177,1.0
1965944399,9.12821,9.48006,26.7162,1.0
1965998054,9.12293,9.47454,26.7077,1.0
1966008752,9.12386,9.47566,26.7177,1.0
1966019492,9.127,9.47886,26.7162,1.0
1966030245,9.13257,9.48466,26.7177,1.0
1966320349,9.22729,9.58143,26.62,1.0
1966331176,9.22463,9.57866,26.62,1.0
1966341933,9.2211,9.57507,26.6242,1.0
1966352625,9.21826,9.57376,26.7205,1.0
1966363392,9.21715,9.57228,26.7005,1.0
1966374144,9.21742,9.5729,26.7219,1.0
1966384910,9.21743,9.57323,26.742,1.0
1966395668,9.21573,9.57148,26.7434,1.0
1966406386,9.21334,9.56888,26.7434,1.0
1966460031,9.21256,9.56755,26.7134,1.0
1966470781,9.21262,9.5677,26.7191,1.0
1966481510,9.21301,9.56842,26.7391,1.0
1966492271,9.2133,9.568,26.6934,1.0
1966782116,9.18564,9.5397,26.7177,1.0
1966792903,9.17928,9.53311,26.7191,1.0
1966803690,9.17245,9.52608,26.7234,1.0
1966814507,9.16566,9.51897,26.7191,1.0
1966825220,9.15816,9.5112,26.7205,1.0
1966835959,9.14905,9.50206,26.7362,1.0
1966846719,9.13892,9.49124,26.7177,1.0
1966857468,9.12834,9.48001,26.7019,1.0
1966868215,9.11801,9.46953,26.7177,1.0
1966922012,9.09184,9.44212,26.7019,1.0
1966932772,9.0928,9.44298,26.6934,1.0
1966943518,9.09357,9.4429,26.6414,1.0
1966954220,9.0965,9.44603,26.6471,1.0
1967244138,9.26254,9.61971,26.7262,1.0
1967254872,9.26198,9.61906,26.7219,1.0
1967265603,9.26026,9.61693,26.7019,1.0
1967276319,9.25815,9.61506,26.7219,1.0
1967287105,9.25548,9.61225,26.7191,1.0
1967297891,9.2512,9.6078,26.7191,1.0
1967308579,9.24662,9.60312,26.7234,1.0
1967319312,9.24133,9.5976,26.7177,1.0
1967330096,9.23478,9.5904,26.6934,1.0
1967383791,9.21238,9.56758,26.7234,1.0
1967394522,9.20752,9.56246,26.7191,1.0
1967405336,9.20097,9.55579,26.7277,1.0
1967416088,9.19281,9.54757,26.7434,1.0
1967695301,9.12412,9.47595,26.7234,1.0
1967705990,9.12589,9.4777,26.7177,1.0
1967716759,9.1307,9.48272,26.7191,1.0
1967727494,9.13734,9.48966,26.7219,1.0
1967738238,9.14455,9.49681,26.7005,1.0
1967748966,9.15296,9.50586,26.7205,1.0
1967759759,9.16416,9.51742,26.7162,1.0
1967770462,9.17829,9.53215,26.7191,1.0
1967781255,9.19261,9.54701,26.7191,1.0
1967791947,9.20521,9.55978,26.6991,1.0
1967834916,9.24475,9.60077,26.6962,1.0
1967845635,9.24749,9.60372,26.7048,1.0
1967856353,9.24867,9.60522,26.7219,1.0
1967867052,9.24968,9.60582,26.6934,1.0
1968156973,9.18248,9.53633,26.6991,1.0
1968167699,9.18579,9.53969,26.6948,1.0
1968178391,9.19181,9.54641,26.7234,1.0
1968189104,9.19965,9.55408,26.7019,1.0
1968199859,9.20673,9.56177,26.7234,1.0
1968210559,9.21373,9.56896,26.7177,1.0
1968221375,9.22255,9.57845,26.7391,1.0
1968232195,9.23182,9.58776,26.7191,1.0
1968242916,9.23856,9.59436,26.6919,1.0
1968307279,9.2634,9.62035,26.7034,1.0
1968318105,9.26964,9.62709,26.7191,1.0
1968328824,9.27769,9.63513,26.6991,1.0
1968339571,9.28713,9.64405,26.6443,1.0
1968619309,9.36991,9.73141,26.7234,1.0
1968630003,9.35933,9.72032,26.7177,1.0
1968640707,9.34878,9.70903,26.6962,1.0
1968651395,9.33861,9.69886,26.7205,1.0
1968662091,9.32911,9.68906,26.7248,1.0
1968672784,9.31968,9.67923,26.7248,1.0
1968683544,9.30878,9.66817,26.7405,1.0
1968694280,9.29558,9.65409,26.7177,1.0
1968704990,9.28111,9.63909,26.7191,1.0
1968769557,9.21903,9.57467,26.7219,1.0
1968780267,9.21109,9.56615,26.7048,1.0
1968790956,9.2028,9.55777,26.7191,1.0
1968801682,9.19355,9.54787,26.7005,1.0
1969080911,9.18216,9.53639,26.7162,1.0
1969091611,9.18774,9.54194,26.7005,1.0
1969102302,9.19413,9.54892,26.7191,1.0
1969112993,9.20063,9.55568,26.7191,1.0
1969123696,9.2086,9.56414,26.7305,1.0
1969134474,9.21853,9.57397,26.7005,1.0
1969145244,9.22954,9.58572,26.7205,1.0
1969155998,9.2403,9.59691,26.7219,1.0
1969166752,9.25026,9.60687,26.6977,1.0
1969177447,9.2596,9.61691,26.7191,1.0
1969263390,9.29272,9.65181,26.7434,1.0
1969274138,9.29143,9.65022,26.7277,1.0
1969284912,9.28915,9.64769,26.7177,1.0
1969295697,9.28744,9.64593,26.7191,1.0
1969585437,9.21382,9.56933,26.7134,1.0
1969596159,9.2059,9.5612,26.7191,1.0
1969606880,9.19876,9.55407,26.7377,1.0
1969617614,9.19186,9.54517,26.6285,1.0
1969628394,9.18494,9.53756,26.6014,1.0
1969639093,9.17782,9.53019,26.5985,1.0
1969649842,9.17042,9.52278,26.6157,1.0
1969660555,9.16245,9.51428,26.6014,1.0
1969671271,9.15409,9.50591,26.6214,1.0
1969735742,9.10864,9.45854,26.6157,1.0
1969746512,9.10581,9.45579,26.6271,1.0
1969757323,9.10289,9.45275,26.6271,1.0
1969768106,9.10021,9.4497,26.61,1.0
1970047823,9.2154,9.57144,26.7291,1.0
1970058612,9.2112,9.56691,26.7191,1.0
1970069326,9.20988,9.56559,26.7219,1.0
1970080122,9.21282,9.5689,26.7434,1.0
1970090849,9.21787,9.57331,26.6905,1.0
1970101604,9.22228,9.57832,26.7177,1.0
1970112351,9.22656,9.58267,26.7119,1.0
1970123091,9.23148,9.58806,26.7291,1.0
1970133780,9.23746,9.59404,26.7148,1.0
1970187529,9.27755,9.63627,26.7448,1.0
1970198300,9.28881,9.64792,26.742,1.0
1970208991,9.30085,9.65964,26.6934,1.0
1970219724,9.31327,9.673,26.7219,1.0
1970509814,9.35336,9.7146,26.7177,1.0
1970520600,9.35151,9.71275,26.7219,1.0
1970531298,9.34899,9.71013,26.7219,1.0
1970542029,9.34619,9.7068,26.6962,1.0
1970552793,9.3442,9.7052,26.7248,1.0
1970563487,9.34253,9.70328,26.7034,1.0
1970574315,9.33921,9.69965,26.6919,1.0
1970585008,9.33392,9.69464,26.7219,1.0
1970595741,9.32828,9.68874,26.7191,1.0
1970638715,9.30106,9.66055,26.7219,1.0
1970649473,9.29385,9.65305,26.7205,1.0
1970660201,9.28491,9.64345,26.7019,1.0
1970670954,9.27463,9.63277,26.7019,1.0
1970971961,9.16573,9.51995,26.7234,1.0
1970982696,9.1697,9.52415,26.7205,1.0
1970993401,9.17423,9.52876,26.7148,1.0
1971004149,9.17883,9.53237,26.6414,1.0
1971014900,9.18439,9.53755,26.6042,1.0
1971025662,9.19091,9.54443,26.6114,1.0
1971036446,9.19636,9.55001,26.6057,1.0
1971047175,9.19913,9.55298,26.6157,1.0
1971058047,9.20038,9.55435,26.62,1.0
1971101027,9.19753,9.55262,26.7005,1.0
1971111799,9.19378,9.54893,26.7134,1.0
1971122620,9.18977,9.54499,26.7277,1.0
1971133315,9.1857,9.54041,26.7048,1.0
1971144085,9.18101,9.53583,26.7248,1.0
1971445040,9.29722,9.65664,26.7191,1.0
1971455735,9.2996,9.65906,26.7162,1.0
1971466568,9.30019,9.65977,26.7219,1.0
1971477295,9.29851,9.65825,26.7362,1.0
1971488070,9.29641,9.6562,26.7448,1.0
1971498764,9.29505,9.65315,26.6428,1.0
1971509456,9.29415,9.65183,26.6185,1.0
1971520294,9.29394,9.65203,26.6443,1.0
1971530987,9.29355,9.6511,26.6114,1.0
1971584767,9.27439,9.63135,26.6171,1.0
1971595479,9.27075,9.62925,26.7219,1.0
1971606187,9.2676,9.62588,26.7162,1.0
1971616887,9.26389,9.62185,26.7048,1.0
1971896195,9.10063,9.45225,26.6919,1.0
1971906922,9.09483,9.44667,26.7205,1.0
1971917667,9.08729,9.43924,26.7462,1.0
1971928360,9.07952,9.43109,26.7405,1.0
1971939047,9.07345,9.42444,26.7191,1.0
1971949740,9.06956,9.42041,26.7234,1.0
1971960433,9.06836,9.41902,26.7148,1.0
1971971186,9.07009,9.42103,26.7277,1.0
1971981935,9.07466,9.42586,26.7334,1.0
1971992661,9.08051,9.43165,26.7148,1.0
1972046312,9.13915,9.49248,26.7148,1.0
1972057082,9.15827,9.5127,26.7334,1.0
1972067820,9.17859,9.53344,26.7105,1.0
1972078608,9.19894,9.55471,26.7191,1.0
1972347050,9.39111,9.75464,26.7277,1.0
1972357757,9.38632,9.74958,26.7219,1.0
1972368568,9.38056,9.74333,26.7062,1.0
1972379305,9.37423,9.73693,26.7191,1.0
1972390005,9.36929,9.73054,26.6414,1.0
1972400769,9.36661,9.72734,26.6157,1.0
1972411567,9.3666,9.72763,26.6342,1.0
1972422268,9.36806,9.72954,26.6585,1.0
1972432987,9.36953,9.73054,26.6257,1.0
1972529788,9.3498,9.71134,26.7048,1.0
1972540544,9.34534,9.7069,26.7105,1.0
1972551278,9.34189,9.70343,26.7177,1.0
1972561972,9.33999,9.70157,26.7248,1.0
1972851906,9.30125,9.66073,26.6919,1.0
1972862598,9.30028,9.66015,26.7191,1.0
1972873287,9.30029,9.6602,26.7219,1.0
1972883978,9.29991,9.65989,26.7277,1.0
1972894704,9.29819,9.6577,26.7019,1.0
1972905455,9.29745,9.65727,26.7234,1.0
1972916208,9.30004,9.65985,26.7162,1.0
1972926954,9.30384,9.66341,26.6919,1.0
1972937724,9.30556,9.66539,26.7005,1.0
1972948425,9.3056,9.66568,26.7162,1.0
1972980649,9.31042,9.67034,26.6919,1.0
1972991542,9.3113,9.67158,26.7119,1.0
1973002345,9.31053,9.67089,26.7191,1.0
1973013066,9.31096,9.67116,26.7077,1.0
1973023853,9.31485,9.67545,26.7234,1.0
1973302884,9.38609,9.74973,26.7462,1.0
1973313643,9.38474,9.74787,26.7177,1.0
1973324346,9.38796,9.751,26.7048,1.0
1973335070,9.39186,9.75535,26.7234,1.0
1973345782,9.39464,9.75834,26.7291,1.0
1973356517,9.39684,9.76001,26.6919,1.0
1973367210,9.39959,9.76303,26.7019,1.0
1973377935,9.40277,9.76649,26.7119,1.0
1973388764,9.40292,9.76675,26.7177,1.0
1973399534,9.39801,9.7613,26.6962,1.0
1973442482,9.36461,9.72696,26.7177,1.0
1973453237,9.35431,9.71625,26.7177,1.0
1973463987,9.34299,9.70505,26.7391,1.0
1973474707,9.33337,9.69514,26.7448,1.0
1973754534,9.30882,9.6686,26.6962,1.0
1973765431,9.31063,9.67133,26.7491,1.0
1973776122,9.31509,9.67543,26.7162,1.0
1973786830,9.32255,9.68331,26.7177,1.0
1973797572,9.331,9.69182,26.7005,1.0
1973808264,9.33782,9.6992,26.7191,1.0
1973818965,9.34199,9.7036,26.7234,1.0
1973829668,9.34286,9.70448,26.7219,1.0
1973840431,9.34068,9.70174,26.6962,1.0
1973904910,9.33135,9.69282,26.7348,1.0
1973915643,9.32934,9.69007,26.6934,1.0
1973926351,9.3276,9.68831,26.6962,1.0
1973937046,9.32567,9.68676,26.7248,1.0
1974227092,9.46952,9.83599,26.7191,1.0
1974237847,9.47306,9.83995,26.7362,1.0
1974248635,9.47392,9.84066,26.7248,1.0
1974259379,9.47294,9.83917,26.6962,1.0
1974270126,9.47013,9.83615,26.7019,1.0
1974280885,9.46603,9.83234,26.7291,1.0
1974291673,9.46148,9.82726,26.7077,1.0
1974302362,9.45653,9.82233,26.7205,1.0
1974313055,9.45235,9.81768,26.7019,1.0
1974323800,9.44929,9.81483,26.7162,1.0
1974377525,9.43111,9.79578,26.6934,1.0
1974388289,9.42492,9.78982,26.7219,1.0
1974399011,9.42105,9.78571,26.7162,1.0
1974409773,9.41945,9.78406,26.7177,1.0
1974688956,9.30068,9.66116,26.7448,1.0
1974699765,9.29038,9.65032,26.7405,1.0
1974710463,9.28133,9.64028,26.7005,1.0
1974721242,9.27491,9.63395,26.7219,1.0
1974731965,9.27215,9.63108,26.7219,1.0
1974742697,9.27128,9.63018,26.7219,1.0
1974753482,9.26767,9.62633,26.7162,1.0
1974764212,9.25991,9.61804,26.7019,1.0
1974774935,9.2514,9.6092,26.7019,1.0
1974785703,9.24448,9.60197,26.6991,1.0
1974839324,9.23521,9.59267,26.7234,1.0
1974850137,9.23088,9.58802,26.7134,1.0
1974860866,9.22645,9.58371,26.7248,1.0
1974871581,9.22103,9.57804,26.7219,1.0
1975150654,9.33075,9.69245,26.752,1.0
1975161404,9.33253,9.69217,26.62,1.0
1975172172,9.33718,9.69701,26.6214,1.0
1975182926,9.34367,9.70372,26.6157,1.0
1975193709,9.35164,9.71187,26.6085,1.0
1975204483,9.35971,9.72047,26.6214,1.0
1975215243,9.36479,9.72553,26.6085,1.0
1975225989,9.36471,9.72547,26.61,1.0
1975236708,9.36139,9.72204,26.6114,1.0
1975247521,9.35685,9.71758,26.6271,1.0
1975312141,9.32106,9.68185,26.7191,1.0
1975322870,9.31138,9.67148,26.6991,1.0
1975333637,9.30011,9.65981,26.7019,1.0
1975344374,9.2851,9.64438,26.7191,1.0
1976568635,9.15624,9.51064,26.7148,1.0
1976579386,9.15469,9.50873,26.6962,1.0
1976590084,9.15264,9.507,26.7219,1.0
1976600827,9.15027,9.50425,26.7034,1.0
1976611520,9.14759,9.50158,26.7105,1.0
1976622214,9.14408,9.49811,26.7219,1.0
1976632912,9.14053,9.49427,26.7134,1.0
1976643644,9.13932,9.49324,26.7277,1.0
1976654382,9.14089,9.49506,26.7391,1.0
1976665118,9.1446,9.49907,26.7491,1.0
1976708116,9.17533,9.53042,26.7177,1.0
1976718880,9.18251,9.53815,26.7348,1.0
1976729683,9.19085,9.54673,26.7334,1.0
1976740433,9.20038,9.55608,26.6991,1.0
1976751253,9.20973,9.56612,26.7191,1.0
1977030754,9.21507,9.57165,26.7105,1.0
1977041506,9.21573,9.57231,26.7091,1.0
1977052289,9.21684,9.57345,26.7134,1.0
1977063037,9.21647,9.57297,26.7077,1.0
1977073766,9.21511,9.57183,26.7248,1.0
1977084467,9.21319,9.56952,26.7048,1.0
1977095159,9.21239,9.56898,26.7234,1.0
1977105932,9.21578,9.57255,26.7262,1.0
1977116693,9.22449,9.5817,26.7248,1.0
1977127429,9.23526,9.59279,26.7191,1.0
1977170380,9.28454,9.64373,26.7034,1.0
1977181102,9.29562,9.65526,26.7048,1.0
1977191846,9.30568,9.66591,26.7177,1.0
1977202630,9.31488,9.67526,26.7048,1.0
1977481641,9.29178,9.65148,26.7191,1.0
1977492338,9.30526,9.66568,26.732,1.0
1977503139,9.32079,9.68145,26.7091,1.0
1977513842,9.33458,9.696,26.7234,1.0
1977524530,9.34472,9.70619,26.7019,1.0
1977535297,9.35333,9.71534,26.7205,1.0
1977546026,9.36285,9.72521,26.7191,1.0
1977556871,9.37192,9.7344,26.7048,1.0
1977567600,9.3792,9.7425,26.7377,1.0
1977578386,9.38789,9.75154,26.7391,1.0
1977632036,9.44546,9.81057,26.6862,1.0
1977642775,9.4463,9.81213,26.7262,1.0
1977653509,9.44597,9.81167,26.7191,1.0
1977664266,9.44629,9.8118,26.7062,1.0
1977943285,9.40545,9.7696,26.7191,1.0
1977953998,9.39979,9.7636,26.7119,1.0
1977964800,9.3956,9.75955,26.7305,1.0
1977975518,9.39222,9.75594,26.7248,1.0
1977986284,9.38776,9.75124,26.7205,1.0
1977996997,9.38329,9.74651,26.7148,1.0
1978007748,9.38087,9.74388,26.7077,1.0
1978018553,9.38064,9.74389,26.7234,1.0
1978029316,9.38217,9.74383,26.6214,1.0
1978040085,9.38584,9.74763,26.6357,1.0
1978083140,9.39561,9.75778,26.63,1.0
1978093908,9.39881,9.76063,26.6014,1.0
1978104693,9.40298,9.76533,26.6242,1.0
1978115403,9.40923,9.77155,26.6071,1.0
1978416461,9.31332,9.6728,26.7248,1.0
1978427154,9.302,9.65937,26.6214,1.0
1978437880,9.29188,9.64918,26.6414,1.0
1978448656,9.28392,9.64064,26.6242,1.0
1978459350,9.27694,9.63337,26.6242,1.0
1978470109,9.2694,9.62558,26.6271,1.0
1978480831,9.26176,9.61759,26.6228,1.0
1978491543,9.25672,9.61267,26.6428,1.0
1978502374,9.25544,9.61104,26.6242,1.0
1978556062,9.27229,9.62957,26.6962,1.0
1978566837,9.27953,9.63747,26.7191,1.0
1978577600,9.28742,9.64567,26.7191,1.0
1978588310,9.29484,9.65344,26.7234,1.0
1978878504,9.24841,9.60502,26.7191,1.0
1978889287,9.24625,9.60282,26.7205,1.0
1978900021,9.24376,9.59985,26.6962,1.0
1978910758,9.23989,9.59589,26.7005,1.0
1978921573,9.2352,9.59137,26.7219,1.0
1978932299,9.23187,9.58793,26.7234,1.0
1978943011,9.23028,9.58599,26.6991,1.0
1978953738,9.23024,9.58668,26.7448,1.0
1978964486,9.23132,9.5878,26.7448,1.0
1979007499,9.24674,9.6031,26.7048,1.0
1979018335,9.25425,9.61123,26.7248,1.0
1979029087,9.26235,9.61959,26.7219,1.0
1979039835,9.27121,9.62838,26.6962,1.0
1979330156,9.36919,9.72885,26.6185,1.0
1979340919,9.36328,9.72264,26.6142,1.0
1979351671,9.35735,9.71665,26.6242,1.0
1979362409,9.35258,9.71125,26.5971,1.0
1979373116,9.34738,9.70573,26.5971,1.0
1979383851,9.33946,9.69792,26.6228,1.0
1979394547,9.32932,9.68742,26.6242,1.0
1979405387,9.31799,9.6754,26.6085,1.0
1979416125,9.30658,9.66573,26.7448,1.0
1979426815,9.2962,9.65497,26.7462,1.0
1979480611,9.25909,9.61629,26.7291,1.0
1979491310,9.25622,9.61317,26.7205,1.0
1979502057,9.25312,9.60998,26.7219,1.0
1979512811,9.24777,9.60442,26.7219,1.0
1979523566,9.24056,9.59694,26.7219,1.0
1979824326,9.21673,9.57192,26.7034,1.0
1979835108,9.22495,9.58035,26.6962,1.0
1979845866,9.23269,9.58878,26.7205,1.0
1979856717,9.24199,9.59844,26.7248,1.0
