timestamp,indicated_airspeed_m_s,equivalent_airspeed_m_s,true_airspeed_m_s,equivalent_ground_minus_wind_m_s,true_ground_minus_wind_m_s,airspeed_sensor_measurement_valid,selected_airspeed_index
1103991017,-2.68387,-2.68387,-2.77951,0.0141753,0.0152726,1,1
1104391040,-2.82089,-2.82089,-2.92147,0.0141307,0.0152247,1,1
1104891024,-2.85025,-2.85025,-2.95184,0.0145068,0.0156297,1,1
1104991016,-2.73384,-2.73384,-2.83137,0.0147483,0.0158899,1,1
1105191019,-2.627,-2.627,-2.72075,0.0141891,0.0152877,1,1
1105291017,-2.553,-2.553,-2.64394,0.0140517,0.0151393,1,1
1105791019,-3.20314,-3.20314,-3.31739,0.0137206,0.0147827,1,1
1106291041,-2.81163,-2.81163,-2.91195,0.0140653,0.0151541,1,1
1106691105,-2.979,-2.979,-3.08524,0.0130768,0.0140891,1,1
1107191023,-2.8504,-2.8504,-2.95204,0.0127756,0.0137646,1,1
1107291018,-2.83319,-2.83319,-2.93421,0.0129794,0.0139841,1,1
1107691033,-2.48955,-2.48955,-2.57843,0.0113015,0.0121763,1,1
1108191047,-2.99977,-2.99977,-3.10677,0.0118032,0.0127169,1,1
1108291016,-3.02246,-3.02246,-3.13027,0.0120485,0.0129813,1,1
1108591129,-2.51641,-2.51641,-2.60619,0.0119392,0.0128636,1,1
1109091361,-2.58197,-2.58197,-2.67397,0.0115175,0.0124092,1,1
1109191672,-2.5465,-2.5465,-2.63741,0.0114824,0.0123715,1,1
1109491207,-2.35723,-2.35723,-2.44137,0.0108692,0.011711,1,1
1109991067,-2.54494,-2.54494,-2.63584,0.00973001,0.0104835,1,1
1110491033,-2.80911,-2.80911,-2.90943,0.00824601,0.0088846,1,1
1110891019,-2.63258,-2.63258,-2.72644,0.00949439,0.0102298,1,1
1111391020,-2.58744,-2.58744,-2.67982,0.0116184,0.0125183,1,1
1111891022,-2.75749,-2.75749,-2.85574,0.0142888,0.0153958,1,1
1111991053,-2.62517,-2.62517,-2.71873,0.0151485,0.0163223,1,1
1112291087,-2.87303,-2.87303,-2.97555,0.0162584,0.0175182,1,1
1112791016,-2.69864,-2.69864,-2.79498,0.0172905,0.0186306,1,1
1112891049,-2.57684,-2.57684,-2.66874,0.0173267,0.0186692,1,1
1113291045,-2.47308,-2.47308,-2.5613,0.0174733,0.0188272,1,1
1113691030,-2.65828,-2.65828,-2.75307,0.0170641,0.0183863,1,1
1115091017,-2.75678,-2.75678,-2.85523,0.0087928,0.00947445,1,1
1115591020,-2.28769,-2.28769,-2.36925,0.00590119,0.00635869,1,1
1115691019,-2.4429,-2.4429,-2.52998,0.00544384,0.0058659,1,1
1115991028,-3.00331,-3.00331,-3.11049,0.00477556,0.00514581,1,1
1116491581,-2.6759,-2.6759,-2.77142,0.00235102,0.00253333,1,1
1116591507,-2.74196,-2.74196,-2.83975,0.00169848,0.00183019,1,1
1116991138,-2.18986,-2.18986,-2.26788,0.00379584,0.00409014,1,1
1117091273,-2.45898,-2.45898,-2.54658,0.00399443,0.00430416,1,1
1117491048,-2.84568,-2.84568,-2.9472,0.00637999,0.00687476,1,1
1117891041,-2.66339,-2.66339,-2.75841,0.00919499,0.00990827,1,1
1118391034,-2.52963,-2.52963,-2.61978,0.0111362,0.012,1,1
1118491020,-2.4774,-2.4774,-2.56571,0.0106672,0.0114948,1,1
1118891021,-2.11355,-2.11355,-2.18896,0.0125587,0.0135327,1,1
1119291035,1.45057,1.45057,1.50225,0.017136,0.0184654,1,1
1119791040,3.2425,3.2425,3.35816,0.0229212,0.0247,1,1
1119891083,3.35894,3.35894,3.47876,0.0229936,0.0247779,1,1
1120291016,3.67223,3.67223,3.80317,0.0230663,0.024856,1,1
1120691018,3.52077,3.52077,3.64618,0.0236062,0.0254382,1,1
1121191018,4.03832,4.03832,4.1822,0.0236368,0.0254711,1,1
1121291018,3.8669,3.8669,4.00465,0.0240299,0.0258955,1,1
1121591016,3.80427,3.80427,3.93979,0.0240452,0.0259116,1,1
1121691017,3.86209,3.86209,3.99995,0.024,0.025863,1,1
1122091021,3.81629,3.81629,3.95247,0.0239807,0.0258429,1,1
1122191018,3.72037,3.72037,3.85297,0.023416,0.0252339,1,1
1122591027,4.08906,4.08906,4.23489,0.0206249,0.0222263,1,1
1122991017,4.08936,4.08936,4.23514,0.0195722,0.0210918,1,1
1123091017,4.03887,4.03887,4.1829,0.0189934,0.0204683,1,1
1123391061,3.87811,3.87811,4.01656,0.0181453,0.0195547,1,1
1123891081,4.08234,4.08234,4.22782,0.0153611,0.0165543,1,1
1123991026,4.0705,4.0705,4.21566,0.0148058,0.0159557,1,1
1124391383,3.83036,3.83036,3.96698,0.0139699,0.0150549,1,1
1124791204,4.21457,4.21457,4.36471,0.0121569,0.0131013,1,1
1125291026,3.84627,3.84627,3.98345,0.0126084,0.013588,1,1
1125791053,3.87343,3.87343,4.01159,0.0110379,0.0118955,1,1
1125891020,3.89826,3.89826,4.03731,0.0116629,0.0125691,1,1
1126191033,4.26793,4.26793,4.42018,0.0120332,0.0129683,1,1
1126691017,3.97967,3.97967,4.12164,0.00962409,0.010372,1,1
1126791018,3.8595,3.8595,3.99706,0.00996928,0.0107442,1,1
1127191017,3.96838,3.96838,4.10994,0.00997266,0.0107478,1,1
1127591136,3.93489,3.93489,4.0753,0.00915852,0.00987038,1,1
1128091020,4.07128,4.07128,4.21643,0.0113581,0.0122411,1,1
1128191046,4.18777,4.18777,4.33718,0.0118844,0.0128083,1,1
1128591018,4.2581,4.2581,4.41002,0.0149062,0.016065,1,1
1128691018,4.20064,4.20064,4.35037,0.0151418,0.016319,1,1
1128991017,4.22951,4.22951,4.3804,0.0187454,0.0202031,1,1
1129491049,4.24546,4.24546,4.39683,0.0222253,0.0239536,1,1
1129591032,4.29127,4.29127,4.44443,0.0230102,0.0247998,1,1
1129891027,3.65172,3.65172,3.78207,0.0250071,0.0269519,1,1
1130391020,3.80057,3.80057,3.93608,0.0292304,0.0315036,1,1
1130491018,3.96254,3.96254,4.10379,0.0305207,0.032894,1,1
1130891016,3.88075,3.88075,4.01923,0.0329,0.035459,1,1
1131291018,4.0364,4.0364,4.18046,0.0347655,0.0374696,1,1
1131791610,3.95098,3.95098,4.09195,0.0353182,0.0380655,1,1
1131891354,3.99116,3.99116,4.13351,0.0355543,0.0383203,1,1
1132191084,4.04832,4.04832,4.19279,0.0361997,0.0390156,1,1
1132691118,4.18928,4.18928,4.33868,0.0339767,0.0366197,1,1
1132791025,4.18908,4.18908,4.33846,0.0337179,0.0363412,1,1
1133091026,4.31265,4.31265,4.46674,0.0313707,0.0338114,1,1
1133591022,3.73392,3.73392,3.86708,0.0269304,0.0290259,1,1
1134091018,4.22307,4.22307,4.37361,0.02515,0.0271066,1,1
1134191020,4.34706,4.34706,4.50203,0.0241571,0.0260368,1,1
1134491021,4.07987,4.07987,4.22557,0.0210452,0.0226824,1,1
1134991020,4.14082,4.14082,4.28844,0.0184732,0.0199105,1,1
1135091016,4.15416,4.15416,4.3024,0.017047,0.0183736,1,1
1135391019,4.08431,4.08431,4.23008,0.0159444,0.0171851,1,1
1135891018,3.9109,3.9109,4.05047,0.0134034,0.0144465,1,1
1135991053,3.88396,3.88396,4.02262,0.0134538,0.0145009,1,1
1136391023,4.24063,4.24063,4.39178,0.0130739,0.0140912,1,1
1136491017,4.25632,4.25632,4.40818,0.0127344,0.0137253,1,1
1136791044,4.19596,4.19596,4.3457,0.0120734,0.013013,1,1
1137291027,3.95272,3.95272,4.09377,0.0110561,0.0119164,1,1
1137391020,3.8695,3.8695,4.00762,0.0107649,0.0116027,1,1
1137691019,4.21774,4.21774,4.36822,0.0101778,0.0109698,1,1
1138191016,4.14299,4.14299,4.29062,0.00955858,0.0103023,1,1
1138291017,3.99018,3.99018,4.13246,0.00993918,0.0107127,1,1
1138591027,3.97043,3.97043,4.11201,0.00927946,0.0100016,1,1
1139091093,4.28565,4.28565,4.43861,0.00800133,0.00862398,1,1
1139591371,4.22631,4.22631,4.37719,0.00751968,0.00810494,1,1
1139691448,4.35272,4.35272,4.50804,0.00835586,0.00900612,1,1
1139991314,4.41135,4.41135,4.56887,0.0070822,0.00763344,1,1
1140491025,4.24194,4.24194,4.39333,0.00523207,0.00563926,1,1
1140591057,4.23312,4.23312,4.38403,0.00545585,0.00588045,1,1
1140891098,3.99303,3.99303,4.13556,0.00536719,0.0057849,1,1
1141391020,4.06787,4.06787,4.213,0.00558307,0.00601756,1,1
1141891046,4.35002,4.35002,4.50518,0.00446076,0.00480787,1,1
1141991020,4.25423,4.25423,4.40579,0.00419286,0.00451909,1,1
1142391017,4.33822,4.33822,4.49289,0.00455579,0.0049103,1,1
1142791103,4.15446,4.15446,4.30266,0.00601162,0.00647941,1,1
1142891030,4.12536,4.12536,4.27264,0.00595173,0.00641495,1,1
1143291019,4.50351,4.50351,4.66426,0.00842272,0.00907818,1,1
1143391016,4.56805,4.56805,4.73107,0.00775448,0.00835796,1,1
1143691021,4.07826,4.07826,4.22383,0.00861406,0.00928447,1,1
1144191016,4.37053,4.37053,4.52716,0.00662537,0.007141,1,1
1144291018,4.32524,4.32524,4.47944,0.00691969,0.00745819,1,1
1144691092,3.89771,3.89771,4.0367,0.00771005,0.00831011,1,1
1145091018,4.19479,4.19479,4.34456,0.00794396,0.00856228,1,1
1145591018,4.23569,4.23569,4.38666,0.00825092,0.00889284,1,1
1145691039,4.11335,4.11335,4.26014,0.00883456,0.0095219,1,1
1145991050,4.18137,4.18137,4.33054,0.00951274,0.0102528,1,1
1146491016,4.16692,4.16692,4.31574,0.0107585,0.0115956,1,1
1146591095,4.11066,4.11066,4.25734,0.0106572,0.0114863,1,1
1146891068,4.28381,4.28381,4.4365,0.0115329,0.0124302,1,1
1147391454,4.12549,4.12549,4.27355,0.0120954,0.0130365,1,1
1147891019,4.31215,4.31215,4.46682,0.0144324,0.0155553,1,1
1147991164,4.34476,4.34476,4.49976,0.0145675,0.0157007,1,1
1148291027,4.36413,4.36413,4.52053,0.0160671,0.0173171,1,1
1148791112,4.13306,4.13306,4.28054,0.0186645,0.0201166,1,1
1148891017,4.04999,4.04999,4.19523,0.018325,0.0197506,1,1
1149291018,4.19566,4.19566,4.3454,0.0191466,0.0206363,1,1
1149391020,4.08962,4.08962,4.23572,0.0189911,0.0204687,1,1
1149791043,4.15784,4.15784,4.3069,0.0180974,0.0195054,1,1
1149891018,4.13275,4.13275,4.28076,0.0181203,0.0195298,1,1
1150291027,4.10017,4.10017,4.24651,0.0176313,0.0190027,1,1
1150691018,4.08724,4.08724,4.23381,0.0186754,0.0201282,1,1
1150791018,4.17691,4.17691,4.32598,0.0183122,0.0197368,1,1
1151191017,3.90112,3.90112,4.04089,0.0178258,0.0192124,1,1
1151291017,3.81497,3.81497,3.95168,0.0171714,0.0185068,1,1
1151591029,4.1131,4.1131,4.26059,0.0162819,0.0175485,1,1
1152091042,4.45609,4.45609,4.61589,0.0160791,0.0173297,1,1
1152191025,4.33583,4.33583,4.49127,0.0159542,0.017195,1,1
1152491020,3.9353,3.9353,4.0763,0.0170168,0.0183404,1,1
1152991016,3.99558,3.99558,4.13885,0.0164669,0.0177474,1,1
1153091018,4.1317,4.1317,4.27975,0.0164594,0.0177395,1,1
1153491017,3.99773,3.99773,4.14015,0.0177973,0.0191811,1,1
1153591026,3.8377,3.8377,3.97527,0.0185869,0.0200324,1,1
1153891017,4.22537,4.22537,4.37679,0.0195274,0.0210458,1,1
1154391201,4.33582,4.33582,4.49131,0.0241596,0.0260379,1,1
1154491121,4.35694,4.35694,4.51312,0.0243678,0.0262625,1,1
1154791028,4.1469,4.1469,4.29551,0.0269711,0.029068,1,1
1155291357,4.32939,4.32939,4.4845,0.0261199,0.0281505,1,1
1155391322,4.31607,4.31607,4.47093,0.0268916,0.0289822,1,1
1155791125,4.30214,4.30214,4.45626,0.0270384,0.0291408,1,1
1155891019,4.27831,4.27831,4.43171,0.0269244,0.0290174,1,1
1156191018,4.17815,4.17815,4.32797,0.0271312,0.0292405,1,1
1156691016,4.2459,4.2459,4.39808,0.0260419,0.0280661,1,1
1156791016,4.19074,4.19074,4.34108,0.0264725,0.0285306,1,1
1157091016,4.23192,4.23192,4.38383,0.0238191,0.0256707,1,1
1157591016,4.59349,4.59349,4.75803,0.0226766,0.0244392,1,1
1158091017,3.55096,3.55096,3.67829,0.0186173,0.0200644,1,1
1158191020,3.58699,3.58699,3.71556,0.0188901,0.0203582,1,1
1159491018,3.97379,3.97379,4.11609,0.0106237,0.0114492,1,1
1159591018,4.08836,4.08836,4.23496,0.0109419,0.0117922,1,1
1159991017,3.97106,3.97106,4.11349,0.0115297,0.0124257,1,1
1160091019,4.02531,4.02531,4.16975,0.0110792,0.01194,1,1
1160391017,3.79891,3.79891,3.93509,0.0108192,0.0116598,1,1
1160891055,4.11461,4.11461,4.26222,0.0127718,0.0137641,1,1
1160991018,4.10389,4.10389,4.25093,0.0132931,0.0143257,1,1
1161391037,4.44357,4.44357,4.60265,0.014285,0.0153946,1,1
1161791016,4.39445,4.39445,4.55205,0.0165912,0.0178801,1,1
1161891018,4.26748,4.26748,4.42035,0.0170889,0.0184162,1,1
1162191067,4.00723,4.00723,4.15104,0.0190159,0.0204927,1,1
1162691334,3.99418,3.99418,4.13737,0.0236262,0.0254611,1,1
1162791423,4.14619,4.14619,4.2948,0.0243276,0.0262168,1,1
1163191407,4.13382,4.13382,4.28186,0.0238108,0.0256602,1,1
1163591024,4.42333,4.42333,4.5818,0.0267644,0.0288428,1,1
1164091141,4.19277,4.19277,4.34308,0.0271298,0.0292364,1,1
1164191018,4.23663,4.23663,4.38842,0.0260509,0.0280739,1,1
1164491018,4.27134,4.27134,4.42457,0.0244474,0.0263463,1,1
1164991022,4.42035,4.42035,4.57892,0.0214161,0.023079,1,1
1165091016,4.31659,4.31659,4.4714,0.0207424,0.0223529,1,1
1165491016,4.39578,4.39578,4.5533,0.017498,0.0188565,1,1
1165891027,4.48661,4.48661,4.64741,0.0155892,0.0167993,1,1
1166391016,4.13533,4.13533,4.28371,0.0153227,0.0165121,1,1
1166491016,4.08629,4.08629,4.23302,0.0150409,0.0162085,1,1
1166891016,4.41218,4.41218,4.57044,0.0133243,0.0143587,1,1
1167291020,4.28663,4.28663,4.44034,0.012805,0.0137991,1,1
1167691016,4.03809,4.03809,4.18278,0.0114636,0.0123534,1,1
1167891017,4.00808,4.00808,4.1517,0.0117205,0.0126302,1,1
1168191029,4.19461,4.19461,4.34511,0.0104649,0.011277,1,1
1168691017,4.26339,4.26339,4.41623,0.0120954,0.0130342,1,1
1168791021,4.25728,4.25728,4.40979,0.0115184,0.0124121,1,1
1169091017,4.40049,4.40049,4.55832,0.0125158,0.013487,1,1
1169591081,4.25459,4.25459,4.40716,0.0138446,0.0149187,1,1
1169691053,4.12055,4.12055,4.26851,0.0135408,0.0145914,1,1
1169991139,4.23239,4.23239,4.38418,0.013719,0.0147833,1,1
1170491540,4.53412,4.53412,4.69662,0.0148239,0.0159736,1,1
1170591221,4.42914,4.42914,4.58795,0.0151234,0.0162966,1,1
1170991164,4.25962,4.25962,4.41222,0.0160846,0.0173323,1,1
1171091106,4.30333,4.30333,4.45768,0.0170858,0.018411,1,1
1171391014,4.08306,4.08306,4.22948,0.0170647,0.0183883,1,1
1171891119,4.66439,4.66439,4.83168,0.01688,0.0181893,1,1
1171991037,4.5789,4.5789,4.74331,0.0164803,0.0177585,1,1
1172391019,4.21807,4.21807,4.36934,0.017438,0.0187906,1,1
1172491045,4.05913,4.05913,4.20531,0.0176995,0.0190721,1,1
1172791020,3.7762,3.7762,3.91161,0.0180712,0.0194726,1,1
1173291016,4.62464,4.62464,4.79119,0.0173558,0.0187018,1,1
1173391018,4.41075,4.41075,4.56987,0.0164524,0.0177282,1,1
1173691016,3.88683,3.88683,4.02625,0.0138245,0.0148963,1,1
1173891038,4.10157,4.10157,4.24944,0.0124154,0.0133781,1,1
1174191019,3.8286,3.8286,3.9666,0.0122705,0.0132219,1,1
1174291017,3.90386,3.90386,4.04461,0.0109976,0.0118504,1,1
1174791021,4.09166,4.09166,4.23915,0.0118718,0.0127924,1,1
1175091016,4.12158,4.12158,4.26944,0.0114095,0.012294,1,1
1175591016,4.26066,4.26066,4.41424,0.0127787,0.0137693,1,1
1175691071,4.4311,4.4311,4.59077,0.0128952,0.0138947,1,1
1175991018,4.50122,4.50122,4.66339,0.0134621,0.0145053,1,1
1176491019,4.17697,4.17697,4.32752,0.0133961,0.0144342,1,1
1176591018,4.23066,4.23066,4.38306,0.0136344,0.0146909,1,1
1177391016,4.46085,4.46085,4.62159,0.0139447,0.0150251,1,1
1177891122,4.11809,4.11809,4.26635,0.0131877,0.0142092,1,1
1177991027,4.01786,4.01786,4.16284,0.0123128,0.0132667,1,1
1178291451,4.30281,4.30281,4.45788,0.0127832,0.0137734,1,1
1178791110,4.52217,4.52217,4.68517,0.0132435,0.0142695,1,1
1178891029,4.54662,4.54662,4.71039,0.0127361,0.0137226,1,1
1179291022,4.03235,4.03235,4.17743,0.0124457,0.0134093,1,1
1179691021,4.28398,4.28398,4.4382,0.0130501,0.0140608,1,1
1180191017,4.2772,4.2772,4.43125,0.0134082,0.0144465,1,1
1180291049,4.27636,4.27636,4.43046,0.0129502,0.0139529,1,1
1180591018,4.03003,4.03003,4.1753,0.0137331,0.0147964,1,1
1181091048,3.87105,3.87105,4.01057,0.0135443,0.0145932,1,1
1181191016,3.88495,3.88495,4.02481,0.0136323,0.0146877,1,1
1181491029,4.35533,4.35533,4.51234,0.0131847,0.0142054,1,1
1182091016,4.16153,4.16153,4.31152,0.0132362,0.0142609,1,1
1182491017,4.33736,4.33736,4.49372,0.0110858,0.0119439,1,1
1182591070,4.52543,4.52543,4.68835,0.0116547,0.0125568,1,1
1182891035,4.44209,4.44209,4.60202,0.0106065,0.0114274,1,1
1183091018,4.30053,4.30053,4.45541,0.00991689,0.0106845,1,1
1183391035,4.27464,4.27464,4.42869,0.00880507,0.00948643,1,1
1183891019,4.27771,4.27771,4.43214,0.00612654,0.00660075,1,1
1183991017,4.45046,4.45046,4.61097,0.00578903,0.0062371,1,1
1184291019,4.56416,4.56416,4.72879,0.00731561,0.00788191,1,1
1184791047,4.2332,4.2332,4.38581,0.00995333,0.0107236,1,1
1184891049,4.18361,4.18361,4.33438,0.0103288,0.0111279,1,1
1185191116,4.32484,4.32484,4.48071,0.011849,0.0127657,1,1
1185691021,4.26182,4.26182,4.41537,0.012188,0.0131309,1,1
1186191302,4.44835,4.44835,4.60872,0.010071,0.01085,1,1
1186291035,4.44101,4.44101,4.60101,0.00994005,0.0107089,1,1
1186591061,4.33826,4.33826,4.49447,0.0124975,0.0134639,1,1
1187091103,4.38401,4.38401,4.54196,0.0100401,0.0108165,1,1
1187191020,4.32995,4.32995,4.48605,0.00935624,0.0100798,1,1
1187591027,4.61963,4.61963,4.78606,0.00830623,0.00894854,1,1
1187991060,4.50025,4.50025,4.66216,0.00731604,0.00788158,1,1
1188491020,4.18876,4.18876,4.33996,0.0100357,0.0108116,1,1
1188591016,4.07081,4.07081,4.21753,0.0100039,0.0107772,1,1
1188891018,4.2209,4.2209,4.37303,0.00928971,0.0100078,1,1
1189391016,4.43354,4.43354,4.59336,0.0083758,0.00902314,1,1
1189491025,4.47565,4.47565,4.63709,0.00776737,0.00836775,1,1
1189791048,4.03473,4.03473,4.18013,0.00907597,0.00977732,1,1
1190391039,4.25398,4.25398,4.40735,0.00808105,0.00870553,1,1
1190491016,4.21543,4.21543,4.3674,0.00864665,0.00931467,1,1
1190791017,3.88948,3.88948,4.03039,0.00697164,0.00751042,1,1
1191291015,4.28632,4.28632,4.44081,0.0105555,0.0113711,1,1
1191791016,4.34224,4.34224,4.49871,0.0136386,0.0146922,1,1
1191891019,4.37072,4.37072,4.52826,0.0151465,0.0163166,1,1
1192191050,4.36412,4.36412,4.52168,0.0167345,0.0180274,1,1
1192691017,4.25053,4.25053,4.40436,0.0203593,0.0219319,1,1
1192791221,4.2164,4.2164,4.3691,0.0190903,0.0205648,1,1
1193091710,4.18865,4.18865,4.33963,0.0187211,0.0201671,1,1
1193591263,4.36553,4.36553,4.52292,0.0199108,0.0214483,1,1
1193691280,4.42268,4.42268,4.58214,0.0197254,0.0212488,1,1
1193991119,4.55568,4.55568,4.71999,0.0175577,0.0189139,1,1
1194491045,4.34623,4.34623,4.50312,0.0150093,0.0161682,1,1
1194591031,4.21726,4.21726,4.37003,0.0153355,0.0165195,1,1
1194891023,4.13447,4.13447,4.28338,0.0165026,0.0177766,1,1
1195391018,4.18418,4.18418,4.33562,0.0148899,0.0160393,1,1
1195891021,4.28495,4.28495,4.43962,0.0167426,0.0180351,1,1
1195991081,4.32109,4.32109,4.47757,0.0165194,0.0177942,1,1
1196291020,4.22038,4.22038,4.37306,0.018663,0.0201032,1,1
1196791020,4.67965,4.67965,4.84901,0.0212809,0.0229227,1,1
1196891021,4.62095,4.62095,4.78825,0.0214728,0.0231298,1,1
1197291016,4.52667,4.52667,4.68981,0.0258054,0.0277961,1,1
1197391016,4.45601,4.45601,4.61754,0.0262711,0.0282979,1,1
1197691029,4.4158,4.4158,4.57571,0.0281953,0.0303704,1,1
1198191017,4.26903,4.26903,4.42366,0.0302149,0.0325457,1,1
1198291016,4.21948,4.21948,4.37218,0.03017,0.0324974,1,1
1198591189,4.29442,4.29442,4.4498,0.0293984,0.0316663,1,1
1199091019,4.12731,4.12731,4.27678,0.0298271,0.0321275,1,1
1199191023,4.10585,4.10585,4.25452,0.0295524,0.0318315,1,1
1199491023,4.60213,4.60213,4.76881,0.0284162,0.0306075,1,1
1199991017,4.66706,4.66706,4.83606,0.0281279,0.0302967,1,1
1200091018,4.6585,4.6585,4.82701,0.0288537,0.0310784,1,1
1200491103,4.01756,4.01756,4.16322,0.0274708,0.0295889,1,1
1200591050,4.15796,4.15796,4.30843,0.02826,0.0304391,1,1
1200891435,4.20874,4.20874,4.36116,0.024932,0.0268539,1,1
1201391189,4.22681,4.22681,4.37972,0.0240217,0.0258734,1,1
1201491032,4.33983,4.33983,4.49701,0.0250619,0.0269937,1,1
1201791018,4.42907,4.42907,4.58947,0.0237064,0.0255337,1,1
1202291084,4.51522,4.51522,4.67856,0.02365,0.0254729,1,1
1202791066,4.41138,4.41138,4.57122,0.0222838,0.0240014,1,1
1202891018,4.36566,4.36566,4.52375,0.0219257,0.023615,1,1
1203191019,4.16282,4.16282,4.31359,0.0191823,0.0206605,1,1
1203691017,4.42683,4.42683,4.58725,0.0163878,0.0176506,1,1
1203791031,4.41455,4.41455,4.57434,0.0177096,0.0190744,1,1
1205091023,4.3534,4.3534,4.51114,0.0188717,0.0203261,1,1
1205591019,4.56626,4.56626,4.73182,0.0347106,0.0373853,1,1
1205691016,4.56985,4.56985,4.73572,0.0378985,0.0408187,1,1
1205991043,4.36381,4.36381,4.52192,0.0497731,0.0536084,1,1
1206491048,4.24981,4.24981,4.40417,0.068977,0.0742923,1,1
1206591017,4.28018,4.28018,4.4355,0.059219,0.0637823,1,1
1206891019,4.43614,4.43614,4.597,0.064603,0.0695821,1,1
1207391021,4.40737,4.40737,4.56742,0.0947703,0.102074,1,1
1207491035,4.36334,4.36334,4.52194,0.117702,0.126775,1,1
1207791016,4.42001,4.42001,4.58049,0.127908,0.137766,1,1
1207991019,4.65965,4.65965,4.8288,0.139953,0.150742,1,1
1208291072,4.70581,4.70581,4.87684,0.1847,0.198941,1,1
1208791468,4.56316,4.56316,4.72977,0.235206,0.253334,1,1
1208891361,4.43,4.43,4.59087,0.243156,0.261893,1,1
1209191161,4.64023,4.64023,4.8088,0.273927,0.295039,1,1
1209691222,4.16084,4.16084,4.31189,0.341203,0.367495,1,1
1209791036,4.23587,4.23587,4.38975,0.355197,0.382568,1,1
1210091062,4.45126,4.45126,4.61277,0.396088,0.426604,1,1
1210591019,4.42241,4.42241,4.5831,0.470701,0.506959,1,1
1211091019,4.78305,4.78305,4.95678,0.563787,0.607208,1,1
1211191016,4.88829,4.88829,5.06585,0.580282,0.624975,1,1
1211491016,4.65696,4.65696,4.82617,0.627757,0.676113,1,1
1211891016,4.13633,4.13633,4.28651,0.701763,0.755802,1,1
1212091028,4.23882,4.23882,4.39358,0.741955,0.79909,1,1
1212391020,4.52117,4.52117,4.68545,0.803972,0.865867,1,1
1212891018,4.44223,4.44223,4.60422,0.899218,0.968445,1,1
1212991019,4.3468,4.3468,4.50539,0.915155,0.985589,1,1
1213291016,4.3262,4.3262,4.48389,0.97054,1.04523,1,1
1213791134,4.25654,4.25654,4.41072,1.00171,1.07871,1,1
1214291018,4.59687,4.59687,4.76329,0.781998,0.842095,1,1
1214391018,4.53845,4.53845,4.70284,0.73082,0.786976,1,1
1214691016,4.69367,4.69367,4.86381,0.575864,0.620106,1,1
1215291017,4.24424,4.24424,4.39777,0.266557,0.287029,1,1
1215391071,4.3747,4.3747,4.53384,0.219752,0.236628,1,1
1215691111,4.23812,4.23812,4.39228,0.0772698,0.0832031,1,1
1215791072,4.20446,4.20446,4.35743,0.035335,0.0380489,1,1
1216191547,4.18467,4.18467,4.33708,0.134941,0.145303,1,1
1216291424,4.1617,4.1617,4.31313,0.172756,0.186021,1,1
1216591265,4.30194,4.30194,4.45759,0.27842,0.299798,1,1
1217091018,4.46768,4.46768,4.63009,0.427696,0.460529,1,1
1217191018,4.38337,4.38337,4.54267,0.4536,0.488423,1,1
1217491020,4.1536,4.1536,4.30466,0.519299,0.559157,1,1
1217991018,4.10142,4.10142,4.25067,0.606135,0.652664,1,1
1218091016,4.18099,4.18099,4.33225,0.619109,0.66662,1,1
1218391020,4.33462,4.33462,4.49246,0.65329,0.703424,1,1
1218891016,4.47677,4.47677,4.63954,0.687595,0.740351,1,1
1219391021,4.57283,4.57283,4.73856,0.698822,0.752431,1,1
1219491134,4.46794,4.46794,4.63066,0.699509,0.753179,1,1
1219791021,4.29862,4.29862,4.45486,0.693947,0.747177,1,1
1220291018,4.41027,4.41027,4.57069,0.672418,0.723994,1,1
1220391019,4.60175,4.60175,4.7691,0.66647,0.717585,1,1
1220691020,4.4315,4.4315,4.59272,0.646102,0.695656,1,1
1221191023,4.52973,4.52973,4.69458,0.601805,0.647951,1,1
1221291016,4.21501,4.21501,4.36838,0.591921,0.637295,1,1
1221591024,4.10486,4.10486,4.25427,0.558586,0.60141,1,1
1222091028,4.20932,4.20932,4.36267,0.502862,0.541407,1,1
1222191016,4.22837,4.22837,4.38166,0.491108,0.528745,1,1
1222491016,4.13745,4.13745,4.28786,0.452219,0.486876,1,1
1222991035,4.31252,4.31252,4.46945,0.386026,0.415602,1,1
1223191016,4.12865,4.12865,4.27889,0.358791,0.386274,1,1
1223491061,4.31576,4.31576,4.47284,0.316717,0.340977,1,1
1223991078,4.41109,4.41109,4.57154,0.248078,0.267078,1,1
1224091018,4.41016,4.41016,4.57056,0.234161,0.252093,1,1
1224391018,4.46511,4.46511,4.62759,0.193274,0.208072,1,1
1224591038,4.25708,4.25708,4.41194,0.163202,0.175697,1,1
1224891065,4.06321,4.06321,4.21091,0.122485,0.131864,1,1
1225391053,4.32968,4.32968,4.48716,0.0556352,0.059894,1,1
1225491019,4.28188,4.28188,4.43755,0.0433676,0.0466873,1,1
1225791020,4.28494,4.28494,4.44076,0.0323986,0.0348777,1,1
1226291018,4.25586,4.25586,4.41074,0.0847849,0.0912741,1,1
1226391036,4.3072,4.3072,4.46379,0.0980057,0.105505,1,1
1226691060,4.32049,4.32049,4.47771,0.137222,0.147723,1,1
1227191060,4.26117,4.26117,4.41624,0.202326,0.217806,1,1
1227591016,4.38982,4.38982,4.54937,0.251724,0.270982,1,1
1228091019,4.11769,4.11769,4.2675,0.308911,0.332538,1,1
1228491017,4.44886,4.44886,4.61059,0.352477,0.379432,1,1
1228691019,4.34897,4.34897,4.5074,0.373438,0.401998,1,1
1228991105,4.26111,4.26111,4.41615,0.406355,0.43743,1,1
1229491017,4.3484,4.3484,4.50677,0.455873,0.490729,1,1
1229591049,4.23122,4.23122,4.38541,0.465224,0.500796,1,1
1229891016,4.18296,4.18296,4.33502,0.490878,0.528407,1,1
1230391017,4.19391,4.19391,4.3465,0.531445,0.572067,1,1
1230491074,4.18413,4.18413,4.33635,0.539277,0.580495,1,1
1230791096,4.13673,4.13673,4.28724,0.560758,0.603617,1,1
1230991057,4.07136,4.07136,4.21945,0.57023,0.613805,1,1
1231291027,4.23318,4.23318,4.38724,0.589719,0.634785,1,1
1231491017,4.43497,4.43497,4.5964,0.598139,0.643846,1,1
1231791018,4.42829,4.42829,4.58949,0.614057,0.660971,1,1
1232291016,4.18219,4.18219,4.33439,0.63447,0.68294,1,1
1232391022,4.25468,4.25468,4.40934,0.638589,0.68737,1,1
1232691066,4.22942,4.22942,4.38328,0.646299,0.695655,1,1
1233191021,4.31583,4.31583,4.47275,0.657143,0.707321,1,1
1233291020,4.53344,4.53344,4.69836,0.657493,0.707696,1,1
1233591019,4.55012,4.55012,4.7157,0.663425,0.714082,1,1
1233791103,4.28131,4.28131,4.43711,0.664626,0.715364,1,1
1234091019,4.37917,4.37917,4.53849,0.665499,0.716304,1,1
1234291022,4.40729,4.40729,4.56772,0.665794,0.716625,1,1
1234591044,4.21993,4.21993,4.37347,0.666096,0.716936,1,1
1234691016,4.14175,4.14175,4.29239,0.666711,0.717595,1,1
1235091019,4.54431,4.54431,4.70968,0.662895,0.713493,1,1
1235191024,4.45448,4.45448,4.61642,0.663182,0.713799,1,1
1235491017,4.34021,4.34021,4.49834,0.660751,0.711172,1,1
1235991016,4.16948,4.16948,4.32102,0.649665,0.699225,1,1
1236091049,4.26617,4.26617,4.42124,0.64671,0.696046,1,1
1236391173,4.47889,4.47889,4.64244,0.638326,0.687019,1,1
1236891016,4.44059,4.44059,4.60217,0.623621,0.671189,1,1
1236991019,4.49797,4.49797,4.66241,0.620931,0.668297,1,1
1237391017,4.40934,4.40934,4.56965,0.60633,0.652569,1,1
1237491018,4.34677,4.34677,4.50515,0.602505,0.64846,1,1
1237791067,4.1095,4.1095,4.25901,0.593977,0.63927,1,1
1238291127,4.37882,4.37882,4.53816,0.575533,0.619413,1,1
1238391079,4.43668,4.43668,4.59901,0.572015,0.615626,1,1
1238691610,4.18327,4.18327,4.33619,0.556483,0.598908,1,1
1238891345,4.36025,4.36025,4.51893,0.550368,0.59232,1,1
1239191166,4.41027,4.41027,4.57077,0.538992,0.580079,1,1
1239691019,4.1944,4.1944,4.34773,0.517998,0.557475,1,1
1239791044,4.08535,4.08535,4.23471,0.513928,0.553091,1,1
1240091087,3.92115,3.92115,4.06434,0.50079,0.538954,1,1
1240591018,4.06753,4.06753,4.21558,0.48156,0.518255,1,1
1241091049,4.77016,4.77016,4.94457,0.461546,0.496706,1,1
1241191021,4.78405,4.78405,4.95876,0.45799,0.492881,1,1
1241491019,4.32515,4.32515,4.48269,0.448553,0.482724,1,1
1241991065,4.42586,4.42586,4.58753,0.431004,0.463832,1,1
1242091018,4.42234,4.42234,4.58391,0.426487,0.458973,1,1
1242391032,4.14628,4.14628,4.29766,0.415956,0.447628,1,1
1242891017,4.33902,4.33902,4.49674,0.394825,0.424889,1,1
1242991017,4.41952,4.41952,4.58015,0.393012,0.422941,1,1
1243291018,4.57591,4.57591,4.74324,0.3807,0.409691,1,1
1243791120,4.51686,4.51686,4.68217,0.365457,0.393281,1,1
1244291021,4.24627,4.24627,4.40158,0.35461,0.381602,1,1
1244891017,4.31946,4.31946,4.47727,0.341567,0.367559,1,1
1245191018,4.46746,4.46746,4.63099,0.333296,0.358658,1,1
1245691167,4.27485,4.27485,4.43098,0.321817,0.346303,1,1
1245791055,4.2472,4.2472,4.40172,0.319943,0.344281,1,1
1246091449,4.41645,4.41645,4.5781,0.311439,0.335128,1,1
1246591503,4.28795,4.28795,4.44453,0.29807,0.320738,1,1
1246691052,4.30898,4.30898,4.46655,0.294702,0.317119,1,1
1247091020,4.38133,4.38133,4.54065,0.284076,0.305683,1,1
1247191018,4.32402,4.32402,4.48199,0.282477,0.30396,1,1
1247491131,4.38215,4.38215,4.54141,0.274208,0.295058,1,1
1247991019,4.72371,4.72371,4.89639,0.263194,0.283207,1,1
1248491016,4.35328,4.35328,4.5125,0.254161,0.273487,1,1
1249091019,4.20766,4.20766,4.36156,0.246531,0.265273,1,1
1249391092,4.44623,4.44623,4.60887,0.244677,0.26328,1,1
1250791017,4.33054,4.33054,4.48886,0.22356,0.240543,1,1
1251291027,4.46035,4.46035,4.62276,0.21301,0.229191,1,1
1251391020,4.5575,4.5575,4.72413,0.210857,0.226873,1,1
1251691021,4.21378,4.21378,4.36794,0.206658,0.22236,1,1
1252191016,4.57887,4.57887,4.74629,0.200187,0.21539,1,1
1252591016,4.33651,4.33651,4.49498,0.196297,0.211204,1,1
1252791016,4.57873,4.57873,4.74616,0.192172,0.206764,1,1
1253091017,4.34936,4.34936,4.50828,0.18994,0.204363,1,1
1253191017,4.32291,4.32291,4.48098,0.18928,0.203652,1,1
1253491089,4.45932,4.45932,4.62247,0.186227,0.200369,1,1
1253691647,4.35017,4.35017,4.50918,0.18507,0.199119,1,1
1253991451,4.32951,4.32951,4.48768,0.181916,0.195725,1,1
1254491069,4.53243,4.53243,4.69806,0.178667,0.192229,1,1
1254591043,4.51177,4.51177,4.6766,0.177614,0.191091,1,1
1254891028,4.31031,4.31031,4.46793,0.174046,0.187253,1,1
1255391018,4.42538,4.42538,4.58711,0.169702,0.18258,1,1
1255891028,4.34505,4.34505,4.50395,0.166695,0.179343,1,1
1256291020,4.32006,4.32006,4.47803,0.165123,0.17765,1,1
1256491045,4.55679,4.55679,4.72366,0.163561,0.175972,1,1
1256791070,4.57151,4.57151,4.73856,0.163022,0.175389,1,1
1257291018,4.57997,4.57997,4.74766,0.16177,0.174042,1,1
1257691016,4.2774,4.2774,4.43385,0.16212,0.174415,1,1
1257891016,4.17125,4.17125,4.32398,0.163413,0.175807,1,1
1258191041,4.13586,4.13586,4.28716,0.163662,0.176073,1,1
1258691019,4.54705,4.54705,4.71338,0.166171,0.178772,1,1
1258791017,4.44649,4.44649,4.6091,0.165801,0.17837,1,1
1259091016,4.45138,4.45138,4.61423,0.169106,0.181926,1,1
1259591020,4.62926,4.62926,4.79872,0.169419,0.18226,1,1
1259691019,4.63866,4.63866,4.80832,0.168287,0.181046,1,1
1259991018,4.48733,4.48733,4.65142,0.167235,0.17991,1,1
1260491017,4.44092,4.44092,4.60329,0.167894,0.180618,1,1
1260991106,4.39105,4.39105,4.55162,0.165152,0.177665,1,1
1261091049,4.37534,4.37534,4.53527,0.162325,0.174624,1,1
1261391439,4.66581,4.66581,4.83646,0.160621,0.172792,1,1
1261891157,4.38971,4.38971,4.55005,0.159116,0.17117,1,1
1261991050,4.34876,4.34876,4.50753,0.158012,0.169983,1,1
1262291019,4.30345,4.30345,4.46065,0.156391,0.168238,1,1
1262791069,4.66504,4.66504,4.83561,0.15383,0.165479,1,1
1263191020,4.51495,4.51495,4.68008,0.153822,0.165469,1,1
1263391075,4.28685,4.28685,4.44355,0.152755,0.16432,1,1
1263691020,4.49588,4.49588,4.66031,0.149588,0.160916,1,1
1264191018,5.0422,5.0422,5.22656,0.147211,0.158355,1,1
1264691055,4.51563,4.51563,4.6806,0.143413,0.154267,1,1
1265191019,4.42116,4.42116,4.58276,0.138486,0.148966,1,1
1265291018,4.40484,4.40484,4.56575,0.138477,0.148956,1,1
1265591020,4.41782,4.41782,4.57924,0.137197,0.147581,1,1
1266091036,4.68573,4.68573,4.85704,0.136266,0.146575,1,1
1266191022,4.71056,4.71056,4.88291,0.135924,0.146207,1,1
1266591114,4.32624,4.32624,4.48446,0.134495,0.144672,1,1
1266691090,4.47802,4.47802,4.64167,0.135407,0.145651,1,1
1266991021,4.77133,4.77133,4.94576,0.132813,0.14286,1,1
1267491017,4.84613,4.84613,5.02342,0.133877,0.144003,1,1
1267591018,4.98105,4.98105,5.16317,0.13383,0.143951,1,1
1267891016,4.79759,4.79759,4.97304,0.13098,0.140888,1,1
1268391109,4.82371,4.82371,5.00024,0.134011,0.144144,1,1
1268491096,4.83356,4.83356,5.01038,0.13238,0.142392,1,1
1268791716,4.63806,4.63806,4.80751,0.133258,0.143333,1,1
1269291203,4.89932,4.89932,5.07847,0.133551,0.14365,1,1
1269391283,4.86797,4.86797,5.04585,0.134614,0.144791,1,1
1269691057,5.05502,5.05502,5.23984,0.134752,0.144938,1,1
1270191020,4.54894,4.54894,4.71533,0.136706,0.147039,1,1
1270691046,4.69886,4.69886,4.87086,0.142119,0.152861,1,1
1270791018,4.66995,4.66995,4.84057,0.140197,0.150794,1,1
1271091020,4.7716,4.7716,4.94607,0.145354,0.156339,1,1
1271591018,4.71464,4.71464,4.88709,0.149505,0.160805,1,1
1271691016,4.70502,4.70502,4.87712,0.149376,0.160667,1,1
1272091106,4.72619,4.72619,4.89896,0.153388,0.16498,1,1
1272191021,4.6024,4.6024,4.77072,0.15353,0.16513,1,1
1272491019,4.85031,4.85031,5.02782,0.155929,0.167709,1,1
1272991018,4.92732,4.92732,5.10774,0.159304,0.171339,1,1
1273491028,4.78215,4.78215,4.95702,0.161376,0.173564,1,1
1273591031,4.63191,4.63191,4.80129,0.162227,0.174483,1,1
1273891017,4.93519,4.93519,5.11579,0.16081,0.172957,1,1
1274391051,4.89265,4.89265,5.07162,0.162333,0.174594,1,1
1274491019,4.91818,4.91818,5.098,0.1637,0.176061,1,1
1274791017,4.50772,4.50772,4.67236,0.164539,0.176962,1,1
1275291027,4.61547,4.61547,4.78433,0.164069,0.176458,1,1
1275391018,4.69039,4.69039,4.8618,0.163494,0.175839,1,1
1275691023,5.05848,5.05848,5.24356,0.163226,0.17555,1,1
1276191495,4.75278,4.75278,4.92659,0.162323,0.174573,1,1
1276791069,4.94782,4.94782,5.12874,0.156957,0.168802,1,1
1277091016,5.0397,5.0397,5.22394,0.154123,0.165755,1,1
1277591096,5.016,5.016,5.19942,0.152475,0.163978,1,1
1277991018,4.90925,4.90925,5.08873,0.149733,0.16103,1,1
1278191019,4.81916,4.81916,4.99564,0.14949,0.160768,1,1
1278491039,5.16699,5.16699,5.35575,0.149078,0.160324,1,1
1278991019,4.76909,4.76909,4.94346,0.149177,0.16043,1,1
1279091017,4.88636,4.88636,5.06495,0.14792,0.159078,1,1
1279391020,5.072,5.072,5.25748,0.147348,0.158461,1,1
1279591017,4.97048,4.97048,5.15228,0.148067,0.159235,1,1
1279891065,5.11544,5.11544,5.30257,0.148485,0.159685,1,1
1280391020,4.95022,4.95022,5.13137,0.149083,0.160326,1,1
1280491019,5.04862,5.04862,5.23353,0.151445,0.162866,1,1
1280791018,4.83627,4.83627,5.01321,0.151003,0.162388,1,1
1281291120,4.93843,4.93843,5.11909,0.151774,0.163218,1,1
1281391087,4.97581,4.97581,5.15776,0.152577,0.164079,1,1
1281691023,4.92451,4.92451,5.10465,0.152868,0.164392,1,1
1282191019,4.74544,4.74544,4.91888,0.155232,0.166932,1,1
1282291019,4.82394,4.82394,5.00032,0.154757,0.166421,1,1
1282591115,4.8699,4.8699,5.04802,0.155238,0.166939,1,1
1282791018,4.87431,4.87431,5.05256,0.154733,0.166394,1,1
1283091018,4.80477,4.80477,4.98049,0.153347,0.164903,1,1
1283491512,5.03121,5.03121,5.21516,0.14835,0.159527,1,1
1283691596,4.87603,4.87603,5.05439,0.147674,0.158801,1,1
1283991285,4.83871,4.83871,5.01559,0.144958,0.155877,1,1
1284491018,5.23601,5.23601,5.4274,0.143809,0.154642,1,1
1284591020,5.27025,5.27025,5.46285,0.144701,0.1556,1,1
1284891114,5.33378,5.33378,5.52915,0.142433,0.153164,1,1
1285391021,4.79041,4.79041,4.96567,0.143946,0.154791,1,1
1285491032,4.76286,4.76286,4.93792,0.146058,0.157061,1,1
1285791019,4.83741,4.83741,5.01422,0.148074,0.15923,1,1
1286291019,5.15541,5.15541,5.34395,0.158225,0.170146,1,1
1286391025,5.24624,5.24624,5.43849,0.164072,0.176435,1,1
1286691155,5.15629,5.15629,5.34485,0.174292,0.187421,1,1
1286891019,4.90352,4.90352,5.08297,0.174094,0.187207,1,1
1287191043,5.02916,5.02916,5.21337,0.188285,0.202467,1,1
1287691020,5.16921,5.16921,5.35854,0.214483,0.230642,1,1
1287791058,5.1162,5.1162,5.30364,0.217718,0.234119,1,1
1288091057,5.02779,5.02779,5.21183,0.228951,0.246203,1,1
1288291046,5.06406,5.06406,5.2496,0.249688,0.268493,1,1
1288591057,5.16924,5.16924,5.3598,0.266786,0.286887,1,1
1288991019,5.1628,5.1628,5.35188,0.313502,0.337121,1,1
1289191094,5.13788,5.13788,5.32612,0.344804,0.370782,1,1
1289491017,5.01553,5.01553,5.19944,0.379871,0.408495,1,1
1289991020,5.10373,5.10373,5.29085,0.433766,0.466444,1,1
1290091050,5.13831,5.13831,5.32666,0.438066,0.471066,1,1
1290391168,5.34555,5.34555,5.54248,0.490873,0.527844,1,1
1290891436,5.3146,5.3146,5.5095,0.560537,0.602756,1,1
1291491195,5.22404,5.22404,5.41567,0.646022,0.694674,1,1
1291791019,5.25451,5.25451,5.4471,0.697103,0.749596,1,1
1292291034,5.07738,5.07738,5.26369,0.769868,0.827852,1,1
1292391036,4.99778,4.99778,5.18211,0.792059,0.851686,1,1
1292691017,5.0349,5.0349,5.22044,0.848642,0.912547,1,1
1293191021,5.34837,5.34837,5.54554,0.92498,0.994616,1,1
1293291016,5.28685,5.28685,5.48076,0.958456,1.03062,1,1
1293591021,4.93226,4.93226,5.11326,0.998653,1.07383,1,1
1293791050,5.03672,5.03672,5.22252,1.03159,1.10926,1,1
1295191017,4.96445,4.96445,5.14672,0.784631,0.843589,1,1
1295491016,4.97078,4.97078,5.15249,0.64642,0.694992,1,1
1295991016,4.77828,4.77828,4.95375,0.434572,0.467224,1,1
1296091019,4.76194,4.76194,4.93708,0.392458,0.421937,1,1
1296391157,4.92287,4.92287,5.10379,0.273754,0.29432,1,1
1296891019,4.92269,4.92269,5.10356,0.099188,0.106637,1,1
1296991017,4.96746,4.96746,5.14913,0.0688055,0.0739725,1,1
1297291017,5.00381,5.00381,5.18766,0.0415075,0.0446241,1,1
1297791112,5.14255,5.14255,5.33056,0.162861,0.175087,1,1
1298291065,5.14382,5.14382,5.33175,0.273491,0.29402,1,1
1298391038,5.01269,5.01269,5.19625,0.292117,0.314049,1,1
1298691320,4.99139,4.99139,5.17491,0.341397,0.367027,1,1
1298891243,4.70079,4.70079,4.8727,0.370693,0.398512,1,1
1299191099,4.96648,4.96648,5.14905,0.405014,0.435417,1,1
1299691062,4.99178,4.99178,5.17516,0.445531,0.478961,1,1
1299791053,5.06594,5.06594,5.25128,0.451233,0.485095,1,1
1300091020,4.8277,4.8277,5.00505,0.463881,0.49868,1,1
1300291018,4.74994,4.74994,4.92426,0.468301,0.503444,1,1
1300591017,4.79554,4.79554,4.97171,0.473665,0.509201,1,1
1301091028,4.94918,4.94918,5.13006,0.471077,0.506416,1,1
1301191042,4.99449,4.99449,5.17704,0.468642,0.503794,1,1
1301491119,5.25392,5.25392,5.44612,0.460093,0.494607,1,1
1302091018,5.1075,5.1075,5.29523,0.430808,0.463115,1,1
1302391049,4.93045,4.93045,5.11059,0.410278,0.441044,1,1
1302891020,4.85323,4.85323,5.03145,0.376483,0.404712,1,1
1302991072,4.79348,4.79348,4.96953,0.368406,0.396027,1,1
1303291066,4.80188,4.80188,4.97836,0.345271,0.371157,1,1
1303791018,4.9141,4.9141,5.09465,0.300974,0.323537,1,1
1303891039,4.96236,4.96236,5.14453,0.292286,0.314195,1,1
1304191019,4.95462,4.95462,5.13649,0.264443,0.284258,1,1
1304691019,5.29693,5.29693,5.49052,0.218519,0.234892,1,1
1305191049,4.796,4.796,4.97229,0.172223,0.185128,1,1
1305291018,4.75798,4.75798,4.93283,0.164584,0.176916,1,1
1305591070,4.80685,4.80685,4.98349,0.138256,0.148613,1,1
1305991024,4.66275,4.66275,4.83334,0.102232,0.109891,1,1
1306191016,4.82531,4.82531,5.00196,0.0833565,0.0896019,1,1
1306491020,4.93297,4.93297,5.11445,0.0582144,0.0625747,1,1
1306991045,5.23081,5.23081,5.42308,0.0357919,0.0384721,1,1
1307091039,5.10147,5.10147,5.2889,0.0377723,0.0406001,1,1
1307391018,4.75001,4.75001,4.924,0.0513467,0.0551918,1,1
1307591028,4.83438,4.83438,5.01182,0.0638738,0.0686562,1,1
1307891021,5.25334,5.25334,5.44622,0.0854885,0.0918892,1,1
1308391057,5.30839,5.30839,5.50327,0.12153,0.130626,1,1
1308491019,5.2952,5.2952,5.48902,0.127841,0.137412,1,1
1308791016,4.88916,4.88916,5.06879,0.149017,0.160169,1,1
1308991018,4.82639,4.82639,5.00376,0.164674,0.176998,1,1
1309291019,5.03921,5.03921,5.22444,0.183464,0.197194,1,1
1309491040,5.08957,5.08957,5.27584,0.197526,0.212306,1,1
1309791016,5.222,5.222,5.41386,0.215187,0.231288,1,1
1309991016,5.1098,5.1098,5.2976,0.226651,0.243611,1,1
1310391017,4.91281,4.91281,5.09348,0.252034,0.270886,1,1
1310891018,4.93545,4.93545,5.11679,0.277205,0.29794,1,1
1311391018,4.71923,4.71923,4.89259,0.299995,0.322428,1,1
1311591016,4.79488,4.79488,4.97104,0.307249,0.330227,1,1
1311891019,4.9157,4.9157,5.0964,0.322078,0.346167,1,1
1312091017,5.06189,5.06189,5.24783,0.328156,0.352693,1,1
1312491018,4.90158,4.90158,5.0819,0.345615,0.371452,1,1
1312991490,4.99661,4.99661,5.18013,0.361694,0.388735,1,1
1313191326,4.93024,4.93024,5.11131,0.370246,0.397929,1,1
1313691039,4.8261,4.8261,5.00275,0.385082,0.413866,1,1
1314091072,5.09768,5.09768,5.28497,0.397051,0.426721,1,1
1314591059,5.22181,5.22181,5.41379,0.405143,0.435424,1,1
1315091019,5.28357,5.28357,5.47681,0.413563,0.444471,1,1
1315291019,5.15802,5.15802,5.34763,0.416526,0.447645,1,1
1315791018,4.83505,4.83505,5.01274,0.420917,0.452364,1,1
1316091019,5.13756,5.13756,5.32635,0.420566,0.451982,1,1
1316691018,5.01106,5.01106,5.19521,0.420446,0.45184,1,1
1317191018,4.69369,4.69369,4.86605,0.419678,0.451019,1,1
1317391018,4.81894,4.81894,4.99586,0.418839,0.45011,1,1
1317891045,4.74045,4.74045,4.91489,0.414574,0.445529,1,1
1318291018,4.89975,4.89975,5.07973,0.408279,0.438761,1,1
1318791016,5.19083,5.19083,5.38142,0.402181,0.432203,1,1
1319291017,4.94373,4.94373,5.12544,0.394058,0.423468,1,1
1319491019,4.96424,4.96424,5.14584,0.391716,0.420948,1,1
1319791020,4.92226,4.92226,5.10314,0.384386,0.413069,1,1
1320391326,5.29514,5.29514,5.48974,0.373812,0.401708,1,1
1320891053,5.3599,5.3599,5.55693,0.366792,0.394153,1,1
1321091018,5.1802,5.1802,5.37062,0.364675,0.391879,1,1
1321391019,5.16625,5.16625,5.35622,0.361246,0.388198,1,1
1321591032,5.12151,5.12151,5.30964,0.357883,0.384583,1,1
1321991018,4.91957,4.91957,5.10039,0.352891,0.379212,1,1
1322491019,4.8607,4.8607,5.03862,0.346898,0.372764,1,1
1322991033,5.38746,5.38746,5.58546,0.339597,0.364917,1,1
1323191125,5.23255,5.23255,5.42463,0.335526,0.360542,1,1
1323491020,5.09539,5.09539,5.28265,0.330052,0.354661,1,1
1323691017,5.1567,5.1567,5.34631,0.324203,0.348373,1,1
1324091019,5.11236,5.11236,5.29941,0.320202,0.34407,1,1
1324191020,5.12261,5.12261,5.31089,0.317048,0.34068,1,1
1324591017,4.66843,4.66843,4.84022,0.312149,0.335412,1,1
1325091048,5.19926,5.19926,5.39034,0.307499,0.330417,1,1
1325291020,5.02118,5.02118,5.20571,0.305898,0.328693,1,1
1325691018,4.77705,4.77705,4.95269,0.302559,0.325108,1,1
1326191018,4.82945,4.82945,5.00614,0.297026,0.319157,1,1
1326691017,4.85445,4.85445,5.03316,0.290603,0.312254,1,1
1327291434,4.96671,4.96671,5.14945,0.288247,0.309729,1,1
1327491366,4.97534,4.97534,5.15773,0.286789,0.308154,1,1
1327891019,5.1131,5.1131,5.30113,0.285057,0.306293,1,1
1328391018,4.81719,4.81719,4.99454,0.283572,0.304695,1,1
1328591122,4.7041,4.7041,4.87711,0.283301,0.304407,1,1
1328991020,5.08973,5.08973,5.27716,0.28059,0.301491,1,1
1329491018,4.92272,4.92272,5.10379,0.279528,0.300346,1,1
1329691016,4.97026,4.97026,5.15213,0.278643,0.299396,1,1
1330591018,5.30511,5.30511,5.50038,0.273433,0.29379,1,1
1330791021,5.11667,5.11667,5.30483,0.272282,0.292555,1,1
1331691017,5.01297,5.01297,5.19633,0.2661,0.285908,1,1
1331891016,5.14913,5.14913,5.33845,0.263133,0.282716,1,1
1332191016,4.98593,4.98593,5.1691,0.261819,0.281306,1,1
1332391062,4.85261,4.85261,5.03107,0.260256,0.279623,1,1
1332791018,4.85218,4.85218,5.03074,0.256291,0.275358,1,1
1333291016,5.16309,5.16309,5.35283,0.248868,0.267382,1,1
1333491019,5.16857,5.16857,5.35875,0.248394,0.26687,1,1
1333891024,5.38266,5.38266,5.58062,0.243009,0.261088,1,1
1334091114,5.07424,5.07424,5.26075,0.242447,0.260482,1,1
1334391735,4.79885,4.79885,4.97541,0.243519,0.261628,1,1
1334691430,4.98996,4.98996,5.17348,0.239372,0.257175,1,1
1334991275,4.7993,4.7993,4.97551,0.234576,0.252018,1,1
1335191158,5.03119,5.03119,5.21618,0.236467,0.254056,1,1
1335591021,5.00209,5.00209,5.18598,0.234587,0.25203,1,1
1335791019,4.95486,4.95486,5.13682,0.232723,0.250027,1,1
1336091114,4.94695,4.94695,5.12875,0.233377,0.250724,1,1
1336691019,5.03698,5.03698,5.22212,0.227631,0.24455,1,1
1337191018,4.87299,4.87299,5.05206,0.224827,0.241536,1,1
1337391070,4.91211,4.91211,5.09247,0.220979,0.237404,1,1
1338291041,4.7754,4.7754,4.9507,0.217574,0.233741,1,1
1338491018,4.88978,4.88978,5.06882,0.216256,0.232324,1,1
1339391020,5.02962,5.02962,5.21447,0.212406,0.228185,1,1
1339591099,4.86562,4.86562,5.04447,0.211197,0.226882,1,1
1339891019,4.72867,4.72867,4.90223,0.210516,0.226151,1,1
1340091020,4.7984,4.7984,4.97471,0.208907,0.224425,1,1
1340491016,4.98679,4.98679,5.16998,0.212439,0.228212,1,1
1340691017,4.92863,4.92863,5.10972,0.211902,0.227639,1,1
1340991030,4.87972,4.87972,5.05918,0.211095,0.226769,1,1
1341191112,4.86228,4.86228,5.04108,0.210681,0.226328,1,1
1341591493,5.10999,5.10999,5.29775,0.212022,0.227761,1,1
1342091276,4.94752,4.94752,5.12922,0.212632,0.228418,1,1
1342691018,4.89338,4.89338,5.07305,0.214446,0.230364,1,1
1342891017,4.88639,4.88639,5.066,0.216305,0.232361,1,1
1343191018,4.97215,4.97215,5.15487,0.217532,0.233678,1,1
1343791021,4.8712,4.8712,5.05036,0.220604,0.236977,1,1
1344291050,4.89152,4.89152,5.07113,0.225173,0.241884,1,1
1345791018,4.89564,4.89564,5.07546,0.241759,0.259697,1,1
1345991019,4.99369,4.99369,5.17734,0.241755,0.259692,1,1
1346391019,4.8145,4.8145,4.99151,0.245395,0.263597,1,1
1346891019,5.0525,5.0525,5.23718,0.245749,0.263971,1,1
1347091016,5.06191,5.06191,5.24796,0.243957,0.262052,1,1
1347491016,4.94624,4.94624,5.12815,0.245838,0.264069,1,1
1347991016,5.03746,5.03746,5.22263,0.244453,0.262577,1,1
1348191018,4.97627,4.97627,5.1592,0.242796,0.260798,1,1
1349091417,5.15647,5.15647,5.34582,0.236875,0.254434,1,1
1349291072,5.01421,5.01421,5.19871,0.234358,0.251732,1,1
1349591047,4.88876,4.88876,5.06848,0.23657,0.254105,1,1
1349791017,4.98105,4.98105,5.16402,0.235012,0.252429,1,1
1350191072,4.77075,4.77075,4.94594,0.236033,0.253526,1,1
1350691020,5.11419,5.11419,5.30207,0.235373,0.252814,1,1
1351291021,4.89377,4.89377,5.07354,0.236313,0.253824,1,1
1351491047,4.97452,4.97452,5.15739,0.235694,0.25316,1,1
1351791020,5.16636,5.16636,5.35625,0.238512,0.256182,1,1
1352391021,4.91051,4.91051,5.09112,0.24108,0.25894,1,1
1352591020,4.9497,4.9497,5.13175,0.240139,0.257928,1,1
1352891054,5.162,5.162,5.35199,0.243966,0.262039,1,1
1353491016,4.97373,4.97373,5.15682,0.245068,0.263218,1,1
1353691084,5.01878,5.01878,5.2035,0.24478,0.262909,1,1
1353991020,4.92882,4.92882,5.10978,0.248242,0.266625,1,1
1354191016,4.75415,4.75415,4.92898,0.245381,0.263554,1,1
1354591021,4.9977,4.9977,5.18139,0.247524,0.265854,1,1
1355091016,4.78256,4.78256,4.95821,0.24627,0.264502,1,1
1355291020,5.03948,5.03948,5.22475,0.243537,0.261566,1,1
1355591027,4.93406,4.93406,5.11531,0.244176,0.262252,1,1
1356191297,4.94315,4.94315,5.1249,0.240751,0.25857,1,1
1356391433,5.14222,5.14222,5.3313,0.240482,0.258284,1,1
1356691018,5.09824,5.09824,5.28554,0.239215,0.256916,1,1
1357291021,4.6805,4.6805,4.85258,0.237428,0.255001,1,1
1357491016,4.94582,4.94582,5.12776,0.239089,0.256787,1,1
1357791018,5.00582,5.00582,5.18985,0.24087,0.258699,1,1
1358391016,4.95131,4.95131,5.1335,0.252097,0.270759,1,1
1358591020,5.06246,5.06246,5.24869,0.25733,0.276377,1,1
1358891089,5.0325,5.0325,5.21791,0.263461,0.282961,1,1
1359091018,4.87105,4.87105,5.0503,0.272355,0.292515,1,1
1359491017,4.95607,4.95607,5.13857,0.270895,0.290949,1,1
1359691020,5.05822,5.05822,5.24448,0.287404,0.308682,1,1
1359991048,4.80921,4.80921,4.98639,0.299834,0.322034,1,1
1360191018,5.06831,5.06831,5.25482,0.308167,0.330982,1,1
1360591034,4.92704,4.92704,5.10832,0.322144,0.345991,1,1
1361091018,5.02856,5.02856,5.21387,0.380335,0.408495,1,1
1361291017,5.10487,5.10487,5.29313,0.403964,0.433864,1,1
1361691055,5.14251,5.14251,5.33195,0.424625,0.456063,1,1
1362191018,4.91,4.91,5.09087,0.454846,0.488514,1,1
1362391018,5.12935,5.12935,5.31817,0.489962,0.526225,1,1
1362691083,5.13359,5.13359,5.32298,0.523941,0.562719,1,1
1363291445,4.9463,4.9463,5.12832,0.565614,0.607471,1,1
1363491119,4.90965,4.90965,5.09072,0.580576,0.623538,1,1
1363891020,4.96984,4.96984,5.15282,0.633385,0.680236,1,1
1364391058,5.2767,5.2767,5.47113,0.701142,0.75301,1,1
1364591019,5.28464,5.28464,5.4793,0.717027,0.770077,1,1
1365491019,4.77189,4.77189,4.94754,0.794738,0.853498,1,1
1365691016,4.78134,4.78134,4.9572,0.812714,0.872778,1,1
1365991018,5.03583,5.03583,5.22095,0.77457,0.831798,1,1
1366191032,4.89029,4.89029,5.06995,0.735364,0.789702,1,1
1366591020,5.0381,5.0381,5.22324,0.645074,0.692717,1,1
1366791018,5.0937,5.0937,5.28093,0.596119,0.640146,1,1
1367091017,5.04458,5.04458,5.22981,0.523746,0.562426,1,1
1367291017,5.01278,5.01278,5.19687,0.475472,0.51059,1,1
1367591047,4.907,4.907,5.08754,0.408164,0.438305,1,1
1367891059,4.94998,4.94998,5.13214,0.345258,0.370754,1,1
1368191026,5.01784,5.01784,5.2023,0.282879,0.30377,1,1
1368791017,4.8462,4.8462,5.02434,0.181499,0.194898,1,1
1368991036,4.71889,4.71889,4.89238,0.152264,0.163506,1,1
1369291018,5.07883,5.07883,5.26563,0.109166,0.117226,1,1
1369491016,5.02436,5.02436,5.20933,0.0869766,0.0933979,1,1
1369891536,4.83813,4.83813,5.01605,0.0546067,0.058638,1,1
1370091467,4.98112,4.98112,5.16399,0.0469627,0.0504292,1,1
1370391400,5.0498,5.0498,5.23545,0.0495049,0.0531589,1,1
1370591128,5.10135,5.10135,5.28883,0.0563948,0.0605569,1,1
1371491021,5.32467,5.32467,5.52069,0.0888056,0.095359,1,1
1371691017,5.09178,5.09178,5.27924,0.092909,0.0997659,1,1
1372591020,4.82821,4.82821,5.00567,0.0989643,0.106266,1,1
1372791031,4.97613,4.97613,5.15903,0.0969653,0.104117,1,1
1373091094,4.92173,4.92173,5.10277,0.0950579,0.10207,1,1
1373691017,4.87006,4.87006,5.04913,0.0836208,0.0897886,1,1
1373891018,4.71423,4.71423,4.88665,0.0788425,0.0846551,1,1
1374191018,4.99354,4.99354,5.17708,0.0731965,0.0785936,1,1
1374791020,4.91422,4.91422,5.09516,0.0594078,0.0637876,1,1
1374991062,5.08046,5.08046,5.26711,0.0541746,0.0581684,1,1
1375291021,5.12516,5.12516,5.31354,0.047938,0.0514719,1,1
1375891060,4.89531,4.89531,5.0753,0.0381654,0.0409785,1,1
1376091052,4.79117,4.79117,4.96737,0.0368562,0.0395728,1,1
1376391025,4.98248,4.98248,5.16548,0.0396148,0.0425345,1,1
1376591089,4.80628,4.80628,4.98294,0.0445262,0.0478069,1,1
1376991578,4.9159,4.9159,5.09663,0.0572785,0.0614992,1,1
1377191332,4.96681,4.96681,5.14949,0.0676726,0.0726598,1,1
1377491219,5.03483,5.03483,5.22008,0.0792238,0.0850593,1,1
1378091054,5.03328,5.03328,5.21834,0.105158,0.112904,1,1
1378291020,4.88448,4.88448,5.06384,0.114472,0.122904,1,1
1378591056,4.67874,4.67874,4.85072,0.127002,0.136355,1,1
1379191044,4.88087,4.88087,5.06027,0.15121,0.162343,1,1
1379391018,4.87563,4.87563,5.05481,0.15908,0.170792,1,1
1379891017,5.046,5.046,5.23158,0.178378,0.191514,1,1
1380191036,4.86419,4.86419,5.04305,0.192209,0.20636,1,1
1380691051,4.98587,4.98587,5.16914,0.213097,0.228785,1,1
1380791018,4.86977,4.86977,5.04882,0.21774,0.233767,1,1
1381091016,5.17931,5.17931,5.36975,0.22849,0.245309,1,1
1381291020,5.05021,5.05021,5.23588,0.237166,0.254623,1,1
1381591048,4.6219,4.6219,4.79197,0.250313,0.268741,1,1
1381691017,4.60817,4.60817,4.77766,0.25389,0.272579,1,1
1381991050,5.08085,5.08085,5.26754,0.267831,0.287546,1,1
1382191036,5.20122,5.20122,5.39275,0.275542,0.295822,1,1
1382491017,4.99312,4.99312,5.17692,0.288595,0.309832,1,1
1383091018,4.87359,4.87359,5.05285,0.311901,0.334852,1,1
1383391019,4.91898,4.91898,5.09983,0.32013,0.343685,1,1
1383991583,4.81964,4.81964,4.99683,0.338361,0.36325,1,1
1384291363,4.9184,4.9184,5.09931,0.346408,0.371889,1,1
1384791019,4.9589,4.9589,5.14107,0.357899,0.384221,1,1
1385191019,5.0634,5.0634,5.24954,0.363603,0.390342,1,1
1385391060,5.05745,5.05745,5.24337,0.364839,0.391667,1,1
1385691027,4.8902,4.8902,5.06993,0.369842,0.397035,1,1
1385891020,5.0155,5.0155,5.19985,0.370824,0.398088,1,1
1386191020,5.03041,5.03041,5.21538,0.374085,0.401589,1,1
1386591020,4.92881,4.92881,5.11,0.376367,0.404029,1,1
1386791021,5.133,5.133,5.3216,0.37699,0.404703,1,1
1387091087,5.11112,5.11112,5.29902,0.376638,0.404323,1,1
1387591016,4.86945,4.86945,5.04851,0.376833,0.404528,1,1
1387991018,4.84138,4.84138,5.01931,0.378247,0.406042,1,1
1388191016,4.80268,4.80268,4.97926,0.375998,0.40363,1,1
1388491019,4.86357,4.86357,5.0424,0.376405,0.404057,1,1
1389091095,5.08805,5.08805,5.27522,0.371938,0.399266,1,1
1389391020,4.92876,4.92876,5.10998,0.369941,0.39712,1,1
1389891016,4.93611,4.93611,5.11757,0.367391,0.394377,1,1
1389991018,5.0453,5.0453,5.23071,0.366314,0.393217,1,1
1390291049,5.20207,5.20207,5.39305,0.366175,0.393069,1,1
1390791067,4.90402,4.90402,5.08427,0.361614,0.388167,1,1
1390891810,4.98428,4.98428,5.16754,0.361655,0.388211,1,1
1391191294,4.84078,4.84078,5.0188,0.355895,0.382033,1,1
1391391297,5.07512,5.07512,5.26156,0.356086,0.382236,1,1
1391691205,5.15556,5.15556,5.3452,0.354271,0.380284,1,1
1391791075,5.07482,5.07482,5.26146,0.352954,0.378869,1,1
1392091016,5.04548,5.04548,5.23107,0.351399,0.377204,1,1
1392291175,5.15304,5.15304,5.34249,0.350151,0.375859,1,1
1392591019,4.97442,4.97442,5.15716,0.347283,0.372775,1,1
1392991017,4.9583,4.9583,5.14058,0.342884,0.368053,1,1
1393191017,4.83213,4.83213,5.00986,0.342141,0.367259,1,1
1393491019,5.00644,5.00644,5.19068,0.337729,0.362521,1,1
1393691018,5.14478,5.14478,5.33396,0.337891,0.362696,1,1
1393991092,5.1589,5.1589,5.3485,0.335701,0.360335,1,1
1394391037,5.26017,5.26017,5.45358,0.332004,0.35637,1,1
1394591017,5.17305,5.17305,5.36326,0.328241,0.352329,1,1
1394891020,4.83081,4.83081,5.00863,0.326987,0.350982,1,1
1396291018,5.22858,5.22858,5.42078,0.315438,0.338587,1,1
1396491017,5.17471,5.17471,5.36539,0.318857,0.342258,1,1
1396791019,5.26298,5.26298,5.45662,0.316845,0.340096,1,1
1397391017,5.02823,5.02823,5.21329,0.315526,0.338676,1,1
1397691083,5.12734,5.12734,5.31588,0.313677,0.336685,1,1
1397891390,4.82297,4.82297,5.00056,0.312757,0.335707,1,1
1398191370,4.78034,4.78034,4.95606,0.308228,0.330841,1,1
1398291285,4.93016,4.93016,5.11158,0.308289,0.330909,1,1
1398591026,5.07314,5.07314,5.25982,0.309073,0.331745,1,1
1398791020,4.87389,4.87389,5.05313,0.309828,0.332556,1,1
1399091018,5.00085,5.00085,5.18478,0.309725,0.332447,1,1
1399691033,5.05533,5.05533,5.24118,0.304545,0.32688,1,1
1399991017,5.16331,5.16331,5.35327,0.302311,0.32448,1,1
1400591018,5.01422,5.01422,5.19871,0.299632,0.321599,1,1
1400891016,4.93854,4.93854,5.12044,0.300358,0.322375,1,1
1401391022,4.9943,4.9943,5.17779,0.297825,0.319654,1,1
1401491017,4.97466,4.97466,5.15763,0.297767,0.319592,1,1
1401791017,5.23989,5.23989,5.43257,0.294078,0.315624,1,1
1401991017,4.99282,4.99282,5.17625,0.291059,0.312386,1,1
1402291046,4.93966,4.93966,5.12134,0.286569,0.307567,1,1
1402691078,4.93734,4.93734,5.11865,0.279368,0.299833,1,1
1402891017,4.79102,4.79102,4.96706,0.276305,0.296547,1,1
1403191017,5.12926,5.12926,5.31809,0.272421,0.29238,1,1
1403691017,5.00897,5.00897,5.19313,0.266574,0.286103,1,1
1403791017,5.03871,5.03871,5.22404,0.265269,0.284702,1,1
1404091020,5.07012,5.07012,5.25653,0.261503,0.280656,1,1
1404291019,4.94914,4.94914,5.1312,0.259266,0.278254,1,1
1404591058,5.00874,5.00874,5.19298,0.258864,0.277826,1,1
1405091351,5.05029,5.05029,5.23608,0.253003,0.27153,1,1
1405191279,5.08674,5.08674,5.27375,0.253248,0.271796,1,1
1405491099,4.98302,4.98302,5.16615,0.251384,0.269791,1,1
1405991019,4.9253,4.9253,5.10621,0.250275,0.268601,1,1
1406391079,4.98778,4.98778,5.1712,0.250852,0.269217,1,1
1406591019,4.93895,4.93895,5.12062,0.25109,0.269472,1,1
1406891017,4.95171,4.95171,5.13401,0.250709,0.269065,1,1
1407391016,4.93024,4.93024,5.1116,0.252242,0.270708,1,1
1407491018,4.96938,4.96938,5.1522,0.252666,0.271162,1,1
1407891083,4.96746,4.96746,5.15019,0.252381,0.270856,1,1
1407991037,4.99968,4.99968,5.18357,0.25207,0.270521,1,1
1408291018,5.10641,5.10641,5.29424,0.256295,0.275058,1,1
1408691017,5.00417,5.00417,5.18717,0.25429,0.272898,1,1
1408891027,4.88557,4.88557,5.06528,0.255654,0.274363,1,1
1409191016,5.09925,5.09925,5.28687,0.254608,0.273237,1,1
1409691046,5.25239,5.25239,5.44564,0.256655,0.275434,1,1
1410091017,4.99536,4.99536,5.17889,0.257133,0.275945,1,1
1410291017,5.08082,5.08082,5.26764,0.256174,0.27491,1,1
1410591046,5.06454,5.06454,5.25072,0.255108,0.273765,1,1
1410791016,5.1142,5.1142,5.30228,0.253662,0.272218,1,1
1411091040,5.0532,5.0532,5.23908,0.252414,0.270877,1,1
1411491035,5.30823,5.30823,5.50348,0.249587,0.267838,1,1
1411691427,5.09401,5.09401,5.28144,0.248948,0.267156,1,1
1411991303,4.73024,4.73024,4.90417,0.250558,0.26888,1,1
1412491115,5.0758,5.0758,5.26255,0.250173,0.26847,1,1
1412891018,5.10724,5.10724,5.29526,0.24954,0.267782,1,1
1413091116,4.91912,4.91912,5.09984,0.249888,0.268156,1,1
1413391018,5.03466,5.03466,5.21969,0.247104,0.265168,1,1
1413991019,5.05431,5.05431,5.24013,0.248713,0.266891,1,1
1414291016,4.92196,4.92196,5.10302,0.24955,0.267791,1,1
1414791045,5.11715,5.11715,5.30531,0.2502,0.268486,1,1
1415191017,5.32736,5.32736,5.52306,0.249094,0.267294,1,1
1415391019,4.98728,4.98728,5.17055,0.249282,0.267497,1,1
1415691019,4.79901,4.79901,4.97534,0.248094,0.266223,1,1
1416291016,4.9351,4.9351,5.11657,0.249085,0.267282,1,1
1416591078,4.87476,4.87476,5.05409,0.251264,0.269623,1,1
1417191028,5.01824,5.01824,5.20286,0.256028,0.274737,1,1
1417491018,4.89802,4.89802,5.07839,0.260724,0.279773,1,1
1417691016,4.98535,4.98535,5.16791,0.262281,0.281443,1,1
1417991024,5.12054,5.12054,5.30889,0.26534,0.284725,1,1
1418891291,5.02428,5.02428,5.20932,0.273978,0.293991,1,1
1419091169,5.03228,5.03228,5.21744,0.277675,0.297958,1,1
1419391327,5.23046,5.23046,5.42301,0.277632,0.297911,1,1
1419791017,4.84338,4.84338,5.02161,0.280861,0.301371,1,1
1419991021,4.98679,4.98679,5.17003,0.279713,0.30014,1,1
1420291018,5.30007,5.30007,5.49501,0.281462,0.302014,1,1
1420791016,5.11023,5.11023,5.29793,0.280562,0.301046,1,1
1421191019,5.23496,5.23496,5.42744,0.278961,0.299325,1,1
1421391072,5.13882,5.13882,5.32769,0.279469,0.29987,1,1
1421691026,5.02572,5.02572,5.21063,0.276657,0.296855,1,1
1422291019,5.11707,5.11707,5.30522,0.272915,0.292833,1,1
1422591029,5.27603,5.27603,5.46982,0.271284,0.291079,1,1
1423091041,4.94189,4.94189,5.1236,0.268644,0.288248,1,1
1423191016,4.90722,4.90722,5.08691,0.267081,0.286572,1,1
1423491053,4.9615,4.9615,5.14391,0.266244,0.285672,1,1
1423691018,5.05707,5.05707,5.24305,0.264937,0.284268,1,1
1423991018,5.0063,5.0063,5.19062,0.263224,0.282428,1,1
1424391017,4.9832,4.9832,5.16645,0.260404,0.279401,1,1
1424591046,4.97783,4.97783,5.16086,0.259367,0.278285,1,1
1424891018,5.11777,5.11777,5.30581,0.256992,0.275735,1,1
1425491495,4.91154,4.91154,5.09229,0.251099,0.269411,1,1
1425791339,5.02349,5.02349,5.20801,0.25132,0.26965,1,1
1425991145,5.24293,5.24293,5.43461,0.249371,0.26756,1,1
1426291113,5.09902,5.09902,5.28657,0.249592,0.267796,1,1
1426691020,4.92768,4.92768,5.10875,0.250808,0.269103,1,1
1426891067,4.9646,4.9646,5.14727,0.252408,0.270819,1,1
1427191020,5.08613,5.08613,5.27325,0.253837,0.272354,1,1
1427391047,5.10953,5.10953,5.29735,0.256308,0.274999,1,1
1427691018,5.01698,5.01698,5.20151,0.261217,0.280275,1,1
1427891019,4.92001,4.92001,5.10143,0.267611,0.287134,1,1
1428191016,5.02809,5.02809,5.21318,0.267243,0.286738,1,1
1428691086,4.97351,4.97351,5.15661,0.281091,0.301596,1,1
1429191017,5.28181,5.28181,5.47647,0.292854,0.314224,1,1
1429291019,5.1011,5.1011,5.28907,0.300373,0.322288,1,1
1429591023,5.17286,5.17286,5.36258,0.313425,0.336293,1,1
1429791072,5.1674,5.1674,5.35764,0.306271,0.328613,1,1
1430091037,5.00381,5.00381,5.18831,0.312561,0.335367,1,1
1430191071,5.06063,5.06063,5.24702,0.317291,0.340435,1,1
1430491016,5.25028,5.25028,5.44376,0.327576,0.351469,1,1
1430691016,5.02186,5.02186,5.20703,0.336226,0.36075,1,1
1430991030,5.24301,5.24301,5.4362,0.349415,0.3749,1,1
1431391018,5.19482,5.19482,5.3855,0.360839,0.387157,1,1
1431591016,5.09109,5.09109,5.27758,0.362099,0.388504,1,1
1431891131,5.08467,5.08467,5.27207,0.367501,0.394298,1,1
1432291037,5.0941,5.0941,5.28178,0.375634,0.403024,1,1
1432491446,5.0666,5.0666,5.25313,0.385599,0.413714,1,1
1432791356,5.1897,5.1897,5.38093,0.396381,0.425282,1,1
1433291017,4.88672,4.88672,5.06677,0.41593,0.446255,1,1
1433391071,4.87005,4.87005,5.04942,0.420505,0.451163,1,1
1433691024,4.94403,4.94403,5.12618,0.433225,0.464814,1,1
1433891020,5.08896,5.08896,5.27635,0.440164,0.472242,1,1
1434191017,5.01336,5.01336,5.19808,0.448363,0.481044,1,1
1434591020,5.16393,5.16393,5.35413,0.459109,0.49257,1,1
1434791016,5.29947,5.29947,5.4948,0.462315,0.496008,1,1
1435091023,5.23592,5.23592,5.42769,0.466559,0.500547,1,1
1435291110,4.99447,4.99447,5.17853,0.460848,0.494416,1,1
1435591018,4.93801,4.93801,5.11969,0.437778,0.469656,1,1
1435991016,5.02767,5.02767,5.21245,0.406213,0.435793,1,1
1436191049,5.12956,5.12956,5.31825,0.385559,0.413631,1,1
1436491016,5.15041,5.15041,5.33994,0.3582,0.384274,1,1
1436991018,4.95321,4.95321,5.13525,0.312988,0.335775,1,1
1437091055,5.04544,5.04544,5.22989,0.306587,0.328906,1,1
1437391021,5.09735,5.09735,5.28483,0.283012,0.303614,1,1
1437591016,5.09922,5.09922,5.28667,0.267949,0.287451,1,1
1437891016,5.00943,5.00943,5.19292,0.247758,0.265792,1,1
1438491033,5.31054,5.31054,5.50509,0.207853,0.222983,1,1
1438791119,5.05988,5.05988,5.24578,0.193059,0.20711,1,1
1439291589,5.02524,5.02524,5.20925,0.1683,0.180547,1,1
1439891058,4.81079,4.81079,4.98778,0.141997,0.152328,1,1
1440191024,5.03107,5.03107,5.21614,0.133472,0.143182,1,1
1440391103,4.92554,4.92554,5.10667,0.127684,0.13697,1,1
1440691020,4.75157,4.75157,4.92633,0.119243,0.127918,1,1
1442091016,5.09176,5.09176,5.27921,0.096231,0.103228,1,1
1442691017,5.28995,5.28995,5.48358,0.0936996,0.100512,1,1
1442991016,5.14674,5.14674,5.33583,0.092181,0.0988832,1,1
1443391016,5.05509,5.05509,5.24016,0.0925696,0.0992992,1,1
1443591039,5.23035,5.23035,5.42266,0.0941581,0.101004,1,1
1443891034,5.02072,5.02072,5.20537,0.0955872,0.102536,1,1
1444391018,5.06321,5.06321,5.24938,0.0988922,0.10608,1,1
1444491017,5.05633,5.05633,5.24143,0.0986322,0.1058,1,1
1444791037,5.02514,5.02514,5.20907,0.104125,0.111693,1,1
1444991025,4.88884,4.88884,5.06863,0.106364,0.114093,1,1
1445291042,4.84298,4.84298,5.02108,0.110746,0.118796,1,1
1445691031,4.96147,4.96147,5.14406,0.11659,0.125062,1,1
1445891604,4.96685,4.96685,5.14954,0.123052,0.131994,1,1
1446191305,5.09917,5.09917,5.28562,0.128331,0.137655,1,1
1446791019,5.05678,5.05678,5.242,0.144158,0.154631,1,1
1447091018,5.23872,5.23872,5.43133,0.152237,0.163295,1,1
1447291037,5.2255,5.2255,5.41779,0.156704,0.168088,1,1
1447591017,4.99219,4.99219,5.17572,0.164223,0.176153,1,1
1448191018,4.84347,4.84347,5.02075,0.177363,0.190242,1,1
1448491018,5.02673,5.02673,5.21155,0.182614,0.195875,1,1
1449091030,5.21357,5.21357,5.40529,0.195288,0.209468,1,1
1449391019,4.85817,4.85817,5.03701,0.203691,0.218483,1,1
1449591019,4.71982,4.71982,4.89274,0.207144,0.222185,1,1
