timestamp,indicated_airspeed_m_s,true_airspeed_m_s,air_temperature_celsius,confidence
1104043655,-2.80205,-2.90201,25.153,1.0
1104054348,-2.83346,-2.93457,25.1587,1.0
1104065075,-2.86794,-2.97022,25.1515,1.0
1104075776,-2.90541,-3.00898,25.1401,1.0
1104365812,-2.90242,-3.00603,25.1744,1.0
1104376561,-2.86176,-2.96371,25.1344,1.0
1104387302,-2.82089,-2.92147,25.1515,1.0
1104398082,-2.78128,-2.88048,25.1558,1.0
1104408791,-2.74167,-2.83936,25.133,1.0
1104419562,-2.70161,-2.79796,25.1515,1.0
1104430296,-2.66202,-2.75698,25.1558,1.0
1104441046,-2.62292,-2.71658,25.1758,1.0
1104451742,-2.58344,-2.67564,25.163,1.0
1104462470,-2.54364,-2.63446,25.173,1.0
1104505273,-2.43347,-2.52026,25.1487,1.0
1104515966,-2.4237,-2.51014,25.1472,1.0
1104526717,-2.41727,-2.50351,25.153,1.0
1104537415,-2.41491,-2.50108,25.1558,1.0
1104826733,-2.9515,-3.0568,25.1544,1.0
1104837477,-2.93972,-3.04462,25.1587,1.0
1104848173,-2.92163,-3.02588,25.1587,1.0
1104859050,-2.899,-3.00243,25.1558,1.0
1104869763,-2.87368,-2.97621,25.1558,1.0
1104880457,-2.85025,-2.95184,25.1372,1.0
1104891187,-2.83166,-2.93268,25.1558,1.0
1104901878,-2.81518,-2.91572,25.1787,1.0
1104912676,-2.7983,-2.89812,25.1544,1.0
1104923468,-2.78236,-2.88153,25.1387,1.0
1104955663,-2.74855,-2.84651,25.1372,1.0
1104966400,-2.74238,-2.84019,25.1515,1.0
1104977139,-2.7373,-2.83495,25.1558,1.0
1104987894,-2.73384,-2.83137,25.1558,1.0
1105277958,-2.553,-2.64394,25.1287,1.0
1105288668,-2.55512,-2.64625,25.1558,1.0
1105299473,-2.55714,-2.64835,25.1587,1.0
1105310166,-2.5582,-2.64943,25.153,1.0
1105320937,-2.56066,-2.65192,25.133,1.0
1105331663,-2.56363,-2.65511,25.1587,1.0
1105342433,-2.56615,-2.6577,25.1558,1.0
1105353193,-2.56829,-2.65982,25.1344,1.0
1105363951,-2.56945,-2.66111,25.1573,1.0
1105428263,-2.5677,-2.65942,25.1816,1.0
1105438960,-2.56365,-2.65519,25.1773,1.0
1105449654,-2.56117,-2.65254,25.1573,1.0
1105460348,-2.5617,-2.65306,25.1515,1.0
1105760609,-3.19301,-3.30688,25.1501,1.0
1105771300,-3.19846,-3.31256,25.1573,1.0
1105782107,-3.20314,-3.31739,25.1515,1.0
1105792901,-3.20713,-3.32154,25.1558,1.0
1105803678,-3.21038,-3.32493,25.1558,1.0
1105814400,-3.21179,-3.32638,25.1558,1.0
1105825106,-3.211,-3.32544,25.133,1.0
1105835826,-3.20974,-3.3243,25.163,1.0
1105846608,-3.20676,-3.32128,25.1773,1.0
1105857303,-3.2,-3.31421,25.1644,1.0
1105900293,-3.12055,-3.23185,25.1544,1.0
1105910981,-3.08864,-3.19881,25.1558,1.0
1105921668,-3.05313,-3.16203,25.1544,1.0
1105932361,-3.01559,-3.12315,25.1558,1.0
1106211027,-2.72549,-2.82265,25.1458,1.0
1106221866,-2.73712,-2.83464,25.1358,1.0
1106232583,-2.74871,-2.84674,25.1558,1.0
1106243312,-2.75941,-2.85786,25.153,1.0
1106254064,-2.77018,-2.869,25.1501,1.0
1106264842,-2.78282,-2.88202,25.1372,1.0
1106275549,-2.79737,-2.89717,25.1544,1.0
1106286275,-2.81163,-2.91196,25.1558,1.0
1106296979,-2.82315,-2.92398,25.1773,1.0
1106339985,-2.84609,-2.94764,25.1558,1.0
1106350673,-2.85088,-2.95262,25.1601,1.0
1106361369,-2.85564,-2.95747,25.143,1.0
1106372064,-2.86221,-2.96431,25.1501,1.0
1106382756,-2.87028,-2.97269,25.1558,1.0
1106662069,-2.9845,-3.09086,25.1387,1.0
1106672793,-2.97976,-3.08595,25.1372,1.0
1106683503,-2.979,-3.08524,25.1544,1.0
1106694191,-2.98265,-3.08892,25.133,1.0
1106704881,-2.98971,-3.09624,25.1358,1.0
1106715602,-2.99961,-3.10661,25.1573,1.0
1106726293,-3.01191,-3.11936,25.1573,1.0
1106737014,-3.02635,-3.13419,25.133,1.0
1106747780,-3.04309,-3.15169,25.163,1.0
1106758494,-3.05923,-3.1685,25.1801,1.0
1106844319,-3.1461,-3.25825,25.1387,1.0
1106855021,-3.14987,-3.26226,25.1587,1.0
1106865773,-3.15232,-3.26478,25.1558,1.0
1106876497,-3.15277,-3.26534,25.173,1.0
1107155756,-2.84944,-2.95105,25.1544,1.0
1107166447,-2.84923,-2.95086,25.1615,1.0
1107177167,-2.8504,-2.95204,25.153,1.0
1107187882,-2.85306,-2.9548,25.1544,1.0
1107198652,-2.85606,-2.95789,25.1515,1.0
1107209402,-2.85814,-2.96007,25.1558,1.0
1107220102,-2.85978,-2.96188,25.1787,1.0
1107230790,-2.86075,-2.9629,25.1816,1.0
1107241536,-2.86139,-2.96338,25.143,1.0
1107284670,-2.83319,-2.93421,25.153,1.0
1107295434,-2.81453,-2.91491,25.1573,1.0
1107306127,-2.79368,-2.89326,25.1401,1.0
1107316845,-2.77009,-2.8689,25.1558,1.0
1107606938,-2.61289,-2.70612,25.153,1.0
1107617676,-2.60657,-2.69958,25.1544,1.0
1107628487,-2.59885,-2.69154,25.1544,1.0
1107639180,-2.58851,-2.68083,25.1544,1.0
1107649999,-2.57309,-2.66487,25.1558,1.0
1107660712,-2.55161,-2.64263,25.1573,1.0
1107671402,-2.52363,-2.61377,25.1844,1.0
1107682112,-2.48955,-2.57843,25.1773,1.0
1107692858,-2.45318,-2.54064,25.1515,1.0
1107703591,-2.41735,-2.50346,25.133,1.0
1107735905,-2.31596,-2.39849,25.1401,1.0
1107746668,-2.28938,-2.37092,25.1301,1.0
1107757366,-2.27132,-2.35233,25.1601,1.0
1107768105,-2.2619,-2.34248,25.133,1.0
1108111875,-2.96798,-3.07383,25.1515,1.0
1108122587,-2.97428,-3.08027,25.133,1.0
1108133305,-2.98089,-3.08725,25.1587,1.0
1108144072,-2.98759,-3.09427,25.1744,1.0
1108154827,-2.99328,-3.10007,25.1558,1.0
1108165536,-2.99751,-3.10443,25.1544,1.0
1108176330,-2.99977,-3.10677,25.1558,1.0
1108187028,-3.00135,-3.10841,25.1573,1.0
1108197765,-3.00357,-3.11066,25.1487,1.0
1108262274,-3.02113,-3.12906,25.1816,1.0
1108273000,-3.02173,-3.1295,25.1515,1.0
1108283772,-3.02246,-3.13027,25.153,1.0
1108294534,-3.02274,-3.13058,25.1587,1.0
1108584208,-2.51641,-2.60619,25.1573,1.0
1108594963,-2.49351,-2.58249,25.1615,1.0
1108605651,-2.46865,-2.55679,25.1715,1.0
1108616340,-2.44302,-2.5302,25.163,1.0
1108627039,-2.4181,-2.50426,25.1301,1.0
1108637743,-2.3969,-2.48243,25.1601,1.0
1108648512,-2.38045,-2.46533,25.1401,1.0
1108659210,-2.36678,-2.45123,25.1558,1.0
1108669973,-2.35241,-2.43634,25.1544,1.0
1108680664,-2.33535,-2.4187,25.1601,1.0
1108723762,-2.26759,-2.34848,25.1501,1.0
1108734460,-2.25066,-2.33098,25.1558,1.0
1108745210,-2.23568,-2.31539,25.1372,1.0
1108755950,-2.22276,-2.30208,25.163,1.0
1109045486,-2.59989,-2.69263,25.1558,1.0
1109056212,-2.59978,-2.69241,25.133,1.0
1109066985,-2.59741,-2.69008,25.1601,1.0
1109077705,-2.59084,-2.68326,25.1558,1.0
1109088425,-2.58197,-2.67397,25.133,1.0
1109099119,-2.57263,-2.66431,25.133,1.0
1109109887,-2.56165,-2.65302,25.153,1.0
1109120576,-2.54787,-2.63876,25.1558,1.0
1109131324,-2.53288,-2.62312,25.133,1.0
1109174153,-2.53297,-2.62323,25.1372,1.0
1109184914,-2.5465,-2.63741,25.1744,1.0
1109195650,-2.56139,-2.65279,25.1587,1.0
1109206374,-2.57803,-2.6699,25.133,1.0
1109485750,-2.35723,-2.44137,25.1587,1.0
1109496448,-2.34801,-2.43189,25.1773,1.0
1109507159,-2.34163,-2.42519,25.153,1.0
1109517898,-2.33673,-2.41999,25.1301,1.0
1109528597,-2.33482,-2.4181,25.153,1.0
1109539312,-2.33873,-2.42204,25.1258,1.0
1109550050,-2.34955,-2.43335,25.1501,1.0
1109560822,-2.36414,-2.44847,25.153,1.0
1109571614,-2.38027,-2.46507,25.1301,1.0
1109582485,-2.40112,-2.48678,25.1558,1.0
1109636086,-2.53575,-2.62619,25.153,1.0
1109646812,-2.55059,-2.64168,25.1801,1.0
1109657599,-2.55962,-2.65105,25.1816,1.0
1109668311,-2.5634,-2.65483,25.153,1.0
1109679086,-2.56461,-2.65601,25.1401,1.0
1109979410,-2.54393,-2.63469,25.153,1.0
1109990145,-2.54494,-2.63584,25.1773,1.0
1110000846,-2.54885,-2.63968,25.1315,1.0
1110011583,-2.55949,-2.65079,25.153,1.0
1110022280,-2.57199,-2.66375,25.1558,1.0
1110033059,-2.57984,-2.67188,25.1558,1.0
1110043802,-2.58417,-2.67625,25.1315,1.0
1110054499,-2.58738,-2.67969,25.1573,1.0
1110065220,-2.58873,-2.68109,25.1573,1.0
1110097561,-2.57734,-2.66925,25.1472,1.0
1110108307,-2.56542,-2.65695,25.1558,1.0
1110119016,-2.55014,-2.64113,25.1558,1.0
1110129777,-2.5379,-2.62833,25.1301,1.0
1110430129,-2.80824,-2.90846,25.1573,1.0
1110440830,-2.81114,-2.91149,25.1601,1.0
1110451581,-2.81218,-2.91264,25.1773,1.0
1110462342,-2.81174,-2.91218,25.1758,1.0
1110473100,-2.81072,-2.91114,25.1787,1.0
1110483883,-2.80911,-2.90943,25.1773,1.0
1110494571,-2.80737,-2.90757,25.163,1.0
1110505269,-2.80653,-2.90667,25.1587,1.0
1110516038,-2.80458,-2.90467,25.1615,1.0
1110526738,-2.7969,-2.89667,25.153,1.0
1110548255,-2.76659,-2.86534,25.1601,1.0
1110558981,-2.74463,-2.84259,25.1558,1.0
1110569701,-2.71715,-2.81425,25.1816,1.0
1110580477,-2.68661,-2.78249,25.1558,1.0
1110881275,-2.63258,-2.72644,25.1415,1.0
1110892041,-2.6699,-2.76516,25.1558,1.0
1110902742,-2.71146,-2.80817,25.1472,1.0
1110913518,-2.7542,-2.85258,25.1816,1.0
1110924247,-2.79302,-2.89265,25.153,1.0
1110935026,-2.82496,-2.92577,25.1601,1.0
1110945754,-2.8506,-2.9522,25.1358,1.0
1110956446,-2.87222,-2.97471,25.1615,1.0
1110967208,-2.89261,-2.99568,25.133,1.0
1110977900,-2.91328,-3.0172,25.1544,1.0
1111031715,-2.99465,-3.10163,25.1787,1.0
1111042416,-2.99528,-3.10229,25.1787,1.0
1111053191,-2.99054,-3.09717,25.1387,1.0
1111063893,-2.98264,-3.08908,25.1573,1.0
1111364452,-2.59612,-2.68861,25.1272,1.0
1111375147,-2.59463,-2.68729,25.1773,1.0
1111385994,-2.58744,-2.67982,25.173,1.0
1111396735,-2.57583,-2.6677,25.1515,1.0
1111407429,-2.56239,-2.65388,25.1744,1.0
1111418153,-2.54651,-2.63745,25.1758,1.0
1111428848,-2.52831,-2.61851,25.1558,1.0
1111439656,-2.5086,-2.59823,25.1773,1.0
1111450422,-2.48677,-2.57563,25.1801,1.0
1111461140,-2.46083,-2.54875,25.1787,1.0
1111504265,-2.36279,-2.44711,25.1587,1.0
1111514985,-2.34578,-2.42952,25.1644,1.0
1111525710,-2.33165,-2.41485,25.1558,1.0
1111536447,-2.32229,-2.40514,25.1515,1.0
1111826393,-2.8088,-2.90891,25.133,1.0
1111837088,-2.80884,-2.90906,25.1558,1.0
1111847789,-2.80516,-2.90525,25.1558,1.0
1111858510,-2.79527,-2.89496,25.1458,1.0
1111869209,-2.77898,-2.87812,25.1515,1.0
1111879947,-2.75749,-2.85574,25.1301,1.0
1111890670,-2.73165,-2.8291,25.1558,1.0
1111901398,-2.70358,-2.80004,25.1558,1.0
1111912100,-2.67809,-2.77362,25.153,1.0
1111922837,-2.65782,-2.75264,25.1544,1.0
1111955111,-2.62876,-2.72263,25.1758,1.0
1111965814,-2.62554,-2.71928,25.1744,1.0
1111976527,-2.62375,-2.71736,25.1587,1.0
1111987307,-2.62517,-2.71873,25.1301,1.0
1112276804,-2.86654,-2.96885,25.1573,1.0
1112287498,-2.87303,-2.97555,25.1558,1.0
1112298189,-2.87911,-2.98184,25.153,1.0
1112308883,-2.88258,-2.98541,25.153,1.0
1112319589,-2.88389,-2.98675,25.1487,1.0
1112330322,-2.88382,-2.98663,25.1372,1.0
1112341079,-2.87898,-2.98173,25.1615,1.0
1112351774,-2.86693,-2.96916,25.1415,1.0
1112362472,-2.84848,-2.95011,25.1544,1.0
1112373223,-2.82468,-2.92536,25.133,1.0
1112426960,-2.71207,-2.80892,25.1701,1.0
1112437719,-2.70098,-2.79746,25.1758,1.0
1112448489,-2.69165,-2.78774,25.1615,1.0
1112459188,-2.68407,-2.77998,25.1816,1.0
1112749298,-2.74381,-2.84175,25.163,1.0
1112760034,-2.73221,-2.8298,25.1758,1.0
1112770804,-2.71634,-2.81326,25.153,1.0
1112781497,-2.69864,-2.79497,25.1615,1.0
1112792189,-2.68096,-2.77664,25.1573,1.0
1112802883,-2.66472,-2.75982,25.1558,1.0
1112813574,-2.64896,-2.74347,25.1501,1.0
1112824317,-2.63239,-2.72637,25.163,1.0
1112835035,-2.6161,-2.70946,25.1558,1.0
1112888717,-2.57061,-2.66239,25.1787,1.0
1112899477,-2.56681,-2.65835,25.1573,1.0
1112910166,-2.56579,-2.65731,25.1601,1.0
1112920855,-2.56657,-2.6581,25.1558,1.0
1113199812,-2.64212,-2.73639,25.1573,1.0
1113210582,-2.63013,-2.72403,25.173,1.0
1113221273,-2.61123,-2.70447,25.1758,1.0
1113231972,-2.58801,-2.68023,25.1358,1.0
1113242665,-2.56265,-2.65406,25.1573,1.0
1113253470,-2.53729,-2.62773,25.1387,1.0
1113264250,-2.51395,-2.60355,25.1387,1.0
1113274944,-2.49251,-2.58143,25.1587,1.0
1113285681,-2.47308,-2.5613,25.1573,1.0
1113296383,-2.45857,-2.54618,25.1358,1.0
1113339403,-2.45317,-2.5408,25.1773,1.0
1113350099,-2.45679,-2.54456,25.1773,1.0
1113360891,-2.46087,-2.54884,25.1916,1.0
1113371669,-2.46701,-2.55503,25.1544,1.0
1113661442,-2.69577,-2.79194,25.1587,1.0
1113672135,-2.67802,-2.77344,25.133,1.0
1113682826,-2.65828,-2.75307,25.1487,1.0
1113693525,-2.63717,-2.73134,25.1744,1.0
1113704265,-2.61339,-2.70663,25.1558,1.0
1113714974,-2.58627,-2.67854,25.1558,1.0
1113725662,-2.55816,-2.64942,25.1544,1.0
1113736372,-2.53114,-2.62137,25.1415,1.0
1113747096,-2.50416,-2.59351,25.1587,1.0
1113800844,-2.35933,-2.44355,25.1758,1.0
1113811563,-2.33777,-2.42116,25.1573,1.0
1113822267,-2.32245,-2.40528,25.1558,1.0
1113833076,-2.31435,-2.39682,25.1358,1.0
1115067838,-2.75093,-2.84907,25.1558,1.0
1115078556,-2.75678,-2.85523,25.1773,1.0
1115089428,-2.75791,-2.85629,25.1544,1.0
1115100122,-2.75751,-2.85575,25.1287,1.0
1115110811,-2.75856,-2.85693,25.1501,1.0
1115121505,-2.75893,-2.85735,25.1573,1.0
1115132269,-2.75635,-2.85469,25.1587,1.0
1115143017,-2.75233,-2.85048,25.1501,1.0
1115153712,-2.74868,-2.84671,25.153,1.0
1115207471,-2.71845,-2.81542,25.1558,1.0
1115218193,-2.70408,-2.80045,25.1387,1.0
1115228932,-2.68804,-2.78394,25.1587,1.0
1115239676,-2.67127,-2.76655,25.1558,1.0
1115250489,-2.65416,-2.74873,25.133,1.0
1115529613,-2.20503,-2.28377,25.183,1.0
1115540339,-2.21872,-2.29788,25.163,1.0
1115551131,-2.23387,-2.31353,25.153,1.0
1115561952,-2.24933,-2.32945,25.1315,1.0
1115572726,-2.26685,-2.34759,25.1315,1.0
1115583442,-2.28769,-2.36925,25.1501,1.0
1115594188,-2.30891,-2.39118,25.1387,1.0
1115604917,-2.32859,-2.41161,25.1501,1.0
1115615646,-2.34606,-2.42974,25.1601,1.0
1115658487,-2.39619,-2.4817,25.1587,1.0
1115669201,-2.41488,-2.501,25.1458,1.0
1115679900,-2.4429,-2.52998,25.1344,1.0
1115690623,-2.47988,-2.56829,25.1387,1.0
1115980609,-3.00331,-3.11049,25.1701,1.0
1115991330,-2.99299,-3.09986,25.1787,1.0
1116002061,-2.97418,-3.08035,25.173,1.0
1116012764,-2.94936,-3.05456,25.1573,1.0
1116023494,-2.91907,-3.02319,25.153,1.0
1116034276,-2.8832,-2.98606,25.1573,1.0
1116044981,-2.84284,-2.94414,25.133,1.0
1116055692,-2.80212,-2.90198,25.1358,1.0
1116066454,-2.76754,-2.86625,25.153,1.0
1116109312,-2.68745,-2.78321,25.1372,1.0
1116120069,-2.67984,-2.77533,25.1372,1.0
1116130761,-2.67783,-2.77325,25.1372,1.0
1116141556,-2.68056,-2.77612,25.1487,1.0
1116431316,-2.57677,-2.66855,25.133,1.0
1116442015,-2.60017,-2.69291,25.1601,1.0
1116452815,-2.62267,-2.71628,25.1744,1.0
1116463583,-2.6439,-2.73826,25.173,1.0
1116474274,-2.66206,-2.7571,25.1787,1.0
1116485086,-2.6759,-2.77142,25.1758,1.0
1116495839,-2.68626,-2.78208,25.1615,1.0
1116506639,-2.69463,-2.79076,25.1544,1.0
1116517371,-2.70319,-2.79964,25.1587,1.0
1116571009,-2.74755,-2.84552,25.1515,1.0
1116581809,-2.74196,-2.83975,25.1558,1.0
1116592524,-2.7302,-2.82761,25.1615,1.0
1116603298,-2.71564,-2.81242,25.1401,1.0
1116892825,-2.1271,-2.20298,25.1601,1.0
1116903530,-2.12262,-2.19832,25.1544,1.0
1116914306,-2.1195,-2.19518,25.1773,1.0
1116924999,-2.11693,-2.19243,25.1558,1.0
1116935754,-2.11978,-2.19528,25.133,1.0
1116946447,-2.12892,-2.20486,25.1615,1.0
1116957213,-2.14101,-2.21735,25.153,1.0
1116967946,-2.15499,-2.23185,25.1587,1.0
1116978724,-2.17067,-2.24807,25.153,1.0
1116989423,-2.18986,-2.26788,25.1444,1.0
1117086180,-2.45898,-2.54658,25.1358,1.0
1117096871,-2.48866,-2.5774,25.1544,1.0
1117107568,-2.51949,-2.60935,25.1601,1.0
1117118262,-2.54882,-2.63973,25.1587,1.0
1117407976,-2.903,-3.00641,25.1358,1.0
1117418686,-2.89709,-3.00052,25.1758,1.0
1117429519,-2.88951,-2.99267,25.1773,1.0
1117440213,-2.87983,-2.98254,25.1558,1.0
1117450916,-2.86936,-2.97172,25.1601,1.0
1117461631,-2.85882,-2.96076,25.1515,1.0
1117472324,-2.85038,-2.95194,25.133,1.0
1117483015,-2.84568,-2.9472,25.1587,1.0
1117493724,-2.84308,-2.94457,25.1715,1.0
1117504502,-2.84138,-2.94273,25.1558,1.0
1117536682,-2.84007,-2.94129,25.1415,1.0
1117547402,-2.84174,-2.94301,25.1372,1.0
1117558114,-2.84,-2.94134,25.163,1.0
1117568901,-2.83296,-2.93399,25.1515,1.0
1117858595,-2.65553,-2.75026,25.1544,1.0
1117869289,-2.66014,-2.75502,25.1515,1.0
1117879979,-2.66339,-2.75841,25.1558,1.0
1117890704,-2.66651,-2.76164,25.1573,1.0
1117901442,-2.66932,-2.76452,25.1558,1.0
1117912164,-2.67187,-2.76717,25.1558,1.0
1117922946,-2.67436,-2.76972,25.1515,1.0
1117933635,-2.67889,-2.77433,25.133,1.0
1117944324,-2.68751,-2.78329,25.1415,1.0
1118008647,-2.72282,-2.81991,25.1587,1.0
1118019345,-2.73304,-2.83058,25.163,1.0
1118030101,-2.74464,-2.84244,25.133,1.0
1118040836,-2.75582,-2.85414,25.1558,1.0
1118352383,-2.53221,-2.6225,25.153,1.0
1118363107,-2.53093,-2.6211,25.1358,1.0
1118373815,-2.53062,-2.62087,25.1558,1.0
1118384572,-2.52963,-2.61978,25.1387,1.0
1118395268,-2.53022,-2.62034,25.1272,1.0
1118406015,-2.53389,-2.62428,25.1587,1.0
1118416709,-2.53664,-2.62722,25.1787,1.0
1118427402,-2.53537,-2.62584,25.1644,1.0
1118438113,-2.53031,-2.62066,25.1787,1.0
1118448806,-2.52161,-2.61163,25.1715,1.0
1118491706,-2.46131,-2.54903,25.1372,1.0
1118502487,-2.44768,-2.53486,25.1315,1.0
1118513298,-2.43673,-2.52355,25.1358,1.0
1118524023,-2.42743,-2.51401,25.1587,1.0
1118835299,-2.28625,-2.36769,25.1401,1.0
1118846025,-2.24882,-2.329,25.1601,1.0
1118856812,-2.21285,-2.29174,25.1544,1.0
1118867536,-2.17974,-2.25743,25.153,1.0
1118878330,-2.1476,-2.2242,25.1673,1.0
1118889072,-2.11355,-2.18896,25.1744,1.0
1118899840,-2.07897,-2.15309,25.1601,1.0
1118910556,-2.04682,-2.11977,25.153,1.0
1118921281,-2.01663,-2.0885,25.1501,1.0
1118942691,-1.94862,-2.01801,25.1358,1.0
1118953503,-1.90835,-1.97632,25.1387,1.0
1118964233,-1.86022,-1.92654,25.1573,1.0
1118974947,-1.80358,-1.86787,25.1544,1.0
1119275506,1.34988,1.39803,25.1615,1.0
1119286197,1.45057,1.50225,25.1358,1.0
1119297029,1.54458,1.59958,25.1301,1.0
1119307796,1.63199,1.69017,25.1544,1.0
1119318489,1.71443,1.77548,25.1315,1.0
1119329206,1.78956,1.85331,25.1372,1.0
1119339931,1.85481,1.92093,25.1558,1.0
1119350678,1.9123,1.98053,25.1744,1.0
1119361531,1.96425,2.03435,25.1787,1.0
1119372264,2.01281,2.08464,25.1773,1.0
1119415145,2.18633,2.26427,25.1558,1.0
1119425838,2.22667,2.30602,25.1444,1.0
1119436565,2.27269,2.35374,25.1587,1.0
1119447278,2.32231,2.40514,25.1601,1.0
1119758673,3.22482,3.33979,25.143,1.0
1119769369,3.23532,3.35074,25.1558,1.0
1119780133,3.2425,3.35816,25.153,1.0
1119790822,3.25082,3.36678,25.1544,1.0
1119801518,3.26162,3.37808,25.173,1.0
1119812211,3.27493,3.39172,25.1487,1.0
1119822988,3.28978,3.40714,25.1544,1.0
1119833680,3.30579,3.42376,25.1615,1.0
1119844371,3.32158,3.43994,25.1372,1.0
1119898194,3.37066,3.49074,25.133,1.0
1119908916,3.38431,3.50497,25.1458,1.0
1119919658,3.39774,3.51894,25.1558,1.0
1119930396,3.40589,3.52737,25.1544,1.0
1120209216,3.65774,3.78814,25.153,1.0
1120219911,3.65821,3.78855,25.1401,1.0
1120230651,3.65942,3.78988,25.153,1.0
1120241428,3.65913,3.78943,25.1287,1.0
1120252149,3.65684,3.7871,25.1344,1.0
1120262877,3.65707,3.78756,25.1701,1.0
1120273606,3.66344,3.79424,25.183,1.0
1120284376,3.67223,3.80317,25.1558,1.0
1120295139,3.67845,3.80962,25.1558,1.0
1120305894,3.68043,3.81156,25.1387,1.0
1120338011,3.65989,3.79042,25.1587,1.0
1120348798,3.64527,3.77514,25.1372,1.0
1120359529,3.62596,3.75525,25.1544,1.0
1120370326,3.60687,3.73565,25.1816,1.0
1120649522,3.49195,3.6165,25.1601,1.0
1120660265,3.50115,3.626,25.1558,1.0
1120671086,3.51051,3.63556,25.133,1.0
1120681824,3.52077,3.64618,25.1315,1.0
1120692576,3.53459,3.66061,25.1515,1.0
1120703302,3.55252,3.67925,25.1587,1.0
1120714119,3.57277,3.7002,25.1558,1.0
1120724833,3.59451,3.72286,25.1787,1.0
1120735626,3.61782,3.74685,25.153,1.0
1120800086,3.7957,3.93107,25.153,1.0
1120810817,3.82476,3.96113,25.153,1.0
1120821514,3.85577,3.99329,25.1601,1.0
1120832339,3.89168,4.03062,25.1801,1.0
1121111262,4.11052,4.25711,25.1487,1.0
1121122023,4.0964,4.24249,25.1487,1.0
1121132772,4.08157,4.2271,25.1544,1.0
1121143466,4.06717,4.21217,25.1515,1.0
1121154160,4.05556,4.20006,25.1387,1.0
1121164914,4.04748,4.19163,25.1287,1.0
1121175766,4.04185,4.18604,25.1644,1.0
1121186559,4.03832,4.1822,25.1401,1.0
1121197302,4.03494,4.17877,25.1501,1.0
1121208003,4.02737,4.17094,25.153,1.0
1121250887,3.95393,4.09494,25.1515,1.0
1121261577,3.93008,4.07029,25.1601,1.0
1121272269,3.90158,4.04076,25.1573,1.0
1121282960,3.8669,4.00465,25.1272,1.0
1121573005,3.7957,3.93102,25.153,1.0
1121583728,3.80427,3.93979,25.1358,1.0
1121594435,3.80812,3.94388,25.153,1.0
1121605128,3.80989,3.94572,25.153,1.0
1121615822,3.81207,3.94801,25.1573,1.0
1121626512,3.81555,3.95156,25.1501,1.0
1121637228,3.81887,3.95493,25.1415,1.0
1121648002,3.8216,3.95779,25.1458,1.0
1121658707,3.8277,3.96419,25.1587,1.0
1121690875,3.88511,4.02367,25.1587,1.0
1121701765,3.90568,4.04495,25.1558,1.0
1121712571,3.92354,4.06348,25.1601,1.0
1121723274,3.94285,4.08328,25.1315,1.0
1122013032,3.91369,4.05321,25.1401,1.0
1122023720,3.89779,4.03676,25.143,1.0
1122034410,3.87704,4.01523,25.1358,1.0
1122045222,3.85541,3.99284,25.1387,1.0
1122055963,3.83788,3.97484,25.1544,1.0
1122066653,3.8258,3.96232,25.153,1.0
1122077354,3.81629,3.95247,25.1544,1.0
1122088183,3.80638,3.94219,25.1515,1.0
1122098941,3.79522,3.93066,25.1544,1.0
1122109651,3.78394,3.9189,25.153,1.0
1122163366,3.73548,3.86873,25.1587,1.0
1122174060,3.729,3.862,25.1558,1.0
1122184757,3.72037,3.85297,25.1415,1.0
1122195451,3.71133,3.84369,25.1544,1.0
1122206143,3.70545,3.83746,25.1315,1.0
1122496133,4.11856,4.26545,25.153,1.0
1122506872,4.11961,4.26651,25.1501,1.0
1122517567,4.11634,4.263,25.1315,1.0
1122528266,4.11194,4.25849,25.1387,1.0
1122538988,4.10808,4.25444,25.1358,1.0
1122549677,4.10521,4.25163,25.1587,1.0
1122560378,4.10275,4.24889,25.133,1.0
1122571096,4.098,4.24414,25.1558,1.0
1122581826,4.08906,4.23489,25.1558,1.0
1122635589,4.03475,4.17853,25.1344,1.0
1122646335,4.03204,4.17589,25.1558,1.0
1122657044,4.03204,4.17584,25.1501,1.0
1122667802,4.03254,4.17623,25.1301,1.0
1122946842,4.11943,4.26631,25.153,1.0
1122957541,4.11208,4.25859,25.1387,1.0
1122968334,4.10214,4.24843,25.1558,1.0
1122979118,4.08936,4.23514,25.1501,1.0
1122989869,4.07513,4.22045,25.1558,1.0
1123000592,4.06237,4.20725,25.1573,1.0
1123011327,4.05413,4.19854,25.133,1.0
1123022073,4.04945,4.19392,25.1515,1.0
1123032824,4.04622,4.19077,25.1787,1.0
1123064952,4.04717,4.19156,25.1501,1.0
1123075769,4.04396,4.18824,25.1615,1.0
1123086540,4.03887,4.1829,25.153,1.0
1123097302,4.03428,4.17804,25.1372,1.0
1123387028,3.85316,3.99077,25.1787,1.0
1123397775,3.83366,3.97053,25.173,1.0
1123408472,3.81701,3.9532,25.1587,1.0
1123419313,3.80453,3.94041,25.1773,1.0
1123430022,3.79732,3.93293,25.1773,1.0
1123440754,3.79349,3.92897,25.1787,1.0
1123451449,3.79056,3.92582,25.1601,1.0
1123462144,3.78577,3.92081,25.1558,1.0
1123472837,3.7786,3.91333,25.1487,1.0
1123483527,3.77273,3.90729,25.1544,1.0
1123537131,3.79823,3.93369,25.1558,1.0
1123547939,3.8109,3.94662,25.1272,1.0
1123558685,3.82271,3.95905,25.1573,1.0
1123569428,3.83248,3.96917,25.1544,1.0
1123580168,3.84087,3.97784,25.153,1.0
1123859408,4.09052,4.23644,25.1587,1.0
1123870234,4.0868,4.23242,25.1344,1.0
1123880995,4.08234,4.2278,25.1344,1.0
1123891693,4.07718,4.22262,25.1558,1.0
1123902532,4.07302,4.21829,25.1515,1.0
1123913268,4.07369,4.21906,25.163,1.0
1123924059,4.07861,4.22399,25.1401,1.0
1123934786,4.08002,4.22552,25.1501,1.0
1123945520,4.07397,4.21923,25.1515,1.0
1123988449,4.0705,4.21566,25.1544,1.0
1123999143,4.07807,4.2235,25.1544,1.0
1124009844,4.08227,4.22783,25.1515,1.0
1124020593,4.08416,4.22978,25.1501,1.0
1124321196,3.7131,3.84542,25.1387,1.0
1124331931,3.72119,3.85392,25.1587,1.0
1124342627,3.73589,3.86911,25.153,1.0
1124353340,3.75651,3.89044,25.1501,1.0
1124364032,3.78106,3.91587,25.1501,1.0
1124374726,3.80627,3.94202,25.1558,1.0
1124385437,3.83036,3.96698,25.1573,1.0
1124396218,3.85431,3.99175,25.153,1.0
1124406931,3.88062,4.01903,25.1573,1.0
1124439043,3.97235,4.11414,25.1801,1.0
1124449880,4.00201,4.1447,25.1573,1.0
1124460586,4.03395,4.17779,25.1587,1.0
1124471338,4.0685,4.21339,25.133,1.0
1124761182,4.24885,4.40057,25.1787,1.0
1124771916,4.2339,4.38489,25.1515,1.0
1124782652,4.21457,4.36471,25.1301,1.0
1124793390,4.19214,4.34167,25.1558,1.0
1124804172,4.17006,4.31882,25.1544,1.0
1124814864,4.14975,4.29782,25.1587,1.0
1124825552,4.13094,4.27821,25.1401,1.0
1124836263,4.11152,4.25818,25.153,1.0
1124846952,4.08893,4.23469,25.1387,1.0
1124900567,3.97107,4.11269,25.1544,1.0
1124911270,3.95924,4.10032,25.1387,1.0
1124922056,3.94547,4.086,25.1301,1.0
1124932777,3.92498,4.0648,25.133,1.0
1124943524,3.89746,4.0363,25.1315,1.0
1125286841,3.84627,3.98345,25.1558,1.0
1125297597,3.85382,3.99122,25.1487,1.0
1125308287,3.86257,4.00032,25.1544,1.0
1125318982,3.87877,4.01713,25.1587,1.0
1125329707,3.90264,4.04183,25.1558,1.0
1125340481,3.93045,4.07066,25.1558,1.0
1125351320,3.95852,4.09991,25.1816,1.0
1125362042,3.9846,4.12676,25.1587,1.0
1125372790,4.00866,4.15179,25.173,1.0
1125383514,4.03207,4.17582,25.1444,1.0
1125426499,4.09678,4.24296,25.1601,1.0
1125437229,4.11051,4.25702,25.1372,1.0
1125447996,4.12343,4.27039,25.1358,1.0
1125458763,4.13185,4.27948,25.1873,1.0
1125737813,3.90736,4.04673,25.1544,1.0
1125748533,3.89733,4.03621,25.133,1.0
1125759310,3.88934,4.02807,25.1544,1.0
1125770011,3.8823,4.02062,25.1315,1.0
1125780754,3.87343,4.01159,25.1544,1.0
1125791491,3.86436,4.00221,25.1558,1.0
1125802208,3.86011,3.99778,25.1515,1.0
1125812907,3.86294,4.00075,25.1587,1.0
1125823638,3.86951,4.00751,25.1544,1.0
1125834326,3.87491,4.01312,25.1558,1.0
1125877172,3.88435,4.0229,25.1558,1.0
1125887860,3.89826,4.03731,25.1558,1.0
1125898549,3.91547,4.05515,25.1587,1.0
1125909285,3.93427,4.07447,25.1358,1.0
1126188266,4.26793,4.42018,25.1544,1.0
1126199001,4.2586,4.41054,25.1573,1.0
1126209704,4.24855,4.40007,25.153,1.0
1126220556,4.23937,4.39056,25.1515,1.0
1126231317,4.23097,4.38188,25.1544,1.0
1126242087,4.22185,4.37248,25.1601,1.0
1126252852,4.21197,4.36207,25.1372,1.0
1126263665,4.20187,4.35173,25.1558,1.0
1126274449,4.19139,4.341,25.173,1.0
1126338891,4.15966,4.30806,25.1558,1.0
1126349626,4.15039,4.29844,25.153,1.0
1126360399,4.14352,4.2914,25.1644,1.0
1126371095,4.14023,4.28802,25.1715,1.0
1126660749,4.00632,4.14918,25.1544,1.0
1126671440,3.99518,4.13751,25.133,1.0
1126682233,3.97967,4.12164,25.1615,1.0
1126692943,3.96067,4.10195,25.1458,1.0
1126703649,3.94049,4.08112,25.1558,1.0
1126714372,3.92207,4.06204,25.1558,1.0
1126725079,3.90747,4.04696,25.1615,1.0
1126735860,3.89818,4.03725,25.1501,1.0
1126746590,3.89214,4.03115,25.1758,1.0
1126789614,3.84685,3.98395,25.133,1.0
1126800386,3.84177,3.97885,25.1558,1.0
1126811092,3.84269,3.97979,25.1544,1.0
1126821829,3.8447,3.98181,25.1458,1.0
1127100992,4.01347,4.15667,25.1573,1.0
1127111718,4.00383,4.14666,25.153,1.0
1127122417,3.99393,4.13645,25.1587,1.0
1127133169,3.98747,4.12976,25.1587,1.0
1127143904,3.98322,4.1253,25.1501,1.0
1127154617,3.97809,4.12001,25.153,1.0
1127165353,3.96956,4.11119,25.1558,1.0
1127176138,3.96308,4.10446,25.153,1.0
1127186837,3.96838,4.10994,25.153,1.0
1127197604,3.98729,4.12972,25.1801,1.0
1127229751,4.06162,4.20653,25.1501,1.0
1127240645,4.07686,4.22232,25.153,1.0
1127251353,4.08946,4.23536,25.1501,1.0
1127262081,4.10192,4.24818,25.1387,1.0
1127272794,4.11558,4.26241,25.1501,1.0
1127541268,3.9618,4.1032,25.1701,1.0
1127551962,3.96152,4.10288,25.1587,1.0
1127562657,3.95863,4.09976,25.1401,1.0
1127573398,3.9496,4.09035,25.1315,1.0
1127584146,3.93489,4.0753,25.1587,1.0
1127594850,3.91688,4.05662,25.1573,1.0
1127605613,3.8972,4.0362,25.1501,1.0
1127616312,3.87811,4.01659,25.1758,1.0
1127627040,3.86092,3.99862,25.1501,1.0
1127637817,3.84604,3.98325,25.1558,1.0
1127691503,3.78937,3.92446,25.1344,1.0
1127702302,3.77567,3.91028,25.1358,1.0
1127713007,3.76158,3.89566,25.1358,1.0
1127723736,3.74522,3.87867,25.1287,1.0
1128078323,4.07128,4.21643,25.1401,1.0
1128089028,4.08541,4.23115,25.153,1.0
1128099727,4.0969,4.24308,25.1558,1.0
1128110486,4.10635,4.25286,25.1558,1.0
1128121202,4.11492,4.26178,25.1615,1.0
1128131976,4.12368,4.27083,25.1587,1.0
1128142667,4.13426,4.2818,25.1601,1.0
1128153357,4.1468,4.29461,25.1372,1.0
1128164060,4.16047,4.30888,25.153,1.0
1128174753,4.17411,4.3229,25.1387,1.0
1128196200,4.20309,4.35292,25.1387,1.0
1128206920,4.22028,4.37073,25.1387,1.0
1128217638,4.23892,4.39013,25.1515,1.0
1128228367,4.2581,4.4102,25.1787,1.0
1128518128,4.21252,4.36285,25.1573,1.0
1128528827,4.23199,4.38283,25.1315,1.0
1128539533,4.25104,4.4027,25.1515,1.0
1128550267,4.26343,4.41557,25.1558,1.0
1128560959,4.26679,4.41892,25.1387,1.0
1128571725,4.26354,4.41574,25.163,1.0
1128582421,4.2581,4.41002,25.1558,1.0
1128593150,4.25413,4.4059,25.1544,1.0
1128603917,4.25216,4.40387,25.1558,1.0
1128668151,4.19939,4.34909,25.133,1.0
1128678864,4.20064,4.35037,25.1358,1.0
1128689567,4.20119,4.35122,25.173,1.0
1128700335,4.20473,4.35475,25.1544,1.0
1128968241,4.24309,4.39433,25.1358,1.0
1128978943,4.22951,4.3804,25.153,1.0
1128989632,4.21435,4.36467,25.1501,1.0
1129000351,4.19454,4.34409,25.1401,1.0
1129011046,4.16788,4.31658,25.1515,1.0
1129021855,4.13791,4.28558,25.1558,1.0
1129032635,4.11214,4.25885,25.1515,1.0
1129043361,4.09411,4.24035,25.1758,1.0
1129054084,4.08365,4.22936,25.153,1.0
1129064877,4.07775,4.22317,25.1415,1.0
1129118580,4.05803,4.20283,25.1544,1.0
1129129308,4.0616,4.20654,25.1558,1.0
1129140030,4.06602,4.21116,25.163,1.0
1129150751,4.07081,4.2162,25.173,1.0
1129440806,4.17439,4.32341,25.1615,1.0
1129451631,4.19893,4.34877,25.153,1.0
1129462356,4.21905,4.36975,25.173,1.0
1129473087,4.23376,4.38486,25.1558,1.0
1129483811,4.24546,4.39683,25.1401,1.0
1129494571,4.25785,4.40977,25.1544,1.0
1129505327,4.27138,4.4236,25.1301,1.0
1129516127,4.2836,4.43627,25.1315,1.0
1129526820,4.29292,4.44605,25.1501,1.0
1129559019,4.29971,4.45312,25.1487,1.0
1129569742,4.2963,4.44964,25.1558,1.0
1129580433,4.29127,4.44443,25.1558,1.0
1129591126,4.28251,4.43536,25.1558,1.0
1129601819,4.27048,4.42288,25.1587,1.0
1129880990,3.65172,3.78207,25.1601,1.0
1129891742,3.65648,3.78688,25.1401,1.0
1129902522,3.65974,3.79032,25.1501,1.0
1129913271,3.66617,3.79691,25.1401,1.0
1129923964,3.67706,3.80819,25.1401,1.0
1129934710,3.69011,3.82183,25.1558,1.0
1129945402,3.70005,3.83213,25.1558,1.0
1129956093,3.70295,3.83517,25.1615,1.0
1129966786,3.70198,3.83427,25.1773,1.0
1130020399,3.75019,3.88398,25.1487,1.0
1130031170,3.76397,3.89819,25.1387,1.0
1130042012,3.78081,3.91568,25.1458,1.0
1130052744,3.79874,3.93431,25.1558,1.0
1130331557,3.78073,3.91569,25.1544,1.0
1130342287,3.78327,3.91829,25.1515,1.0
1130353013,3.79041,3.9256,25.1372,1.0
1130363714,3.79449,3.92976,25.1344,1.0
1130374411,3.79582,3.93127,25.1544,1.0
1130385109,3.80057,3.93608,25.1372,1.0
1130395800,3.8136,3.94969,25.1544,1.0
1130406518,3.8345,3.9712,25.1358,1.0
1130417237,3.85571,3.99316,25.1315,1.0
1130470927,3.93385,4.07438,25.1816,1.0
1130481709,3.96254,4.10379,25.1372,1.0
1130492406,3.98392,4.12593,25.1358,1.0
1130503191,3.99731,4.13993,25.1558,1.0
1130513908,4.00657,4.14941,25.1401,1.0
1130814441,3.81252,3.94855,25.1501,1.0
1130825224,3.80909,3.94506,25.1601,1.0
1130835918,3.81328,3.9494,25.1601,1.0
1130846640,3.82453,3.96106,25.1615,1.0
1130857341,3.84084,3.97783,25.1472,1.0
1130868214,3.85938,3.99708,25.1558,1.0
1130878936,3.88075,4.01923,25.1573,1.0
1130889672,3.9087,4.0483,25.1758,1.0
1130900381,3.9434,4.08406,25.1501,1.0
1130943524,4.03958,4.18354,25.133,1.0
1130954311,4.05105,4.19558,25.1558,1.0
1130965124,4.06716,4.21231,25.1558,1.0
1130975824,4.08734,4.23307,25.1358,1.0
1131254943,4.05642,4.20121,25.1558,1.0
1131265769,4.04697,4.1913,25.1372,1.0
1131276582,4.0364,4.18051,25.1601,1.0
1131287362,4.02411,4.16759,25.1387,1.0
1131298051,4.01022,4.1533,25.153,1.0
1131308761,3.99687,4.13949,25.1558,1.0
1131319481,3.98333,4.12538,25.1415,1.0
1131330174,3.96774,4.10934,25.1573,1.0
1131340909,3.95067,4.09164,25.1558,1.0
1131351656,3.93276,4.07314,25.163,1.0
1131394569,3.91555,4.05527,25.1558,1.0
1131405344,3.91992,4.05978,25.1515,1.0
1131416150,3.91728,4.05696,25.1401,1.0
1131426915,3.9082,4.04771,25.1615,1.0
1131706128,3.89675,4.03581,25.1501,1.0
1131716863,3.90169,4.04093,25.1515,1.0
1131727570,3.90962,4.04917,25.1558,1.0
1131738370,3.92118,4.06111,25.1515,1.0
1131749061,3.93368,4.07393,25.133,1.0
1131759753,3.94292,4.08361,25.1501,1.0
1131770448,3.94781,4.08868,25.153,1.0
1131781197,3.95098,4.09195,25.1515,1.0
1131791895,3.95523,4.09636,25.1515,1.0
1131856268,3.98815,4.13043,25.1487,1.0
1131867067,3.99101,4.13328,25.133,1.0
1131877758,3.9913,4.13375,25.1515,1.0
1131888489,3.99116,4.13351,25.1372,1.0
1131899256,3.99333,4.13584,25.1501,1.0
1132189000,4.04832,4.19279,25.1544,1.0
1132199917,4.03594,4.17992,25.1501,1.0
1132210618,4.02233,4.16588,25.1573,1.0
1132221331,4.0121,4.15524,25.1515,1.0
1132232046,4.00755,4.15055,25.1544,1.0
1132242780,4.00688,4.14972,25.1344,1.0
1132253552,4.00465,4.14736,25.1358,1.0
1132264330,3.99839,4.14099,25.1515,1.0
1132275028,3.99015,4.13248,25.1558,1.0
1132307210,3.98859,4.13069,25.133,1.0
1132317944,3.9919,4.13429,25.1587,1.0
1132328658,3.99473,4.13707,25.1358,1.0
1132339413,4.0011,4.14368,25.1372,1.0
1132350115,4.01302,4.15611,25.1487,1.0
1132629225,4.21272,4.36319,25.1715,1.0
1132639920,4.2051,4.35517,25.153,1.0
1132650703,4.19699,4.34673,25.1515,1.0
1132661482,4.19058,4.3401,25.153,1.0
1132672176,4.18838,4.33788,25.1601,1.0
1132682864,4.18928,4.33874,25.1501,1.0
1132693626,4.18914,4.33844,25.1372,1.0
1132704423,4.18347,4.33256,25.1358,1.0
1132715240,4.17065,4.31941,25.153,1.0
1132768902,4.18256,4.3318,25.1544,1.0
1132779595,4.18908,4.33846,25.1415,1.0
1132790315,4.19882,4.34863,25.153,1.0
1132801014,4.21523,4.36545,25.1287,1.0
1133080025,4.31265,4.46674,25.1816,1.0
1133090723,4.29267,4.44571,25.1358,1.0
1133101452,4.27253,4.42499,25.1544,1.0
1133112148,4.25384,4.40563,25.1558,1.0
1133122897,4.23581,4.38684,25.1387,1.0
1133133698,4.21484,4.36523,25.153,1.0
1133144440,4.19114,4.34055,25.1344,1.0
1133155206,4.16915,4.31791,25.153,1.0
1133165921,4.15221,4.30024,25.1358,1.0
1133240933,4.04676,4.19101,25.1387,1.0
1133251662,4.03047,4.17426,25.1558,1.0
1133262391,4.01243,4.1556,25.1587,1.0
1133273101,3.99251,4.13497,25.1601,1.0
1133573442,3.72478,3.85777,25.1615,1.0
1133584132,3.73392,3.86708,25.1372,1.0
1133594857,3.74167,3.87523,25.1558,1.0
1133605568,3.74515,3.87868,25.133,1.0
1133616382,3.7457,3.87943,25.1601,1.0
1133627095,3.74602,3.87973,25.1544,1.0
1133637819,3.7485,3.88234,25.1615,1.0
1133648565,3.75573,3.88979,25.1558,1.0
1133659295,3.76448,3.89887,25.1644,1.0
1133713069,3.7861,3.92119,25.1558,1.0
1133723812,3.80011,3.93571,25.1573,1.0
1133734579,3.81627,3.95244,25.1573,1.0
1133745308,3.83153,3.96824,25.1558,1.0
1134013642,4.11508,4.26187,25.1515,1.0
1134024370,4.13368,4.28112,25.1501,1.0
1134035070,4.15497,4.3032,25.1601,1.0
1134045813,4.17591,4.32471,25.1358,1.0
1134056526,4.19147,4.34081,25.133,1.0
1134067355,4.20157,4.35125,25.1315,1.0
1134078165,4.21113,4.3613,25.1515,1.0
1134088856,4.22307,4.37361,25.1358,1.0
1134099551,4.23635,4.38749,25.153,1.0
1134110336,4.24949,4.40111,25.1544,1.0
1134153141,4.30894,4.46263,25.1501,1.0
1134163839,4.32284,4.47707,25.1544,1.0
1134174542,4.33561,4.49029,25.1558,1.0
1134185292,4.34706,4.50203,25.1372,1.0
1134196021,4.35416,4.50935,25.133,1.0
1134464529,4.13354,4.28116,25.173,1.0
1134475334,4.10737,4.25403,25.1715,1.0
1134486026,4.07987,4.22557,25.173,1.0
1134496753,4.05184,4.19642,25.1558,1.0
1134507444,4.02602,4.16959,25.1444,1.0
1134518304,4.00452,4.14748,25.163,1.0
1134529138,3.98477,4.12696,25.153,1.0
1134539837,3.96406,4.10551,25.153,1.0
1134550562,3.94331,4.08404,25.1558,1.0
1134561299,3.92451,4.06457,25.1558,1.0
1134614777,3.92648,4.06644,25.133,1.0
1134625465,3.93863,4.07928,25.1701,1.0
1134636159,3.95324,4.09434,25.1587,1.0
1134646960,3.96727,4.10876,25.1415,1.0
1134936744,4.18869,4.33811,25.1515,1.0
1134947517,4.1759,4.32487,25.1515,1.0
1134958215,4.16246,4.31083,25.133,1.0
1134968956,4.15118,4.29916,25.1358,1.0
1134979651,4.14082,4.28844,25.1358,1.0
1134990503,4.13094,4.27834,25.1544,1.0
1135001206,4.12603,4.27309,25.1315,1.0
1135011978,4.12725,4.27453,25.1558,1.0
1135022691,4.12899,4.27617,25.133,1.0
1135065638,4.13297,4.28044,25.1515,1.0
1135076330,4.14514,4.29309,25.1587,1.0
1135087024,4.15416,4.3024,25.1544,1.0
1135097714,4.16114,4.30965,25.1558,1.0
1135108407,4.17042,4.31926,25.1558,1.0
1135376636,4.09701,4.24318,25.1587,1.0
1135387341,4.08431,4.23008,25.1615,1.0
1135398109,4.07286,4.21835,25.1787,1.0
1135408898,4.06416,4.20932,25.1773,1.0
1135419677,4.05871,4.20353,25.1558,1.0
1135430370,4.05745,4.20236,25.1758,1.0
1135441066,4.06039,4.20547,25.1787,1.0
1135451767,4.06588,4.21116,25.1787,1.0
1135462458,4.07187,4.21732,25.173,1.0
1135473169,4.07627,4.22157,25.1272,1.0
1135516084,4.05086,4.19528,25.133,1.0
1135526812,4.0302,4.174,25.1515,1.0
1135537627,4.01041,4.15352,25.1544,1.0
1135548411,3.99468,4.13725,25.1573,1.0
1135848888,3.94309,4.08394,25.173,1.0
1135859629,3.93117,4.07146,25.1544,1.0
1135870319,3.92177,4.06176,25.1601,1.0
1135881085,3.9109,4.05047,25.1558,1.0
1135891774,3.89686,4.03592,25.153,1.0
1135902589,3.88228,4.02075,25.143,1.0
1135913279,3.87247,4.01066,25.1558,1.0
1135923984,3.87099,4.00913,25.1587,1.0
1135934788,3.87646,4.01478,25.1558,1.0
1135977715,3.88396,4.02262,25.1573,1.0
1135988411,3.88853,4.02733,25.153,1.0
1135999106,3.8911,4.03002,25.1573,1.0
1136009800,3.88828,4.02707,25.153,1.0
1136331407,4.19046,4.33999,25.153,1.0
1136342153,4.20266,4.35264,25.1558,1.0
1136352855,4.21467,4.36506,25.1558,1.0
1136363607,4.22554,4.37627,25.1487,1.0
1136374318,4.23448,4.38562,25.1615,1.0
1136385015,4.24063,4.39178,25.133,1.0
1136395774,4.24192,4.39316,25.1401,1.0
1136406519,4.23962,4.39088,25.153,1.0
1136417273,4.23768,4.38875,25.1358,1.0
1136471018,4.25275,4.40447,25.1544,1.0
1136481779,4.25632,4.40818,25.1558,1.0
1136492500,4.26353,4.41563,25.153,1.0
1136503197,4.27237,4.42482,25.1587,1.0
1136771827,4.18964,4.33911,25.143,1.0
1136782536,4.19596,4.3457,25.153,1.0
1136793270,4.19902,4.34885,25.1501,1.0
1136803957,4.20006,4.34992,25.1501,1.0
1136814648,4.20177,4.35173,25.1544,1.0
1136825337,4.20663,4.35672,25.1487,1.0
1136836028,4.21344,4.36377,25.1558,1.0
1136846808,4.21966,4.37021,25.1558,1.0
1136857542,4.22548,4.37625,25.1573,1.0
1136911196,4.28167,4.43432,25.1358,1.0
1136921924,4.28268,4.43547,25.1501,1.0
1136932676,4.28732,4.44017,25.1344,1.0
1136943459,4.29771,4.45107,25.1558,1.0
1137222547,4.02192,4.16551,25.1558,1.0
1137233271,4.009,4.15232,25.183,1.0
1137243961,4.00079,4.14366,25.1601,1.0
1137254770,3.99431,4.13679,25.1372,1.0
1137265512,3.98435,4.12635,25.1272,1.0
1137276263,3.96961,4.1111,25.1301,1.0
1137286978,3.95272,4.09377,25.153,1.0
1137297746,3.93641,4.07677,25.1372,1.0
1137308464,3.92271,4.06272,25.1573,1.0
1137319155,3.91187,4.05144,25.153,1.0
1137372691,3.87414,4.01253,25.1744,1.0
1137383478,3.8695,4.00762,25.1587,1.0
1137394199,3.86229,4.00002,25.1387,1.0
1137404890,3.85206,3.98957,25.1601,1.0
1137683967,4.21774,4.36822,25.1544,1.0
1137694696,4.22164,4.37247,25.1816,1.0
1137705389,4.22513,4.37607,25.1801,1.0
1137716184,4.22646,4.37723,25.1501,1.0
1137726883,4.22396,4.37469,25.1558,1.0
1137737594,4.21818,4.36857,25.1387,1.0
1137748288,4.21132,4.36151,25.1358,1.0
1137758979,4.20563,4.35564,25.1387,1.0
1137769667,4.20229,4.35233,25.1587,1.0
1137780354,4.20321,4.35314,25.1401,1.0
1137823371,4.21609,4.36639,25.133,1.0
1137834061,4.21799,4.3685,25.153,1.0
1137844869,4.22102,4.37167,25.1558,1.0
1137855606,4.22471,4.37549,25.1558,1.0
1138134361,4.15476,4.30296,25.1544,1.0
1138145079,4.15702,4.30518,25.1358,1.0
1138155886,4.15557,4.30386,25.1615,1.0
1138166623,4.15054,4.29863,25.1587,1.0
1138177384,4.14299,4.29062,25.1315,1.0
1138188122,4.13205,4.27926,25.1287,1.0
1138198892,4.11709,4.26396,25.1544,1.0
1138209612,4.10089,4.24705,25.1372,1.0
1138220333,4.08598,4.23161,25.1358,1.0
1138263312,4.03086,4.17452,25.1287,1.0
1138274049,4.00926,4.15233,25.1558,1.0
1138284746,3.99018,4.13246,25.1358,1.0
1138295439,3.97455,4.11642,25.1573,1.0
1138306133,3.96169,4.10309,25.1558,1.0
1138585368,3.97043,4.11201,25.1387,1.0
1138596112,3.9725,4.11425,25.153,1.0
1138606818,3.9794,4.12126,25.133,1.0
1138617576,3.98547,4.12775,25.1644,1.0
1138628270,3.98825,4.13068,25.1701,1.0
1138638965,3.99086,4.13344,25.1787,1.0
1138649661,3.99593,4.13855,25.1573,1.0
1138660353,4.00343,4.14632,25.1601,1.0
1138671076,4.01047,4.15343,25.1344,1.0
1138724726,4.01345,4.1567,25.1587,1.0
1138735508,4.0183,4.16184,25.1758,1.0
1138746288,4.0258,4.1695,25.1601,1.0
1138756991,4.03525,4.17926,25.1558,1.0
1139090040,4.2824,4.43519,25.1515,1.0
1139100792,4.27551,4.42789,25.1301,1.0
1139111553,4.26563,4.41782,25.1515,1.0
1139122306,4.25566,4.40738,25.1358,1.0
1139132994,4.24739,4.39892,25.1501,1.0
1139143710,4.24175,4.39308,25.1501,1.0
1139154404,4.23855,4.38964,25.1372,1.0
1139165224,4.23815,4.38933,25.1515,1.0
1139176009,4.24188,4.39305,25.133,1.0
1139229678,4.27311,4.42554,25.1515,1.0
1139240397,4.27586,4.4284,25.153,1.0
1139251151,4.27732,4.42998,25.1601,1.0
1139261931,4.2743,4.42671,25.1415,1.0
1139540559,4.17947,4.32854,25.153,1.0
1139551306,4.18858,4.33798,25.1544,1.0
1139562030,4.19937,4.34911,25.1487,1.0
1139572722,4.21143,4.36172,25.1501,1.0
1139583545,4.22631,4.37719,25.1587,1.0
1139594264,4.24505,4.3964,25.1301,1.0
1139604960,4.26501,4.41724,25.153,1.0
1139615719,4.28297,4.43583,25.1515,1.0
1139626415,4.29755,4.45082,25.1372,1.0
1139680162,4.35272,4.50807,25.153,1.0
1139690883,4.36477,4.52054,25.1558,1.0
1139701595,4.37739,4.53363,25.1587,1.0
1139712417,4.3906,4.54731,25.1587,1.0
1139980908,4.41135,4.56887,25.1601,1.0
1139991736,4.41401,4.57179,25.1801,1.0
1140002426,4.41374,4.57142,25.1744,1.0
1140013202,4.41021,4.56743,25.1315,1.0
1140023924,4.40557,4.56276,25.1501,1.0
1140034718,4.40319,4.56038,25.1601,1.0
1140045484,4.40161,4.55858,25.1387,1.0
1140056181,4.3965,4.5534,25.1558,1.0
1140066891,4.38766,4.54423,25.1544,1.0
1140077585,4.37568,4.53179,25.1501,1.0
1140120619,4.30665,4.46052,25.1758,1.0
1140131415,4.29565,4.4491,25.173,1.0
1140142159,4.28893,4.44199,25.153,1.0
1140152850,4.28621,4.4392,25.1573,1.0
1140163552,4.28729,4.44016,25.1358,1.0
1140453417,4.24224,4.39341,25.1301,1.0
1140464141,4.24213,4.39366,25.1787,1.0
1140474871,4.24214,4.39368,25.1801,1.0
1140485629,4.24194,4.39333,25.1544,1.0
1140496383,4.2411,4.39267,25.1816,1.0
1140507074,4.24142,4.39282,25.1573,1.0
1140517840,4.24281,4.39411,25.1372,1.0
1140528536,4.24382,4.39512,25.1315,1.0
1140539321,4.24441,4.39593,25.1587,1.0
1140550189,4.24428,4.39562,25.1358,1.0
1140593009,4.22876,4.3797,25.1558,1.0
1140603803,4.22451,4.37527,25.1558,1.0
1140614499,4.21928,4.36987,25.1587,1.0
1140625197,4.21272,4.36287,25.1287,1.0
1140894105,4.00495,4.14794,25.1615,1.0
1140904874,4.01697,4.16026,25.1415,1.0
1140915598,4.02346,4.16703,25.1558,1.0
1140926338,4.02051,4.16407,25.1701,1.0
1140937092,4.00838,4.15147,25.1644,1.0
1140947803,3.99327,4.13563,25.1358,1.0
1140958541,3.98221,4.1243,25.1544,1.0
1140969269,3.97505,4.11688,25.1544,1.0
1140979964,3.9663,4.10773,25.1415,1.0
1141023006,3.93534,4.0758,25.1558,1.0
1141033773,3.93416,4.07445,25.1358,1.0
1141044526,3.93152,4.07187,25.1587,1.0
1141055277,3.92932,4.06971,25.1758,1.0
1141377052,4.08958,4.23554,25.1558,1.0
1141387790,4.06787,4.213,25.1487,1.0
1141398516,4.05309,4.19797,25.1873,1.0
1141409220,4.04797,4.19234,25.153,1.0
1141420072,4.04467,4.18881,25.1372,1.0
1141430845,4.03793,4.18202,25.163,1.0
1141441549,4.03088,4.17482,25.1787,1.0
1141452275,4.02765,4.1714,25.153,1.0
1141462999,4.02846,4.17207,25.1301,1.0
1141473737,4.03192,4.17583,25.1544,1.0
1141516634,4.06522,4.21044,25.173,1.0
1141527423,4.08572,4.23169,25.1758,1.0
1141538169,4.10949,4.25616,25.1544,1.0
1141548859,4.13357,4.28111,25.1558,1.0
1141838831,4.3049,4.45838,25.143,1.0
1141849575,4.31602,4.47,25.1558,1.0
1141860281,4.3256,4.47966,25.1215,1.0
1141870969,4.33657,4.49128,25.1558,1.0
1141881725,4.35002,4.50518,25.1487,1.0
1141892419,4.36042,4.51585,25.1358,1.0
1141903111,4.36042,4.51603,25.1587,1.0
1141913812,4.35007,4.5053,25.1573,1.0
1141924508,4.3358,4.49049,25.1544,1.0
1141988760,4.25423,4.40579,25.1272,1.0
1141999454,4.23702,4.38814,25.1501,1.0
1142010194,4.22441,4.37491,25.1272,1.0
1142020907,4.21896,4.36928,25.1301,1.0
1142299889,4.31885,4.47298,25.1544,1.0
1142310667,4.32462,4.47896,25.1615,1.0
1142321400,4.33088,4.48558,25.1801,1.0
1142332089,4.3364,4.49115,25.1601,1.0
1142342791,4.34075,4.49563,25.1558,1.0
1142353479,4.34265,4.49757,25.153,1.0
1142364200,4.34217,4.4971,25.1544,1.0
1142374909,4.34066,4.49533,25.1272,1.0
1142385641,4.33822,4.49289,25.1372,1.0
1142439190,4.32014,4.47433,25.1587,1.0
1142449956,4.32299,4.47726,25.1558,1.0
1142460675,4.32724,4.48181,25.1758,1.0
1142471374,4.33049,4.48493,25.1487,1.0
1142750585,4.17513,4.32407,25.153,1.0
1142761271,4.16369,4.31242,25.1787,1.0
1142771967,4.15758,4.30604,25.173,1.0
1142782665,4.15446,4.30265,25.1501,1.0
1142793375,4.15133,4.2994,25.1472,1.0
1142804118,4.1469,4.29484,25.1515,1.0
1142814868,4.14031,4.28791,25.1372,1.0
1142825568,4.13332,4.28079,25.153,1.0
1142836262,4.12816,4.2755,25.1601,1.0
1142889874,4.12,4.26721,25.1744,1.0
1142900636,4.11245,4.25918,25.153,1.0
1142911326,4.1054,4.25174,25.133,1.0
1142922041,4.10061,4.24693,25.1544,1.0
1142932777,4.09825,4.24445,25.1501,1.0
1143222552,4.39804,4.55496,25.1487,1.0
1143233382,4.41754,4.57524,25.1601,1.0
1143244164,4.43892,4.59738,25.1587,1.0
1143254854,4.45888,4.61804,25.1573,1.0
1143265603,4.47501,4.63473,25.1558,1.0
1143276297,4.48908,4.64926,25.153,1.0
1143287061,4.50351,4.66426,25.1587,1.0
1143297774,4.51722,4.67829,25.1387,1.0
1143308501,4.52615,4.68773,25.1615,1.0
1143362220,4.55966,4.72262,25.1816,1.0
1143372911,4.56688,4.73,25.1687,1.0
1143383679,4.56805,4.73107,25.153,1.0
1143394485,4.56339,4.72607,25.1315,1.0
1143673556,4.09491,4.24107,25.1544,1.0
1143684310,4.07826,4.22383,25.1544,1.0
1143695000,4.06293,4.20813,25.1801,1.0
1143705691,4.05066,4.19544,25.1758,1.0
1143716409,4.04213,4.18649,25.1601,1.0
1143727174,4.0379,4.18207,25.1544,1.0
1143737869,4.03607,4.18013,25.1487,1.0
1143748584,4.03362,4.1776,25.1558,1.0
1143759277,4.03003,4.1739,25.1601,1.0
1143769993,4.02536,4.16894,25.1415,1.0
1143823639,3.99474,4.13734,25.1601,1.0
1143834333,3.98782,4.13005,25.1415,1.0
1143845089,3.97648,4.11838,25.1544,1.0
1143855867,3.96339,4.10465,25.1272,1.0
1144124282,4.2957,4.44973,25.2521,1.0
1144135015,4.31828,4.47311,25.2464,1.0
1144145712,4.34064,4.49615,25.2307,1.0
1144156454,4.35888,4.5154,25.2778,1.0
1144167148,4.3691,4.52594,25.2707,1.0
1144177842,4.37053,4.52717,25.2378,1.0
1144188541,4.36733,4.52378,25.2292,1.0
1144199279,4.36579,4.52233,25.2492,1.0
1144209974,4.36765,4.52341,25.1372,1.0
1144220678,4.36958,4.52555,25.1558,1.0
1144285105,4.32524,4.47944,25.133,1.0
1144295795,4.30367,4.45712,25.1358,1.0
1144306486,4.27589,4.42845,25.1501,1.0
1144317181,4.24941,4.40103,25.1501,1.0
1144628462,3.80371,3.93957,25.1758,1.0
1144639198,3.8246,3.96095,25.1358,1.0
1144649937,3.84352,3.98067,25.1558,1.0
1144660639,3.86103,3.99866,25.1344,1.0
1144671407,3.87817,4.01664,25.1615,1.0
1144682131,3.89771,4.0367,25.1358,1.0
1144692870,3.92101,4.06099,25.1587,1.0
1144703659,3.94525,4.08609,25.1587,1.0
1144714377,3.96407,4.10539,25.1372,1.0
1144725102,3.97558,4.11738,25.1472,1.0
1144746563,3.99858,4.14127,25.1573,1.0
1144757380,4.01439,4.15746,25.1301,1.0
1144768077,4.02798,4.17169,25.153,1.0
1144778810,4.03477,4.17877,25.1558,1.0
1145068604,4.17579,4.3247,25.1315,1.0
1145079295,4.19479,4.34456,25.1573,1.0
1145090138,4.21264,4.36307,25.1601,1.0
1145100835,4.2242,4.37499,25.1601,1.0
1145111523,4.22799,4.37872,25.133,1.0
1145122223,4.22661,4.37743,25.153,1.0
1145132929,4.22461,4.37524,25.1358,1.0
1145143667,4.22511,4.37577,25.1372,1.0
1145154361,4.22756,4.37826,25.1358,1.0
1145165060,4.22938,4.3802,25.143,1.0
1145207944,4.20329,4.35342,25.1787,1.0
1145218775,4.19872,4.34852,25.1544,1.0
1145229508,4.19577,4.34532,25.1358,1.0
1145240243,4.19017,4.33967,25.1558,1.0
1145519540,4.29193,4.44503,25.1487,1.0
1145530268,4.28754,4.44067,25.173,1.0
1145541042,4.28241,4.43525,25.1601,1.0
1145551834,4.27693,4.42939,25.1344,1.0
1145562537,4.26864,4.42093,25.1515,1.0
1145573271,4.25452,4.40621,25.1387,1.0
1145583958,4.23569,4.38666,25.1315,1.0
1145594799,4.21745,4.3679,25.1501,1.0
1145605549,4.20463,4.35466,25.1544,1.0
1145669960,4.12675,4.27417,25.173,1.0
1145680656,4.11335,4.26014,25.1558,1.0
1145691361,4.10458,4.25092,25.1372,1.0
1145702056,4.10101,4.24735,25.1544,1.0
1145991770,4.18733,4.33724,25.2278,1.0
1146002531,4.19646,4.34706,25.2678,1.0
1146013267,4.20664,4.35748,25.2507,1.0
1146023980,4.21185,4.3628,25.2407,1.0
1146034680,4.20958,4.36052,25.2507,1.0
1146045434,4.20423,4.35503,25.2578,1.0
1146056152,4.20152,4.35222,25.2564,1.0
1146066907,4.20538,4.35617,25.2535,1.0
1146077697,4.21491,4.36602,25.2507,1.0
1146131463,4.27961,4.43235,25.1615,1.0
1146142157,4.3023,4.45566,25.1372,1.0
1146152890,4.3274,4.4818,25.1558,1.0
1146163612,4.35439,4.50969,25.1387,1.0
1146431756,4.22149,4.37214,25.1587,1.0
1146442511,4.2042,4.35416,25.1487,1.0
1146453217,4.19115,4.3407,25.1558,1.0
1146463941,4.18215,4.33139,25.1573,1.0
1146474629,4.17498,4.32413,25.1801,1.0
1146485388,4.16692,4.31574,25.1715,1.0
1146496184,4.15862,4.3073,25.193,1.0
1146506906,4.15093,4.29907,25.1558,1.0
1146517597,4.1425,4.29022,25.1401,1.0
1146581868,4.11066,4.25734,25.153,1.0
1146592611,4.10767,4.25433,25.1601,1.0
1146603327,4.11255,4.25931,25.1487,1.0
1146614079,4.1226,4.26976,25.1558,1.0
1146892958,4.29135,4.44449,25.1544,1.0
1146903675,4.29739,4.45077,25.1573,1.0
1146914366,4.29746,4.45071,25.1387,1.0
1146925162,4.29195,4.44511,25.1615,1.0
1146935945,4.28954,4.44274,25.1773,1.0
1146946756,4.29498,4.44835,25.1758,1.0
1146957458,4.30195,4.45523,25.1301,1.0
1146968186,4.3034,4.45695,25.1587,1.0
1146978924,4.29897,4.45297,25.2392,1.0
1147043349,4.24502,4.39744,25.2793,1.0
1147054039,4.23593,4.38781,25.2507,1.0
1147064748,4.23115,4.38273,25.2335,1.0
1147075473,4.22905,4.37983,25.1344,1.0
1147354631,4.12718,4.27442,25.1501,1.0
1147365336,4.1274,4.27456,25.1387,1.0
1147376157,4.12829,4.27628,25.2492,1.0
1147386873,4.12549,4.27355,25.2735,1.0
1147397586,4.11604,4.26369,25.2578,1.0
1147408307,4.1012,4.24827,25.2507,1.0
1147419002,4.08481,4.23114,25.2307,1.0
1147429816,4.0718,4.21787,25.2578,1.0
1147440611,4.06562,4.21161,25.2793,1.0
1147515738,4.12628,4.27336,25.1358,1.0
1147526434,4.14147,4.2891,25.1372,1.0
1147537258,4.15299,4.30118,25.1587,1.0
1147548067,4.16147,4.30976,25.1301,1.0
1147816282,4.23313,4.38424,25.1601,1.0
1147827048,4.25007,4.40155,25.1287,1.0
1147837794,4.27083,4.42318,25.1544,1.0
1147848485,4.29079,4.44403,25.1773,1.0
1147859207,4.30443,4.45799,25.1558,1.0
1147869926,4.31033,4.46482,25.2521,1.0
1147880617,4.31215,4.46682,25.2578,1.0
1147891359,4.31522,4.46996,25.2521,1.0
1147902071,4.32004,4.47493,25.2492,1.0
1147955728,4.32533,4.4802,25.2307,1.0
1147966497,4.33143,4.48613,25.1801,1.0
1147977185,4.33873,4.49356,25.163,1.0
1147987971,4.34476,4.49976,25.1558,1.0
1148277753,4.37287,4.52949,25.2335,1.0
1148288440,4.36413,4.52053,25.245,1.0
1148299214,4.34871,4.50464,25.2578,1.0
1148310041,4.32899,4.4843,25.2693,1.0
1148320746,4.31306,4.46764,25.2521,1.0
1148331479,4.30553,4.46003,25.2764,1.0
1148342175,4.30343,4.4577,25.2564,1.0
1148353034,4.29941,4.45351,25.2535,1.0
1148363755,4.29241,4.44633,25.255,1.0
1148428153,4.2579,4.41053,25.2492,1.0
1148438843,4.25113,4.40356,25.255,1.0
1148449538,4.24442,4.39667,25.2635,1.0
1148460268,4.23469,4.38648,25.2492,1.0
1148749746,4.15065,4.29862,25.1344,1.0
1148760444,4.14533,4.29328,25.1587,1.0
1148771270,4.13993,4.28764,25.1515,1.0
1148781975,4.13306,4.28054,25.1544,1.0
1148792703,4.12574,4.27297,25.1558,1.0
1148803407,4.1199,4.26691,25.1587,1.0
1148814095,4.11716,4.26403,25.153,1.0
1148824784,4.11468,4.26152,25.1615,1.0
1148835552,4.10672,4.25327,25.1601,1.0
1148889061,4.04999,4.19523,25.2578,1.0
1148899755,4.05069,4.19611,25.2778,1.0
1148910466,4.0556,4.20116,25.2721,1.0
1148921353,4.06233,4.20798,25.2521,1.0
1149254413,4.24678,4.39833,25.153,1.0
1149265108,4.23268,4.38378,25.1601,1.0
1149275802,4.2161,4.36657,25.1558,1.0
1149286502,4.19566,4.3454,25.1558,1.0
1149297194,4.17291,4.32167,25.1315,1.0
1149307943,4.14996,4.29798,25.143,1.0
1149318633,4.12957,4.27691,25.1501,1.0
1149329372,4.11548,4.26224,25.1487,1.0
1149340067,4.10649,4.25296,25.153,1.0
1149383169,4.08962,4.23572,25.1758,1.0
1149393891,4.08835,4.23438,25.173,1.0
1149404634,4.09557,4.24189,25.1773,1.0
1149415353,4.10958,4.25608,25.1315,1.0
1149704960,4.21685,4.36804,25.2564,1.0
1149715655,4.2136,4.36453,25.2349,1.0
1149726345,4.21036,4.36142,25.2578,1.0
1149737038,4.20412,4.3549,25.2492,1.0
1149747852,4.19469,4.34521,25.2592,1.0
1149758545,4.18259,4.33264,25.2564,1.0
1149769285,4.16978,4.31935,25.2521,1.0
1149779985,4.15784,4.3069,25.2507,1.0
1149790825,4.14589,4.29457,25.2578,1.0
1149855221,4.12129,4.26896,25.2364,1.0
1149865914,4.11893,4.26661,25.2507,1.0
1149876606,4.12321,4.27114,25.2635,1.0
1149887297,4.13275,4.28078,25.2307,1.0
1149897989,4.14411,4.2925,25.2264,1.0
1150198761,4.2818,4.43529,25.2435,1.0
1150209460,4.25639,4.409,25.2507,1.0
1150220156,4.23351,4.38515,25.2307,1.0
1150230895,4.21017,4.36107,25.2421,1.0
1150241584,4.18521,4.3346,25.1587,1.0
1150252274,4.15939,4.30777,25.1458,1.0
1150263005,4.13425,4.28165,25.1387,1.0
1150273705,4.11341,4.26034,25.1758,1.0
1150284453,4.10017,4.24651,25.1601,1.0
1150348922,4.02295,4.16707,25.2349,1.0
1150359678,4.01958,4.16355,25.2292,1.0
1150370417,4.01528,4.15909,25.2335,1.0
1150381212,4.01096,4.15489,25.2721,1.0
1150660565,4.09388,4.2407,25.2535,1.0
1150671270,4.09126,4.23798,25.2535,1.0
1150682051,4.08724,4.23381,25.2521,1.0
1150692745,4.08707,4.23365,25.2535,1.0
1150703433,4.09384,4.24067,25.2564,1.0
1150714167,4.10503,4.25219,25.2464,1.0
1150724855,4.11733,4.26498,25.2521,1.0
1150735545,4.12899,4.27639,25.1587,1.0
1150746265,4.13976,4.28767,25.1744,1.0
1150789141,4.19068,4.34026,25.153,1.0
1150799876,4.20188,4.35169,25.1301,1.0
1150810565,4.20697,4.35707,25.1515,1.0
1150821352,4.20677,4.35679,25.1415,1.0
1151100689,3.95554,4.09736,25.2535,1.0
1151111495,3.94719,4.08875,25.2592,1.0
1151122244,3.94338,4.08475,25.2521,1.0
1151132972,3.93961,4.08075,25.2335,1.0
1151143675,3.9318,4.07278,25.2507,1.0
1151154451,3.92165,4.06228,25.2535,1.0
1151165188,3.91346,4.0538,25.2535,1.0
1151175918,3.90759,4.04761,25.2321,1.0
1151186635,3.90112,4.04089,25.2292,1.0
1151197381,3.89324,4.03291,25.2564,1.0
1151261808,3.85,3.98809,25.2607,1.0
1151272539,3.83035,3.96755,25.2335,1.0
1151283287,3.81497,3.95168,25.2392,1.0
1151294014,3.80807,3.94463,25.2535,1.0
1151573137,4.11232,4.25963,25.2292,1.0
1151583870,4.1131,4.26059,25.2507,1.0
1151594627,4.11227,4.25972,25.2507,1.0
1151605356,4.10928,4.25653,25.2364,1.0
1151616046,4.10358,4.25055,25.2249,1.0
1151626739,4.09526,4.24213,25.2521,1.0
1151637427,4.08635,4.23291,25.2535,1.0
1151648117,4.07899,4.2252,25.2407,1.0
1151658837,4.07408,4.22003,25.2292,1.0
1151669581,4.07161,4.21781,25.2764,1.0
1151712547,4.06827,4.21411,25.2521,1.0
1151723272,4.07121,4.21719,25.2564,1.0
1151734009,4.07795,4.224,25.2321,1.0
1151744703,4.08758,4.23411,25.2521,1.0
1152012806,4.37911,4.53625,25.2764,1.0
1152023508,4.39003,4.54739,25.255,1.0
1152034362,4.40199,4.55982,25.255,1.0
1152045141,4.41329,4.57139,25.2364,1.0
1152055835,4.42604,4.58477,25.2592,1.0
1152066549,4.44155,4.60062,25.2307,1.0
1152077301,4.45609,4.61586,25.2535,1.0
1152088044,4.46407,4.62394,25.2264,1.0
1152098813,4.46382,4.62393,25.2592,1.0
1152109505,4.45815,4.61794,25.2435,1.0
1152163175,4.37297,4.52978,25.2492,1.0
1152173890,4.35175,4.50782,25.2507,1.0
1152184578,4.33583,4.49131,25.2492,1.0
1152195264,4.3229,4.47777,25.2349,1.0
1152463360,3.96,4.10216,25.2721,1.0
1152474071,3.94811,4.08967,25.2464,1.0
1152484825,3.9353,4.0763,25.2335,1.0
1152495514,3.92158,4.06212,25.2364,1.0
1152506232,3.90999,4.05023,25.2535,1.0
1152516928,3.90231,4.04235,25.2664,1.0
1152527715,3.89756,4.03722,25.2349,1.0
1152538529,3.89256,4.03201,25.2307,1.0
1152549266,3.88695,4.02633,25.2507,1.0
1152559976,3.88341,4.02268,25.2535,1.0
1152624290,3.94963,4.09124,25.2521,1.0
1152634978,3.9718,4.11405,25.2307,1.0
1152645690,3.9953,4.13841,25.2321,1.0
1152656389,4.01905,4.16315,25.2535,1.0
1152667152,4.04297,4.18796,25.2578,1.0
1152978235,3.99558,4.13885,25.2578,1.0
1152988951,3.99887,4.14222,25.2521,1.0
1152999699,4.01191,4.15571,25.2507,1.0
1153010390,4.03212,4.17651,25.2307,1.0
1153021189,4.04995,4.19495,25.2264,1.0
1153031895,4.06002,4.20544,25.2349,1.0
1153042615,4.06406,4.20956,25.2264,1.0
1153053312,4.06956,4.21565,25.2807,1.0
1153064010,4.08327,4.22951,25.2292,1.0
1153096153,4.1539,4.30283,25.2521,1.0
1153106869,4.16448,4.31368,25.2364,1.0
1153117591,4.16529,4.31457,25.245,1.0
1153128361,4.16539,4.31476,25.2578,1.0
1153417939,4.04058,4.18494,25.1816,1.0
1153428632,4.04009,4.18425,25.1558,1.0
1153439390,4.03885,4.18294,25.1587,1.0
1153450089,4.0326,4.1766,25.1773,1.0
1153460953,4.02098,4.16457,25.1787,1.0
1153471662,4.00846,4.15162,25.1801,1.0
1153482385,3.99773,4.14015,25.1287,1.0
1153493105,3.98496,4.12696,25.133,1.0
1153503797,3.96775,4.10947,25.1744,1.0
1153514600,3.94857,4.09005,25.2392,1.0
1153557392,3.86884,4.00741,25.2307,1.0
1153568091,3.85124,3.98928,25.2464,1.0
1153578822,3.8377,3.97527,25.2492,1.0
1153589566,3.82847,3.96574,25.2535,1.0
1153600328,3.82334,3.96038,25.2492,1.0
1153868912,4.19578,4.3462,25.2564,1.0
1153879642,4.22537,4.37679,25.2492,1.0
1153890350,4.25844,4.4111,25.2564,1.0
1153901096,4.28993,4.4435,25.2278,1.0
1153911838,4.31338,4.46785,25.2349,1.0
1153922646,4.32726,4.48243,25.2521,1.0
1153933366,4.33529,4.49059,25.2307,1.0
1153944080,4.34333,4.49897,25.2378,1.0
1153954770,4.35597,4.51207,25.2378,1.0
1154019273,4.42333,4.58191,25.2507,1.0
1154029997,4.42934,4.58814,25.255,1.0
1154040755,4.43508,4.59395,25.2364,1.0
1154051486,4.44024,4.59942,25.2521,1.0
1154341371,4.37268,4.52946,25.2535,1.0
1154352076,4.36536,4.52182,25.2478,1.0
1154362799,4.35563,4.51179,25.255,1.0
1154373512,4.34482,4.50064,25.2607,1.0
1154384212,4.33582,4.49131,25.2592,1.0
1154394905,4.33091,4.4862,25.2564,1.0
1154405593,4.33031,4.48552,25.2521,1.0
1154416353,4.33254,4.48782,25.2507,1.0
1154427048,4.33637,4.49178,25.2507,1.0
1154491475,4.34962,4.50563,25.2592,1.0
1154502297,4.33876,4.49438,25.2592,1.0
1154513008,4.32806,4.48324,25.2535,1.0
1154523718,4.3185,4.47316,25.2292,1.0
1154781673,4.1469,4.29551,25.2464,1.0
1154792392,4.15823,4.30714,25.2307,1.0
1154803172,4.17214,4.32173,25.2564,1.0
1154813930,4.18715,4.33723,25.2492,1.0
1154824642,4.20162,4.35221,25.2492,1.0
1154835339,4.21802,4.36927,25.2578,1.0
1154846030,4.23793,4.38986,25.2535,1.0
1154856725,4.25834,4.41098,25.2507,1.0
1154867429,4.27524,4.42834,25.2307,1.0
1154878119,4.28525,4.43884,25.2492,1.0
1154920958,4.31532,4.47001,25.2535,1.0
1154931659,4.32321,4.47819,25.2535,1.0
1154942363,4.32877,4.48389,25.2335,1.0
1154953054,4.33216,4.48736,25.2278,1.0
1154963809,4.33589,4.49141,25.2535,1.0
1155242611,4.34359,4.4992,25.2349,1.0
1155253332,4.33153,4.48687,25.2564,1.0
1155264103,4.32639,4.48151,25.2492,1.0
1155274797,4.32702,4.48224,25.2592,1.0
1155285550,4.32939,4.4845,25.2335,1.0
1155296275,4.33013,4.48527,25.2335,1.0
1155306965,4.32774,4.48296,25.2564,1.0
1155317714,4.32415,4.47924,25.2535,1.0
1155328479,4.32181,4.47664,25.2307,1.0
1155382321,4.31607,4.47093,25.2735,1.0
1155393057,4.31382,4.46765,25.1472,1.0
1155403752,4.30951,4.4634,25.1758,1.0
1155414482,4.30715,4.46097,25.1773,1.0
1155425179,4.30466,4.45804,25.1301,1.0
1155704527,4.31391,4.4688,25.2764,1.0
1155715322,4.32049,4.47558,25.2707,1.0
1155726019,4.32232,4.47735,25.2535,1.0
1155736752,4.31871,4.47345,25.2321,1.0
1155747444,4.31343,4.46807,25.2478,1.0
1155758209,4.30925,4.46373,25.2464,1.0
1155768980,4.30704,4.46141,25.2421,1.0
1155779673,4.3054,4.45961,25.2292,1.0
1155790397,4.30214,4.45626,25.2321,1.0
1155865655,4.28793,4.44154,25.2335,1.0
1155876461,4.28582,4.43942,25.2421,1.0
1155887157,4.27831,4.43171,25.2507,1.0
1155897845,4.26132,4.41412,25.2521,1.0
1156166267,4.18934,4.33972,25.2707,1.0
1156176958,4.18667,4.33681,25.2507,1.0
1156187652,4.17815,4.32797,25.2492,1.0
1156198351,4.1648,4.31415,25.2507,1.0
1156209122,4.15136,4.30023,25.2507,1.0
1156219822,4.14088,4.28923,25.2307,1.0
1156230585,4.13367,4.2819,25.2535,1.0
1156241292,4.1292,4.27732,25.2592,1.0
1156251983,4.12617,4.27417,25.2564,1.0
1156262720,4.12261,4.27041,25.2478,1.0
1156316287,4.16834,4.31768,25.2307,1.0
1156326985,4.19458,4.34495,25.2492,1.0
1156337677,4.21779,4.36903,25.255,1.0
1156348387,4.23474,4.38663,25.2592,1.0
1156627514,4.23543,4.38751,25.2778,1.0
1156638271,4.23998,4.39218,25.2707,1.0
1156648962,4.24247,4.39449,25.2349,1.0
1156659763,4.24366,4.39582,25.2564,1.0
1156670467,4.24532,4.3975,25.2507,1.0
1156681156,4.2459,4.39808,25.2478,1.0
1156691896,4.24251,4.39444,25.2307,1.0
1156702609,4.23345,4.38516,25.2435,1.0
1156713416,4.21965,4.37098,25.2521,1.0
1156724108,4.20463,4.35542,25.2507,1.0
1156788508,4.19074,4.34108,25.2578,1.0
1156799199,4.17956,4.32948,25.2564,1.0
1156809896,4.16765,4.31717,25.2564,1.0
