timestamp,indicated_airspeed_m_s,equivalent_airspeed_m_s,true_airspeed_m_s,equivalent_ground_minus_wind_m_s,true_ground_minus_wind_m_s,airspeed_sensor_measurement_valid,selected_airspeed_index
1579091097,-0.701094,-0.701094,-0.726761,0.193088,0.207009,1,1
1579491019,1.85565,1.85565,1.92364,0.192687,0.20658,1,1
1579591018,1.44872,1.44872,1.5017,0.192267,0.206128,1,1
1579991018,0.850656,0.850656,0.881784,0.191952,0.205786,1,1
1580291017,1.12222,1.12222,1.16343,0.191853,0.205681,1,1
1580391033,0.919591,0.919591,0.953285,0.191824,0.205653,1,1
1580491017,1.07412,1.07412,1.11339,0.192388,0.206262,1,1
1580891066,-1.30696,-1.30696,-1.3548,0.192932,0.206843,1,1
1581291465,-0.593253,-0.593253,-0.614982,0.193814,0.20779,1,1
1581391609,0.933272,0.933272,0.967594,0.19306,0.20698,1,1
1581791138,0.910922,0.910922,0.944256,0.194073,0.208064,1,1
1581891177,0.659446,0.659446,0.68358,0.194238,0.208246,1,1
1582191019,1.47337,1.47337,1.52728,0.193618,0.207581,1,1
1582691040,0.465055,0.465055,0.48214,0.194938,0.208998,1,1
1582791052,-0.412071,-0.412071,-0.427228,0.195467,0.209567,1,1
1583091018,0.476355,0.476355,0.49378,0.195053,0.209121,1,1
1583591017,1.39623,1.39623,1.44733,0.194994,0.209058,1,1
1583791017,0.776083,0.776083,0.804482,0.194335,0.208352,1,1
1584091019,0.96198,0.96198,0.997221,0.194429,0.208454,1,1
1584591025,1.67594,1.67594,1.73756,0.192187,0.206054,1,1
1584691018,1.33093,1.33093,1.37965,0.191937,0.205786,1,1
1585091016,0.726639,0.726639,0.753332,0.191459,0.205271,1,1
1585491043,0.840825,0.840825,0.871641,0.190168,0.203893,1,1
1585591025,1.00154,1.00154,1.0382,0.19034,0.204077,1,1
1585991095,1.02411,1.02411,1.0616,0.19058,0.204334,1,1
1586391019,0.791467,0.791467,0.820575,0.190688,0.204455,1,1
1586891046,1.65079,1.65079,1.71148,0.189813,0.203516,1,1
1587291018,-0.191562,-0.191562,-0.198605,0.188352,0.201952,1,1
1587791052,0.900179,0.900179,0.9331,0.18811,0.201692,1,1
1587891078,0.964295,0.964295,0.999802,0.188086,0.20167,1,1
1588291331,-0.66595,-0.66595,-0.690442,0.18859,0.202212,1,1
1588691069,1.16308,1.16308,1.20566,0.189353,0.203033,1,1
1588791018,1.04966,1.04966,1.08806,0.189217,0.202889,1,1
1589191076,1.68581,1.68581,1.74745,0.190457,0.204215,1,1
1589591018,1.10649,1.10649,1.14718,0.19285,0.206786,1,1
1590091020,0.622674,0.622674,0.645474,0.194064,0.208086,1,1
1590191016,0.343235,0.343235,0.355858,0.194088,0.208115,1,1
1590491019,1.35675,1.35675,1.4064,0.194154,0.208184,1,1
1590991085,0.628032,0.628032,0.651027,0.194233,0.208275,1,1
1591091021,0.0571272,0.0571272,0.0592186,0.194138,0.208173,1,1
1591491016,-1.25758,-1.25758,-1.30359,0.193554,0.207547,1,1
1591991016,0.289254,0.289254,0.299829,0.191497,0.205343,1,1
1592391018,-0.80854,-0.80854,-0.838102,0.189884,0.203613,1,1
1592891088,0.295496,0.295496,0.306351,0.185622,0.19905,1,1
1592991018,0.67289,0.67289,0.697516,0.184987,0.198368,1,1
1593391018,0.611715,0.611715,0.634105,0.182134,0.195312,1,1
1593491020,0.440884,0.440884,0.457038,0.181932,0.195096,1,1
1593891018,1.43047,1.43047,1.48281,0.179608,0.192602,1,1
1594291153,-0.415682,-0.415682,-0.430972,0.17748,0.190325,1,1
1594791286,0.242498,0.242498,0.251374,0.177176,0.190001,1,1
1595191088,1.53472,1.53472,1.59091,0.177575,0.19043,1,1
1595691018,-0.465898,-0.465898,-0.483032,0.178633,0.191568,1,1
1595791018,-0.536307,-0.536307,-0.555935,0.17902,0.191982,1,1
1596191036,1.03461,1.03461,1.0727,0.178805,0.191754,1,1
1596591040,1.18383,1.18383,1.22734,0.179526,0.192527,1,1
1596691045,1.29394,1.29394,1.34129,0.179055,0.192027,1,1
1597091131,0.945076,0.945076,0.9798,0.179799,0.192825,1,1
1597191019,0.641678,0.641678,0.665156,0.18062,0.193702,1,1
1597591110,1.35991,1.35991,1.40974,0.181001,0.194116,1,1
1597991017,1.31476,1.31476,1.36307,0.180203,0.193256,1,1
1598091018,1.30309,1.30309,1.35096,0.179953,0.192993,1,1
1598491017,2.25335,2.25335,2.33583,0.176707,0.189512,1,1
1598891020,3.01072,3.01072,3.12083,0.175926,0.188678,1,1
1599391017,4.45669,4.45669,4.62062,0.176818,0.18964,1,1
1599491086,4.62224,4.62224,4.79235,0.177656,0.190538,1,1
1599791016,5.39153,5.39153,5.58899,0.181237,0.194381,1,1
1600391016,6.6697,6.6697,6.91515,0.185246,0.198687,1,1
1600791032,7.3524,7.3524,7.62311,0.190251,0.204055,1,1
1601291063,7.49996,7.49996,7.7743,0.197315,0.211633,1,1
1601391028,7.57915,7.57915,7.85714,0.197844,0.212203,1,1
1601691058,7.50913,7.50913,7.78511,0.201602,0.216235,1,1
1602191020,7.69011,7.69011,7.97361,0.205734,0.22067,1,1
1602291088,7.80098,7.80098,8.08644,0.205671,0.220603,1,1
1602691018,7.6285,7.6285,7.908,0.208985,0.22416,1,1
1603091167,7.536,7.536,7.81211,0.212317,0.227737,1,1
1603591017,7.75354,7.75354,8.03894,0.214777,0.230376,1,1
1603691074,7.71755,7.71755,8.00022,0.215225,0.230859,1,1
1603991066,7.66269,7.66269,7.94496,0.215545,0.231203,1,1
1604491044,7.84274,7.84274,8.13001,0.217905,0.233732,1,1
1604991020,7.66864,7.66864,7.95,0.219095,0.235016,1,1
1605091017,7.66963,7.66963,7.95096,0.217744,0.233566,1,1
1605491017,7.71357,7.71357,7.99594,0.217766,0.233591,1,1
1605891223,7.7459,7.7459,8.0314,0.216699,0.232452,1,1
1606391019,7.84298,7.84298,8.13048,0.217126,0.232911,1,1
1606491032,7.86757,7.86757,8.15733,0.217308,0.233108,1,1
1606791018,7.72425,7.72425,8.00734,0.217109,0.232892,1,1
1607291019,7.7199,7.7199,8.0027,0.215394,0.231053,1,1
1607791083,7.76225,7.76225,8.04804,0.211669,0.227062,1,1
1608191623,7.70978,7.70978,7.99361,0.209457,0.224687,1,1
1608691029,7.64496,7.64496,7.92516,0.206614,0.221642,1,1
1608791012,7.70916,7.70916,7.99289,0.206019,0.221006,1,1
1609091035,7.94772,7.94772,8.24054,0.204268,0.219131,1,1
1609591019,7.66578,7.66578,7.94682,0.205123,0.220052,1,1
1609691017,7.61871,7.61871,7.89905,0.206307,0.22132,1,1
1610091022,7.73326,7.73326,8.0178,0.205217,0.22015,1,1
1610191020,7.63665,7.63665,7.917,0.204764,0.219667,1,1
1610491016,7.67193,7.67193,7.95331,0.210337,0.225645,1,1
1610991144,7.66894,7.66894,7.95019,0.205748,0.220724,1,1
1611091047,7.7054,7.7054,7.98813,0.206679,0.221726,1,1
1611391018,7.59696,7.59696,7.87683,0.204104,0.21896,1,1
1611891016,7.85839,7.85839,8.14656,0.201003,0.215637,1,1
1611991019,7.95824,7.95824,8.2512,0.198454,0.212902,1,1
1612291016,7.84366,7.84366,8.13263,0.196138,0.210419,1,1
1612791087,7.90178,7.90178,8.19281,0.189095,0.202862,1,1
1612891017,7.83485,7.83485,8.1218,0.188456,0.202177,1,1
1613291035,7.8725,7.8725,8.1608,0.184515,0.197947,1,1
1613691018,7.874,7.874,8.16392,0.178197,0.191171,1,1
1614191026,7.82265,7.82265,8.10938,0.170692,0.18312,1,1
1614291020,7.78541,7.78541,8.07084,0.169224,0.181546,1,1
1614591061,7.79709,7.79709,8.08281,0.162305,0.174121,1,1
1615091292,7.81946,7.81946,8.10728,0.155927,0.167282,1,1
1615191286,7.84552,7.84552,8.1331,0.15382,0.165024,1,1
1615591071,7.84578,7.84578,8.13515,0.146879,0.157578,1,1
1615691022,7.82551,7.82551,8.1122,0.147612,0.158365,1,1
1616091046,8.05433,8.05433,8.34961,0.144461,0.154983,1,1
1616191018,8.09922,8.09922,8.39617,0.142408,0.15278,1,1
1616491019,7.86859,7.86859,8.15704,0.140654,0.150897,1,1
1616991050,7.72476,7.72476,8.0091,0.133089,0.142783,1,1
1617091017,7.66215,7.66215,7.94452,0.13049,0.139994,1,1
1617391040,7.75178,7.75178,8.03745,0.127833,0.137145,1,1
1617891018,7.662,7.662,7.94319,0.124324,0.133382,1,1
1617991024,7.69294,7.69294,7.97639,0.12521,0.134331,1,1
1618391020,7.85536,7.85536,8.14471,0.124954,0.134057,1,1
1618791024,7.78771,7.78771,8.07325,0.123516,0.132515,1,1
1619291016,7.75203,7.75203,8.03795,0.120013,0.128758,1,1
1619391114,7.83211,7.83211,8.11922,0.119619,0.128335,1,1
1619691022,7.88269,7.88269,8.17144,0.12019,0.128947,1,1
1619791016,7.78951,7.78951,8.07524,0.118045,0.126647,1,1
1620191016,7.74921,7.74921,8.03332,0.116683,0.125184,1,1
1620291020,7.76582,7.76582,8.05032,0.116088,0.124549,1,1
1620691016,7.68492,7.68492,7.96671,0.114011,0.122321,1,1
1620791016,7.63332,7.63332,7.91338,0.113735,0.122024,1,1
1622091174,7.63795,7.63795,7.91797,0.104985,0.112633,1,1
1622191033,7.64894,7.64894,7.92946,0.104636,0.112262,1,1
1622591020,7.74081,7.74081,8.02467,0.101103,0.108471,1,1
1622991019,7.88116,7.88116,8.17012,0.0958064,0.102788,1,1
1623091018,7.88209,7.88209,8.17247,0.0926904,0.0994439,1,1
1623491018,7.93445,7.93445,8.22571,0.0895502,0.0960745,1,1
1623991016,7.83845,7.83845,8.12585,0.0820052,0.0879811,1,1
1624391016,7.76123,7.76123,8.04742,0.0802362,0.0860836,1,1
1624491050,7.82231,7.82231,8.1088,0.0766628,0.0822497,1,1
1624791051,7.71857,7.71857,8.00263,0.0733309,0.0786748,1,1
1624891022,7.71514,7.71514,7.99803,0.0716071,0.0768253,1,1
1625291018,7.75417,7.75417,8.0385,0.071853,0.0770894,1,1
1625791016,7.97087,7.97087,8.26405,0.0679716,0.0729238,1,1
1626191066,8.02122,8.02122,8.31532,0.0638311,0.0684815,1,1
1626691021,7.91778,7.91778,8.20849,0.0615719,0.0660578,1,1
1627191018,7.85637,7.85637,8.14549,0.0590952,0.0634014,1,1
1627291021,7.8103,7.8103,8.09661,0.0590175,0.0633181,1,1
1627591037,7.86055,7.86055,8.14881,0.0568465,0.0609883,1,1
1628091070,7.76154,7.76154,8.04617,0.0562513,0.0603494,1,1
1628191564,7.74058,7.74058,8.0242,0.0546412,0.0586218,1,1
1628491330,7.86307,7.86307,8.15145,0.0543943,0.0583578,1,1
1628991019,7.63714,7.63714,7.91738,0.0515778,0.0553357,1,1
1629091111,7.66041,7.66041,7.94152,0.0521496,0.0559486,1,1
1629491123,7.78079,7.78079,8.06577,0.0517366,0.0555056,1,1
1629891017,7.79936,7.79936,8.08531,0.0536528,0.0575616,1,1
1630391016,7.77488,7.77488,8.05999,0.0508281,0.0545306,1,1
1630491017,7.8172,7.8172,8.10415,0.051104,0.0548277,1,1
1630791021,7.77982,7.77982,8.06524,0.0520457,0.0558377,1,1
1631291026,7.88266,7.88266,8.17142,0.0555475,0.0595952,1,1
1631391020,8.00316,8.00316,8.29634,0.0559941,0.0600742,1,1
1631691051,7.94928,7.94928,8.24087,0.0583136,0.0625627,1,1
1632191018,7.8525,7.8525,8.1404,0.0594922,0.0638268,1,1
1632291022,7.79215,7.79215,8.07791,0.0608026,0.0652321,1,1
1632691016,7.936,7.936,8.22702,0.0639462,0.0686041,1,1
1633091028,8.03397,8.03397,8.32875,0.0642517,0.0689334,1,1
1633591066,7.7684,7.7684,8.0535,0.0648493,0.0695736,1,1
1633691031,7.77536,7.77536,8.06046,0.0650838,0.0698253,1,1
1634091016,7.75201,7.75201,8.03602,0.0684528,0.0734394,1,1
1634491018,7.86395,7.86395,8.15232,0.0673461,0.0722505,1,1
1634591085,7.89503,7.89503,8.18452,0.067179,0.0720714,1,1
1634991697,7.87091,7.87091,8.15931,0.0667353,0.071596,1,1
1635091319,7.77081,7.77081,8.05552,0.0642906,0.0689728,1,1
1635391166,7.7427,7.7427,8.02649,0.0610135,0.0654568,1,1
1635891018,7.83675,7.83675,8.12382,0.0609465,0.0653852,1,1
1635991039,7.80776,7.80776,8.09416,0.0609127,0.0653476,1,1
1636291192,7.78746,7.78746,8.07289,0.0611342,0.0655875,1,1
1636491019,7.92561,7.92561,8.21642,0.0590704,0.0633719,1,1
1636791019,7.94743,7.94743,8.2391,0.0642846,0.0689675,1,1
1637291028,7.83481,7.83481,8.12245,0.0695996,0.0746698,1,1
1637391020,7.71296,7.71296,7.99621,0.0693943,0.0744495,1,1
1637691067,7.90767,7.90767,8.19799,0.0758318,0.0813571,1,1
1638191018,7.69523,7.69523,7.97806,0.0782608,0.0839635,1,1
1638291018,7.65995,7.65995,7.94141,0.0936576,0.100485,1,1
1638691084,7.92365,7.92365,8.21521,0.107496,0.115331,1,1
1638791016,8.06732,8.06732,8.36405,0.111709,0.119851,1,1
1639091032,7.93352,7.93352,8.2253,0.129678,0.139132,1,1
1639591057,7.96587,7.96587,8.25888,0.162178,0.174004,1,1
1639991020,8.03977,8.03977,8.33573,0.172538,0.185118,1,1
1640491018,7.92909,7.92909,8.22097,0.218502,0.234436,1,1
1640591016,7.91508,7.91508,8.20625,0.222245,0.238454,1,1
1640991051,8.15903,8.15903,8.4594,0.278906,0.299246,1,1
1641391077,7.91006,7.91006,8.20144,0.311067,0.333755,1,1
1641891421,7.95695,7.95695,8.25004,0.372808,0.399989,1,1
1641991396,7.98084,7.98084,8.27449,0.38684,0.415047,1,1
1642291067,7.90682,7.90682,8.19779,0.437983,0.469911,1,1
1642791019,7.8623,7.8623,8.152,0.512341,0.549712,1,1
1642891106,7.84807,7.84807,8.13703,0.528421,0.566954,1,1
1643291017,7.74628,7.74628,8.03174,0.59032,0.633362,1,1
1643391022,7.84802,7.84802,8.13688,0.606325,0.650522,1,1
1643691021,8.05987,8.05987,8.35677,0.654411,0.702117,1,1
1644191018,8.09882,8.09882,8.39684,0.753,0.807897,1,1
1644291019,8.17959,8.17959,8.48048,0.76904,0.825092,1,1
1644591123,8.00054,8.00054,8.29513,0.826359,0.886577,1,1
1645091017,7.78678,7.78678,8.0734,0.940414,1.00894,1,1
1645191046,7.82088,7.82088,8.10858,0.964023,1.03427,1,1
1645491017,7.88308,7.88308,8.17334,1.035,1.11042,1,1
1645991019,7.8504,7.8504,8.13855,1.1345,1.21707,1,1
1646491032,7.90334,7.90334,8.19302,1.03874,1.11429,1,1
1646591018,7.91874,7.91874,8.20916,0.99651,1.06895,1,1
1646891018,7.8965,7.8965,8.18596,0.843719,0.905063,1,1
1647391018,7.85001,7.85001,8.13794,0.583658,0.626094,1,1
1647491017,7.76182,7.76182,8.04645,0.530131,0.568657,1,1
1647891016,7.89928,7.89928,8.18891,0.327004,0.350768,1,1
1648291709,7.67265,7.67265,7.95374,0.140987,0.151232,1,1
1648791118,7.7471,7.7471,8.03113,0.0710184,0.0761786,1,1
1648891406,7.9263,7.9263,8.21691,0.106955,0.114727,1,1
1649291044,7.9593,7.9593,8.25119,0.242092,0.259683,1,1
1649691021,7.84232,7.84232,8.12989,0.35701,0.382944,1,1
1650191028,7.97902,7.97902,8.27153,0.473391,0.507777,1,1
1650291019,8.02683,8.02683,8.32117,0.493021,0.528841,1,1
1650591039,7.76576,7.76576,8.05049,0.542685,0.582103,1,1
1651091016,8.03157,8.03157,8.3258,0.606234,0.650265,1,1
1651191017,8.03152,8.03152,8.32601,0.615212,0.659892,1,1
1651591017,7.94307,7.94307,8.234,0.64818,0.695241,1,1
1651691018,7.88982,7.88982,8.17928,0.654153,0.701666,1,1
1651991044,7.95461,7.95461,8.24595,0.663303,0.711459,1,1
1652491020,7.76543,7.76543,8.05031,0.666218,0.714588,1,1
1652591020,7.88806,7.88806,8.1774,0.663091,0.711238,1,1
1652891017,7.91966,7.91966,8.20984,0.653816,0.701284,1,1
1653391021,7.8655,7.8655,8.15374,0.630054,0.675787,1,1
1653491038,7.87363,7.87363,8.16245,0.624222,0.669537,1,1
1653791020,7.95423,7.95423,8.24612,0.599629,0.643158,1,1
1654291018,7.6681,7.6681,7.9491,0.555518,0.595831,1,1
1654391032,7.68914,7.68914,7.97142,0.544092,0.583575,1,1
1654691209,7.67732,7.67732,7.95856,0.514954,0.552317,1,1
1655191271,7.70863,7.70863,7.99174,0.462973,0.496564,1,1
1655291298,7.66588,7.66588,7.94737,0.451543,0.484304,1,1
1655691340,7.87086,7.87086,8.15962,0.403662,0.432942,1,1
1656091019,7.70353,7.70353,7.98576,0.358514,0.384517,1,1
1656191021,7.75851,7.75851,8.043,0.347355,0.372547,1,1
1656591019,7.92998,7.92998,8.22096,0.298911,0.320589,1,1
1656691019,7.91837,7.91837,8.20902,0.286284,0.307041,1,1
1657091052,7.80903,7.80903,8.09512,0.239103,0.256441,1,1
1657591018,7.73578,7.73578,8.01922,0.179247,0.192239,1,1
1657691055,7.73692,7.73692,8.02057,0.166681,0.178764,1,1
1658091037,7.75012,7.75012,8.03401,0.120368,0.129093,1,1
1658491018,7.899,7.899,8.18826,0.075849,0.0813452,1,1
1658591020,7.83791,7.83791,8.12541,0.066085,0.0708751,1,1
1658891021,7.93778,7.93778,8.22875,0.0342396,0.0367213,1,1
1659391024,7.83347,7.83347,8.12074,0.0384924,0.0412813,1,1
1659891019,7.72215,7.72215,8.00541,0.0896872,0.0961857,1,1
1659991019,7.69746,7.69746,7.97979,0.0991726,0.106359,1,1
1660291049,7.75611,7.75611,8.04057,0.129338,0.13871,1,1
1660791076,7.82128,7.82128,8.10829,0.17895,0.191916,1,1
1660891016,7.87102,7.87102,8.15969,0.190147,0.203923,1,1
1661191021,7.92093,7.92093,8.21174,0.218708,0.23455,1,1
1661691519,7.97899,7.97899,8.27173,0.260823,0.279714,1,1
1661791517,8.04222,8.04222,8.33694,0.271763,0.291446,1,1
1662191087,7.92846,7.92846,8.2192,0.303444,0.325419,1,1
1662591023,7.90424,7.90424,8.19545,0.333497,0.357646,1,1
1663091028,7.78776,7.78776,8.07345,0.36466,0.391059,1,1
1663191018,7.80024,7.80024,8.0876,0.370292,0.397095,1,1
1663491019,7.94703,7.94703,8.23839,0.389174,0.417341,1,1
1663991025,7.96077,7.96077,8.25403,0.40752,0.437009,1,1
1664091020,7.99428,7.99428,8.28742,0.412345,0.442182,1,1
1664391016,7.93965,7.93965,8.23175,0.421539,0.452034,1,1
1664891018,7.79765,7.79765,8.08515,0.437575,0.469234,1,1
1664991018,7.87497,7.87497,8.16362,0.438001,0.469686,1,1
1665391037,8.04457,8.04457,8.34066,0.448834,0.481299,1,1
1665491019,7.99966,7.99966,8.29462,0.450058,0.482617,1,1
1665791018,7.74351,7.74351,8.02843,0.453361,0.486155,1,1
1667291017,7.803,7.803,8.08924,0.47462,0.508945,1,1
1667691031,7.74486,7.74486,8.03028,0.476555,0.511018,1,1
1668191126,7.85498,7.85498,8.14445,0.4774,0.511917,1,1
1668291033,7.84239,7.84239,8.12982,0.477574,0.512096,1,1
1668591442,7.75514,7.75514,8.03939,0.478649,0.513252,1,1
1668791322,7.82285,7.82285,8.11123,0.476912,0.511391,1,1
1669091020,7.72667,7.72667,8.0114,0.473535,0.507769,1,1
1669591092,8.00054,8.00054,8.29537,0.472223,0.50635,1,1
1669691067,7.9702,7.9702,8.26258,0.470974,0.505011,1,1
1669991016,7.85587,7.85587,8.14396,0.465559,0.499197,1,1
1670491018,7.77955,7.77955,8.06468,0.456422,0.489399,1,1
1670991084,7.84872,7.84872,8.13817,0.444338,0.476438,1,1
1671091020,7.80924,7.80924,8.09673,0.442118,0.474056,1,1
1671391019,7.87802,7.87802,8.16692,0.432044,0.463251,1,1
1671891018,7.76035,7.76035,8.04609,0.419095,0.449366,1,1
1671991017,7.77232,7.77232,8.05859,0.417648,0.447812,1,1
1672291018,7.70588,7.70588,7.9896,0.405043,0.434292,1,1
1672791021,7.92114,7.92114,8.2116,0.38894,0.417017,1,1
1672891060,7.94829,7.94829,8.23974,0.384677,0.412442,1,1
1673291018,7.82837,7.82837,8.11674,0.369723,0.396412,1,1
1673391016,7.9174,7.9174,8.20903,0.36492,0.391262,1,1
1673691019,8.06256,8.06256,8.35958,0.351845,0.37724,1,1
1674191017,7.76168,7.76168,8.04609,0.334827,0.358992,1,1
1674691098,7.87292,7.87292,8.16328,0.319089,0.342114,1,1
1674791120,7.92055,7.92055,8.21246,0.31732,0.340219,1,1
1675091124,7.78959,7.78959,8.07666,0.304993,0.327005,1,1
1675591145,7.91081,7.91081,8.20228,0.295762,0.3171,1,1
1675691286,7.98745,7.98745,8.2803,0.292455,0.313552,1,1
1676091057,7.93789,7.93789,8.23022,0.281899,0.302236,1,1
1676191018,7.80717,7.80717,8.09493,0.281087,0.301365,1,1
1676491053,7.88774,7.88774,8.17825,0.274397,0.294192,1,1
1676991020,7.78005,7.78005,8.0654,0.266965,0.286226,1,1
1677091023,7.94378,7.94378,8.23651,0.265051,0.28417,1,1
1677391018,8.10863,8.10863,8.40702,0.260349,0.279123,1,1
1677891020,7.78624,7.78624,8.0731,0.252346,0.27054,1,1
1677991088,7.74046,7.74046,8.02571,0.249979,0.268002,1,1
1678291016,7.73543,7.73543,8.01905,0.246203,0.26395,1,1
1678791017,7.77561,7.77561,8.06218,0.239147,0.256388,1,1
1679291046,7.86209,7.86209,8.15173,0.234864,0.251792,1,1
1679391040,7.80486,7.80486,8.0925,0.231846,0.248562,1,1
1679691056,7.91535,7.91535,8.20707,0.22934,0.245868,1,1
1680191017,7.80605,7.80605,8.09359,0.23019,0.246783,1,1
1680691022,7.90526,7.90526,8.19667,0.226721,0.243059,1,1
1680791020,7.90666,7.90666,8.19781,0.22561,0.241865,1,1
1681091022,7.93369,7.93369,8.22612,0.223134,0.239214,1,1
1681591363,7.71685,7.71685,8.00097,0.223667,0.239779,1,1
1681691491,7.70159,7.70159,7.9854,0.222467,0.238494,1,1
1682091303,8.00796,8.00796,8.30296,0.221208,0.237144,1,1
1682191021,7.94346,7.94346,8.23655,0.221537,0.237498,1,1
1682591016,7.78731,7.78731,8.07429,0.219209,0.234998,1,1
1682691121,7.75992,7.75992,8.04555,0.218354,0.234078,1,1
1682991052,7.74494,7.74494,8.03034,0.215516,0.231038,1,1
1683491021,7.94019,7.94019,8.23304,0.212313,0.227597,1,1
1683891017,7.75907,7.75907,8.04505,0.206344,0.221202,1,1
1684391055,7.81645,7.81645,8.10481,0.205188,0.219958,1,1
1684491026,7.77535,7.77535,8.06198,0.203232,0.217864,1,1
1684791021,7.94376,7.94376,8.23656,0.201324,0.215813,1,1
1684891020,8.01617,8.01617,8.31135,0.201474,0.215976,1,1
1685291042,7.792,7.792,8.07915,0.197683,0.211911,1,1
1685791022,7.97304,7.97304,8.26707,0.196342,0.210472,1,1
1686191016,7.92614,7.92614,8.21816,0.196789,0.210948,1,1
1686291037,7.95042,7.95042,8.24335,0.195602,0.209675,1,1
1686591025,7.80283,7.80283,8.0903,0.195016,0.209045,1,1
1686791022,7.81945,7.81945,8.10758,0.19294,0.206819,1,1
1687091018,7.81326,7.81326,8.10117,0.19042,0.204118,1,1
1687591070,7.83219,7.83219,8.12065,0.186135,0.199522,1,1
1687691016,7.76227,7.76227,8.04834,0.184198,0.197447,1,1
1687991107,7.5822,7.5822,7.86166,0.181983,0.195071,1,1
1688491379,7.90628,7.90628,8.19765,0.178927,0.191795,1,1
1688991020,7.99051,7.99051,8.28497,0.180509,0.193487,1,1
1689091049,8.05939,8.05939,8.35641,0.178454,0.191283,1,1
1689391020,7.94483,7.94483,8.23772,0.180963,0.193971,1,1
1689891020,8.06949,8.06949,8.36687,0.178425,0.19125,1,1
1689991018,7.9417,7.9417,8.23435,0.178931,0.191793,1,1
1690391024,7.87132,7.87132,8.16156,0.180657,0.193643,1,1
1690491018,7.87169,7.87169,8.16185,0.178016,0.19081,1,1
1690791017,8.03774,8.03774,8.33399,0.17887,0.191725,1,1
1691291027,8.05647,8.05647,8.35347,0.179607,0.192514,1,1
1691391047,8.05499,8.05499,8.35176,0.180924,0.193923,1,1
1692191020,7.78249,7.78249,8.06935,0.184115,0.197342,1,1
1692691116,7.85593,7.85593,8.14581,0.184116,0.197344,1,1
1692791059,7.90906,7.90906,8.20038,0.186091,0.19946,1,1
1693091034,7.97548,7.97548,8.26936,0.18594,0.199294,1,1
1693591017,7.96306,7.96306,8.25676,0.187762,0.201249,1,1
1693691017,7.93697,7.93697,8.2296,0.187591,0.201062,1,1
1693991023,7.86545,7.86545,8.15559,0.191478,0.205232,1,1
1694491036,7.8859,7.8859,8.17673,0.192146,0.205949,1,1
1694591040,7.94277,7.94277,8.23587,0.197727,0.211931,1,1
1694891585,8.03921,8.03921,8.33614,0.203661,0.218291,1,1
1695391018,7.80643,7.80643,8.09472,0.213014,0.22832,1,1
1695491137,7.82296,7.82296,8.11183,0.213964,0.229337,1,1
1695891028,7.92342,7.92342,8.21588,0.220213,0.236039,1,1
1695991152,7.91648,7.91648,8.20879,0.234067,0.250881,1,1
1696291019,7.85907,7.85907,8.1489,0.236866,0.253882,1,1
1696791019,7.89326,7.89326,8.18497,0.254475,0.272762,1,1
1696891018,7.91076,7.91076,8.20309,0.244295,0.261846,1,1
1697291016,7.88626,7.88626,8.17779,0.258278,0.27684,1,1
1697391047,7.91854,7.91854,8.21092,0.267528,0.286754,1,1
1697691052,8.02168,8.02168,8.31825,0.290628,0.31151,1,1
1698191018,8.04862,8.04862,8.34641,0.322484,0.345655,1,1
1698691039,8.24752,8.24752,8.55274,0.352696,0.378034,1,1
1699091020,7.9186,7.9186,8.21126,0.39985,0.428569,1,1
1699591016,8.02007,8.02007,8.31687,0.451273,0.483691,1,1
1700091018,7.91585,7.91585,8.20888,0.50462,0.540864,1,1
1700191018,7.84643,7.84643,8.13645,0.521656,0.559121,1,1
1700491075,7.81071,7.81071,8.09983,0.567688,0.608458,1,1
1700991050,7.85186,7.85186,8.14225,0.637776,0.683563,1,1
1701391264,7.97663,7.97663,8.27131,0.704845,0.75544,1,1
1701891012,7.76437,7.76437,8.05161,0.787701,0.844268,1,1
1702391019,8.17939,8.17939,8.48174,0.884862,0.948364,1,1
1702491126,8.13038,8.13038,8.43106,0.908856,0.974098,1,1
1702791028,8.0507,8.0507,8.34848,0.97308,1.0429,1,1
1703291040,7.89541,7.89541,8.18654,0.998746,1.07031,1,1
1703391021,7.88122,7.88122,8.17173,0.978087,1.04816,1,1
1703791019,7.91999,7.91999,8.21168,0.864849,0.926798,1,1
1703891019,7.84872,7.84872,8.13945,0.828619,0.887973,1,1
1704191058,7.97035,7.97035,8.26415,0.719989,0.771556,1,1
1704691039,7.92208,7.92208,8.21448,0.544091,0.583051,1,1
1704791016,7.9733,7.9733,8.26712,0.509696,0.546192,1,1
1705091019,7.92374,7.92374,8.21704,0.414682,0.444374,1,1
1705591017,7.85471,7.85471,8.14396,0.25685,0.275231,1,1
1705691018,7.84521,7.84521,8.1355,0.229144,0.245543,1,1
1705991086,7.76901,7.76901,8.05498,0.148176,0.15878,1,1
1706491066,7.90004,7.90004,8.19142,0.0423009,0.0453281,1,1
1706991018,7.70785,7.70785,7.99315,0.0830121,0.088951,1,1
1707091018,7.77028,7.77028,8.05801,0.0997005,0.106834,1,1
1707391114,7.84644,7.84644,8.1356,0.143364,0.153619,1,1
1707591015,7.99124,7.99124,8.28706,0.16847,0.180519,1,1
1707891466,8.09054,8.09054,8.39005,0.207289,0.222116,1,1
1707991382,8.01318,8.01318,8.30976,0.217286,0.232826,1,1
1708391082,7.92215,7.92215,8.21572,0.249952,0.267831,1,1
1708491080,7.90524,7.90524,8.19656,0.255173,0.273421,1,1
1708791043,7.93789,7.93789,8.23151,0.273808,0.293388,1,1
1709291038,7.79656,7.79656,8.08364,0.287293,0.307836,1,1
1709391044,7.69295,7.69295,7.97788,0.289989,0.31073,1,1
1709691046,7.69988,7.69988,7.98501,0.288409,0.309031,1,1
1710191017,7.85234,7.85234,8.14181,0.280646,0.300711,1,1
1710691141,7.7252,7.7252,8.01095,0.263072,0.281877,1,1
1711191018,7.96952,7.96952,8.26423,0.240746,0.257951,1,1
1711291022,7.90257,7.90257,8.19516,0.234172,0.250904,1,1
1711591019,7.71676,7.71676,8.00255,0.21901,0.23466,1,1
1712991018,7.9446,7.9446,8.23861,0.134183,0.143766,1,1
1713491022,7.85346,7.85346,8.14437,0.0986483,0.105692,1,1
1713591018,7.86096,7.86096,8.15035,0.0920756,0.0986512,1,1
1713891157,7.86703,7.86703,8.15819,0.0729416,0.0781508,1,1
1714391480,7.81946,7.81946,8.1092,0.0469282,0.0502787,1,1
1714891279,7.76311,7.76311,8.05055,0.0513396,0.0550043,1,1
1715391021,7.92023,7.92023,8.21341,0.0773906,0.0829148,1,1
1715491141,7.85206,7.85206,8.14276,0.0835532,0.0895154,1,1
1715791018,7.70079,7.70079,7.98445,0.104206,0.111642,1,1
1716291056,7.957,7.957,8.25155,0.135645,0.145323,1,1
1716391016,7.88955,7.88955,8.18165,0.143224,0.153443,1,1
1716791017,7.81896,7.81896,8.10832,0.170409,0.182565,1,1
1716891043,7.78352,7.78352,8.07174,0.17538,0.187893,1,1
1717191029,7.90465,7.90465,8.19733,0.196845,0.210888,1,1
1717691034,8.01946,8.01946,8.31632,0.229548,0.245923,1,1
1718191018,7.9062,7.9062,8.19912,0.259532,0.278043,1,1
1718291016,7.91242,7.91242,8.20514,0.266148,0.28513,1,1
1718591018,8.06796,8.06796,8.36639,0.285032,0.305361,1,1
1719091065,7.89498,7.89498,8.187,0.312502,0.334781,1,1
1719191024,8.01031,8.01031,8.30707,0.317431,0.340068,1,1
1719491018,7.8833,7.8833,8.17564,0.332144,0.355828,1,1
1719991045,7.81367,7.81367,8.10306,0.356219,0.381616,1,1
1720491140,8.06327,8.06327,8.36187,0.379577,0.406627,1,1
1720591596,8.14637,8.14637,8.44764,0.38363,0.410966,1,1
1720991316,7.92878,7.92878,8.22201,0.395624,0.423814,1,1
1721391052,7.96998,7.96998,8.26503,0.405486,0.434375,1,1
1721891028,7.80992,7.80992,8.09889,0.416734,0.446426,1,1
1721991048,7.88361,7.88361,8.17557,0.420457,0.450415,1,1
1722291018,7.97221,7.97221,8.26699,0.425213,0.455503,1,1
1722791016,8.03761,8.03761,8.33528,0.433437,0.464315,1,1
1723291060,7.89933,7.89933,8.19208,0.438404,0.469627,1,1
1723391022,7.95577,7.95577,8.25034,0.440037,0.471376,1,1
1723691028,8.03174,8.03174,8.3292,0.441183,0.472607,1,1
1724191019,7.81153,7.81153,8.10062,0.443181,0.47474,1,1
1724291018,7.81802,7.81802,8.10759,0.44345,0.475027,1,1
1725091020,8.14835,8.14835,8.45012,0.44442,0.476057,1,1
1725591017,7.92096,7.92096,8.21421,0.443397,0.474961,1,1
1725691023,7.90618,7.90618,8.19883,0.442428,0.473921,1,1
1726491019,8.01599,8.01599,8.3129,0.433531,0.464391,1,1
1726991046,7.92005,7.92005,8.21339,0.429292,0.459843,1,1
1727091549,8.06054,8.06054,8.35921,0.430837,0.461502,1,1
1727391386,7.89568,7.89568,8.18824,0.428259,0.458731,1,1
1727891025,7.95315,7.95315,8.24772,0.424064,0.454231,1,1
1727991022,7.86666,7.86666,8.15805,0.422751,0.452824,1,1
1728291022,8.00121,8.00121,8.29761,0.418686,0.448474,1,1
1728491020,8.01069,8.01069,8.30759,0.417547,0.447243,1,1
1728791020,8.04689,8.04689,8.34482,0.411834,0.441125,1,1
1729291016,7.79209,7.79209,8.08086,0.404117,0.432856,1,1
1729391017,7.79871,7.79871,8.08751,0.405213,0.434023,1,1
1729691016,7.80344,7.80344,8.09219,0.400815,0.429313,1,1
1730191050,7.95929,7.95929,8.25397,0.392568,0.42048,1,1
1730291019,8.06558,8.06558,8.36374,0.390494,0.418249,1,1
1730591040,7.99362,7.99362,8.2895,0.383848,0.411128,1,1
1731091016,7.92907,7.92907,8.22259,0.370339,0.396655,1,1
1731591069,8.08179,8.08179,8.38102,0.362551,0.388315,1,1
1732091016,7.90376,7.90376,8.19739,0.354601,0.37979,1,1
1732191016,7.85863,7.85863,8.14922,0.354071,0.37923,1,1
1732491016,7.96625,7.96625,8.2611,0.349534,0.374364,1,1
1732991020,7.95874,7.95874,8.25369,0.343605,0.368014,1,1
1733091018,7.89748,7.89748,8.19134,0.34187,0.366155,1,1
1733491050,7.90405,7.90405,8.1981,0.339039,0.363116,1,1
1733591020,7.84859,7.84859,8.13965,0.338341,0.362378,1,1
1733891017,8.03476,8.03476,8.33223,0.335733,0.359579,1,1
1734391046,7.8884,7.8884,8.18021,0.332281,0.35588,1,1
1734491026,7.8678,7.8678,8.1594,0.331677,0.355222,1,1
1734791018,7.92562,7.92562,8.22043,0.329801,0.353215,1,1
1735291018,7.91919,7.91919,8.21344,0.325961,0.349105,1,1
1735791016,7.99697,7.99697,8.29423,0.323074,0.346012,1,1
1735891017,8.04709,8.04709,8.34471,0.322674,0.345576,1,1
1736191032,7.93054,7.93054,8.22525,0.319226,0.341884,1,1
1736691017,7.92813,7.92813,8.2233,0.314895,0.337242,1,1
1737191020,7.82923,7.82923,8.12043,0.312482,0.334656,1,1
1737291019,7.86867,7.86867,8.16119,0.312335,0.334494,1,1
1737591020,8.02004,8.02004,8.31829,0.308517,0.33041,1,1
1738091035,8.02797,8.02797,8.32637,0.304698,0.326316,1,1
1738191056,7.92429,7.92429,8.21905,0.303553,0.325088,1,1
1738491016,7.9363,7.9363,8.23026,0.299934,0.321213,1,1
1738991018,8.04078,8.04078,8.33977,0.296516,0.317545,1,1
1739091016,8.05826,8.05826,8.35809,0.29516,0.316095,1,1
1739491016,8.07475,8.07475,8.37522,0.295186,0.316127,1,1
1739591016,8.10333,8.10333,8.40463,0.295457,0.316406,1,1
1739891697,7.78231,7.78231,8.07166,0.293209,0.313999,1,1
1740391311,7.82973,7.82973,8.12106,0.289177,0.309677,1,1
1740491267,7.83772,7.83772,8.12921,0.289825,0.310373,1,1
1740791035,7.94536,7.94536,8.24086,0.288982,0.309469,1,1
1740991021,7.84271,7.84271,8.13448,0.28756,0.307948,1,1
1741291025,7.90656,7.90656,8.20069,0.289419,0.309939,1,1
1741491037,8.08327,8.08327,8.38431,0.290625,0.311228,1,1
1741791018,7.9604,7.9604,8.25605,0.290423,0.311006,1,1
1742291018,7.99277,7.99277,8.28997,0.292694,0.313438,1,1
1742391044,8.04128,8.04128,8.34036,0.291281,0.311927,1,1
1742691018,8.03948,8.03948,8.33876,0.294333,0.315192,1,1
1743191123,7.79804,7.79804,8.08808,0.295085,0.315998,1,1
1743291017,7.85725,7.85725,8.14923,0.29704,0.318088,1,1
1743591017,8.01182,8.01182,8.30992,0.297297,0.318361,1,1
1744091016,7.75094,7.75094,8.03936,0.300015,0.321273,1,1
1744591045,8.03175,8.03175,8.33059,0.303156,0.324636,1,1
1744691017,8.0403,8.0403,8.33951,0.305469,0.327113,1,1
1744991017,8.02905,8.02905,8.32798,0.308531,0.330394,1,1
1745491040,8.09173,8.09173,8.39299,0.316637,0.339078,1,1
1745591018,8.09887,8.09887,8.40061,0.316673,0.339116,1,1
1745891019,8.09877,8.09877,8.40069,0.325493,0.348563,1,1
1746391558,8.022,8.022,8.32045,0.344493,0.368903,1,1
1746491582,8.00282,8.00282,8.30117,0.334262,0.357956,1,1
1746791345,7.88632,7.88632,8.18039,0.348756,0.37348,1,1
1746991053,7.98901,7.98901,8.28687,0.355697,0.380915,1,1
1747291018,8.22853,8.22853,8.53567,0.362669,0.388383,1,1
1747791024,8.1187,8.1187,8.42154,0.364502,0.390339,1,1
1747891020,8.17616,8.17616,8.48108,0.36759,0.393646,1,1
1748191018,7.98615,7.98615,8.2842,0.374654,0.401214,1,1
1748691020,8.16991,8.16991,8.47485,0.392088,0.419872,1,1
1748791017,8.29713,8.29713,8.60652,0.395093,0.423092,1,1
1749291041,8.19207,8.19207,8.49766,0.418929,0.448621,1,1
1749591017,8.14776,8.14776,8.45192,0.435286,0.46613,1,1
1750091021,8.1806,8.1806,8.48561,0.476673,0.51044,1,1
1750191044,8.09912,8.09912,8.40117,0.484896,0.519257,1,1
1750691020,8.00013,8.00013,8.29855,0.513959,0.550365,1,1
1750991018,8.03958,8.03958,8.33928,0.530021,0.567565,1,1
1751491037,8.09153,8.09153,8.39343,0.554184,0.59343,1,1
1751591016,8.04835,8.04835,8.34822,0.562015,0.601809,1,1
1751891017,8.05271,8.05271,8.35251,0.587023,0.628584,1,1
1752391075,8.06149,8.06149,8.36229,0.624704,0.668935,1,1
1752891388,7.97407,7.97407,8.27082,0.675496,0.723277,1,1
1752991292,8.06724,8.06724,8.36754,0.672004,0.719525,1,1
1753291115,7.98669,7.98669,8.28415,0.654524,0.700798,1,1
1753791019,7.88505,7.88505,8.17793,0.571332,0.611709,1,1
1753891102,7.86414,7.86414,8.15684,0.554991,0.594208,1,1
1754691020,7.8432,7.8432,8.13466,0.415933,0.445322,1,1
1755191016,8.04735,8.04735,8.34801,0.337745,0.361609,1,1
1755691016,7.86407,7.86407,8.1564,0.265881,0.284666,1,1
1755791024,7.83503,7.83503,8.12751,0.252429,0.270262,1,1
1756091016,7.84517,7.84517,8.13665,0.217046,0.232379,1,1
1756291017,7.99869,7.99869,8.29652,0.194288,0.208013,1,1
1757591018,7.86969,7.86969,8.16348,0.0851941,0.091209,1,1
1757691045,7.87072,7.87072,8.16474,0.0800485,0.0857002,1,1
1757991016,7.86024,7.86024,8.15386,0.0629858,0.0674325,1,1
1758491017,7.98954,7.98954,8.28715,0.0470882,0.0504122,1,1
1758591017,8.01366,8.01366,8.31335,0.0456437,0.048866,1,1
1758891045,8.12758,8.12758,8.42979,0.0427056,0.0457197,1,1
1759391240,8.00325,8.00325,8.30201,0.0387394,0.041474,1,1
1759491210,7.99289,7.99289,8.29036,0.0386208,0.0413464,1,1
1759991019,7.88899,7.88899,8.18368,0.039656,0.0424539,1,1
1760291103,7.86984,7.86984,8.16261,0.0411959,0.0441025,1,1
1760791016,7.76947,7.76947,8.05999,0.0440237,0.0471287,1,1
1760891016,7.89555,7.89555,8.19029,0.0441494,0.0472639,1,1
1761391016,8.01876,8.01876,8.31855,0.0519018,0.0555624,1,1
1761691018,8.00565,8.00565,8.30485,0.0565162,0.0605023,1,1
1762191022,8.13688,8.13688,8.44044,0.0668805,0.0715955,1,1
1762291025,8.07473,8.07473,8.37643,0.0691537,0.0740308,1,1
1762591067,8.12588,8.12588,8.4292,0.0814607,0.0872043,1,1
1763091019,7.95031,7.95031,8.24706,0.0974466,0.104318,1,1
1763191044,7.82851,7.82851,8.12093,0.10186,0.109042,1,1
1763591027,7.95273,7.95273,8.24959,0.118148,0.126478,1,1
1763691018,8.0865,8.0865,8.38882,0.122139,0.13075,1,1
1763991018,8.0308,8.0308,8.33081,0.136586,0.146213,1,1
1764491018,8.00214,8.00214,8.30149,0.160621,0.171944,1,1
1764991145,8.02051,8.02051,8.3198,0.185142,0.198188,1,1
1765091110,8.1413,8.1413,8.44518,0.191316,0.204797,1,1
1765391675,8.0742,8.0742,8.37597,0.201115,0.215289,1,1
1765891155,8.02179,8.02179,8.32163,0.225745,0.241651,1,1
1765991053,7.98797,7.98797,8.28646,0.23095,0.247222,1,1
1766291018,7.95345,7.95345,8.25032,0.243825,0.261002,1,1
1766791083,7.91433,7.91433,8.20998,0.264134,0.282739,1,1
1767391026,8.06639,8.06639,8.36797,0.285572,0.305684,1,1
1767691020,7.95551,7.95551,8.25255,0.295454,0.316261,1,1
1768191050,8.01537,8.01537,8.31525,0.309843,0.33166,1,1
1768291020,7.98665,7.98665,8.2851,0.313028,0.335073,1,1
1768591016,8.0862,8.0862,8.38804,0.32172,0.344371,1,1
1768791018,8.11247,8.11247,8.41539,0.328256,0.351363,1,1
1769091016,7.93858,7.93858,8.23479,0.334577,0.358131,1,1
1769591017,7.89324,7.89324,8.18793,0.347773,0.372259,1,1
1769691018,7.91197,7.91197,8.2081,0.350058,0.374709,1,1
1769991017,8.08797,8.08797,8.39007,0.359282,0.384576,1,1
1770491020,7.98716,7.98716,8.28602,0.372195,0.398397,1,1
1770591016,7.94942,7.94942,8.24622,0.372841,0.399081,1,1
1770891040,7.97663,7.97663,8.27463,0.383248,0.410225,1,1
1771091040,7.91648,7.91648,8.21267,0.387078,0.41432,1,1
1771391067,7.95372,7.95372,8.25099,0.39432,0.422076,1,1
1771891298,7.73657,7.73657,8.02584,0.406101,0.434687,1,1
1772391050,7.8195,7.8195,8.11168,0.418177,0.447617,1,1
1772491022,7.75397,7.75397,8.04436,0.420867,0.450496,1,1
1772791018,7.99856,7.99856,8.29746,0.427926,0.458047,1,1
1773291021,8.0074,8.0074,8.30794,0.436672,0.467408,1,1
1773791021,8.11085,8.11085,8.4141,0.441785,0.472887,1,1
1773891022,8.07024,8.07024,8.37218,0.442514,0.473656,1,1
1774191019,7.86526,7.86526,8.16105,0.445367,0.476707,1,1
1774391021,7.91697,7.91697,8.21312,0.447673,0.479171,1,1
1774691018,8.01558,8.01558,8.31673,0.441283,0.472332,1,1
1774791021,7.96591,7.96591,8.26391,0.44532,0.476654,1,1
1775091042,8.04744,8.04744,8.34977,0.442335,0.473449,1,1
1775291016,7.95761,7.95761,8.25633,0.439975,0.470923,1,1
1775591017,8.06065,8.06065,8.36352,0.440533,0.471513,1,1
1776091104,8.11051,8.11051,8.41352,0.431279,0.461604,1,1
1776191019,8.04694,8.04694,8.34766,0.431203,0.461528,1,1
1776491120,7.84512,7.84512,8.1383,0.427563,0.457634,1,1
1776991016,8.18664,8.18664,8.49259,0.42272,0.452439,1,1
1777091016,8.14851,8.14851,8.4547,0.423247,0.453006,1,1
1777391036,8.10913,8.10913,8.41367,0.416273,0.445537,1,1
1777891055,8.10938,8.10938,8.41418,0.412746,0.441754,1,1
1778391319,7.98782,7.98782,8.28747,0.402092,0.430353,1,1
1778491157,8.08718,8.08718,8.3905,0.398038,0.426007,1,1
1778791070,7.86058,7.86058,8.15561,0.390997,0.418469,1,1
1779291020,8.03603,8.03603,8.33769,0.380437,0.40716,1,1
1779391021,8.05374,8.05374,8.35636,0.379197,0.405838,1,1
1779691022,8.08638,8.08638,8.38986,0.374812,0.40114,1,1
1780191020,7.8595,7.8595,8.15454,0.365164,0.390814,1,1
1780291023,7.83224,7.83224,8.12585,0.364098,0.389671,1,1
1780691016,8.04606,8.04606,8.3478,0.357427,0.382526,1,1
1780791074,8.04475,8.04475,8.34669,0.357176,0.382259,1,1
1781091017,7.94318,7.94318,8.24131,0.351963,0.376679,1,1
1781691017,8.03685,8.03685,8.33861,0.346805,0.371158,1,1
1781991019,8.05136,8.05136,8.35364,0.343893,0.368037,1,1
1782591020,7.89957,7.89957,8.19608,0.336355,0.359965,1,1
1782891026,8.05179,8.05179,8.35399,0.334373,0.357842,1,1
1783391022,8.18796,8.18796,8.49527,0.331434,0.354696,1,1
1783491040,8.1758,8.1758,8.48261,0.330728,0.353938,1,1
1783791017,8.05496,8.05496,8.35691,0.327397,0.350375,1,1
1784291593,7.97656,7.97656,8.27558,0.326882,0.349815,1,1
1784791151,7.8667,7.8667,8.16201,0.31986,0.342308,1,1
1784891364,7.87591,7.87591,8.17125,0.32164,0.344203,1,1
1785191018,7.96634,7.96634,8.26515,0.318156,0.340476,1,1
1785391017,7.94133,7.94133,8.23958,0.317429,0.339697,1,1
1785691018,7.95347,7.95347,8.25171,0.319521,0.341938,1,1
1786191075,8.0946,8.0946,8.39841,0.317025,0.339263,1,1
1786291018,8.03043,8.03043,8.33162,0.317955,0.340257,1,1
1786591017,8.12471,8.12471,8.42972,0.317265,0.339521,1,1
1787091025,8.16937,8.16937,8.47581,0.320646,0.343132,1,1
1787191042,8.18676,8.18676,8.49416,0.322383,0.344994,1,1
1787991016,7.93195,7.93195,8.2295,0.327376,0.350337,1,1
1788491016,7.92392,7.92392,8.22123,0.32967,0.352788,1,1
1788591071,7.95738,7.95738,8.25614,0.331838,0.355114,1,1
1788891016,8.12804,8.12804,8.43326,0.333327,0.356701,1,1
1789391017,7.90564,7.90564,8.20237,0.339598,0.363402,1,1
1789891043,8.05663,8.05663,8.35944,0.340364,0.364229,1,1
1789991017,8.02694,8.02694,8.32824,0.341456,0.365394,1,1
1790291061,7.77896,7.77896,8.07073,0.341454,0.365388,1,1
1790891199,8.07588,8.07588,8.37903,0.343317,0.367379,1,1
1791191033,8.18669,8.18669,8.4942,0.345555,0.369781,1,1
1791691249,7.85483,7.85483,8.14955,0.342461,0.366468,1,1
1792291019,8.0956,8.0956,8.39996,0.35156,0.376209,1,1
1792591016,8.15718,8.15718,8.46379,0.358315,0.383438,1,1
1793091020,8.13114,8.13114,8.43676,0.377748,0.40424,1,1
1793191016,8.18444,8.18444,8.49199,0.373803,0.400017,1,1
1793491030,8.22162,8.22162,8.53059,0.37797,0.404477,1,1
1793691019,8.06056,8.06056,8.3637,0.367335,0.393095,1,1
1793991018,8.11026,8.11026,8.41513,0.386795,0.413923,1,1
1794491028,8.03441,8.03441,8.33678,0.387123,0.41427,1,1
1794591017,8.111,8.111,8.41617,0.387134,0.414274,1,1
1794891016,8.13967,8.13967,8.44573,0.406697,0.435207,1,1
1795091143,8.12675,8.12675,8.43286,0.416384,0.445577,1,1
1795391021,7.9339,7.9339,8.23248,0.406542,0.435048,1,1
1795891018,8.1349,8.1349,8.44106,0.426858,0.456773,1,1
1795991019,8.02447,8.02447,8.32627,0.417106,0.446345,1,1
1796391016,8.18151,8.18151,8.48948,0.435059,0.465553,1,1
1796991351,8.12618,8.12618,8.43163,0.438306,0.46903,1,1
1797291235,8.03653,8.03653,8.33841,0.461627,0.49398,1,1
1797791018,8.25991,8.25991,8.57046,0.466914,0.499627,1,1
1797891040,8.19113,8.19113,8.49934,0.464982,0.497571,1,1
1798191040,8.26946,8.26946,8.58095,0.478973,0.512534,1,1
1798691040,7.94598,7.94598,8.24442,0.484464,0.518377,1,1
1799091021,8.20878,8.20878,8.51671,0.465939,0.498547,1,1
1799291020,8.08049,8.08049,8.38386,0.449301,0.480745,1,1
1799591016,7.99693,7.99693,8.29708,0.429401,0.459445,1,1
1800091032,8.02347,8.02347,8.32458,0.387686,0.414805,1,1
1800191017,7.97318,7.97318,8.27251,0.380473,0.407093,1,1
1800491016,8.01258,8.01258,8.31331,0.359817,0.384985,1,1
1800991014,8.07355,8.07355,8.37667,0.328777,0.351773,1,1
1801391117,7.9824,7.9824,8.28331,0.306396,0.327824,1,1
1801591018,7.91314,7.91314,8.21011,0.296207,0.316925,1,1
1801891018,7.99057,7.99057,8.29051,0.280909,0.300554,1,1
1803291498,8.01976,8.01976,8.32066,0.224372,0.240059,1,1
1803791223,8.04894,8.04894,8.35236,0.211561,0.22635,1,1
1804191018,7.93757,7.93757,8.23713,0.204342,0.218625,1,1
1804391088,7.89954,7.89954,8.1974,0.200799,0.214836,1,1
1804691021,7.99429,7.99429,8.29428,0.19786,0.211686,1,1
1805191028,7.98458,7.98458,8.28561,0.195531,0.209196,1,1
1805691052,8.0889,8.0889,8.39401,0.196204,0.209913,1,1
1805791018,7.97048,7.97048,8.27104,0.19755,0.211353,1,1
1806091028,7.9417,7.9417,8.23958,0.195784,0.209463,1,1
1806591018,7.99264,7.99264,8.29265,0.201634,0.21572,1,1
1806691017,8.05873,8.05873,8.3626,0.203519,0.21774,1,1
1806991022,8.06006,8.06006,8.36398,0.206625,0.221062,1,1
1807491084,8.10669,8.10669,8.41105,0.212896,0.22777,1,1
1808091018,8.02604,8.02604,8.32831,0.22073,0.236142,1,1
1808391017,8.17784,8.17784,8.48584,0.226982,0.242834,1,1
1808891016,8.04226,8.04226,8.34506,0.232566,0.248804,1,1
1808991016,8.14115,8.14115,8.44816,0.235776,0.252244,1,1
1809291635,8.24085,8.24085,8.55166,0.241625,0.258501,1,1
1809791372,8.09815,8.09815,8.40345,0.248664,0.266025,1,1
1809891243,8.05241,8.05241,8.35565,0.250738,0.268243,1,1
1810191019,7.78364,7.78364,8.07706,0.25323,0.270908,1,1
1810391026,7.86955,7.86955,8.16628,0.256091,0.273967,1,1
1810691020,7.75075,7.75075,8.04308,0.260417,0.278597,1,1
1811191018,8.09681,8.09681,8.40215,0.26696,0.285594,1,1
1811291032,8.1115,8.1115,8.41737,0.268751,0.287512,1,1
1811591021,8.13945,8.13945,8.44614,0.269764,0.288598,1,1
1811791018,8.06886,8.06886,8.37337,0.275014,0.294212,1,1
1812091018,8.05222,8.05222,8.35594,0.28342,0.303211,1,1
1812491018,8.15658,8.15658,8.46423,0.293017,0.313479,1,1
1812691023,7.98827,7.98827,8.28975,0.297642,0.318425,1,1
1812991017,8.1126,8.1126,8.41839,0.308483,0.330024,1,1
1813491027,8.13735,8.13735,8.44476,0.324934,0.347615,1,1
1813591018,8.18174,8.18174,8.49051,0.326284,0.349062,1,1
1813891016,8.05151,8.05151,8.35559,0.33691,0.360436,1,1
1814391019,8.03774,8.03774,8.34083,0.348787,0.373138,1,1
1814991020,8.0094,8.0094,8.31164,0.369696,0.395509,1,1
1815291086,8.14799,8.14799,8.45612,0.379471,0.405968,1,1
1815791353,8.00747,8.00747,8.30987,0.390362,0.417608,1,1
1815891469,8.00266,8.00266,8.3047,0.392338,0.419728,1,1
1816391021,8.06574,8.06574,8.37041,0.399254,0.427126,1,1
1816691019,8.16376,8.16376,8.47236,0.409624,0.438223,1,1
1817191043,8.20149,8.20149,8.51091,0.414741,0.443679,1,1
1817591048,8.12503,8.12503,8.43218,0.419141,0.448392,1,1
1817791021,8.06851,8.06851,8.37296,0.418943,0.448179,1,1
1818091023,8.26726,8.26726,8.579,0.419775,0.449055,1,1
1818491028,8.1614,8.1614,8.46909,0.41782,0.446945,1,1
1818691017,8.18685,8.18685,8.49671,0.411832,0.440542,1,1
1818991017,8.06962,8.06962,8.37519,0.402426,0.430478,1,1
1819491044,8.20671,8.20671,8.51785,0.384193,0.410971,1,1
1819891134,7.99613,7.99613,8.29756,0.368584,0.394267,1,1
1820091020,8.07629,8.07629,8.38211,0.360657,0.385787,1,1
1820391018,8.03423,8.03423,8.33856,0.349245,0.373577,1,1
1820891040,8.03398,8.03398,8.33815,0.333549,0.356789,1,1
1820991016,8.03549,8.03549,8.33944,0.328657,0.351558,1,1
1821291018,8.02662,8.02662,8.33085,0.32435,0.346947,1,1
1821791727,8.25879,8.25879,8.57173,0.313309,0.33514,1,1
1822291162,8.03391,8.03391,8.3382,0.30383,0.324992,1,1
1822391178,7.97655,7.97655,8.27831,0.303577,0.324724,1,1
1822691040,7.93146,7.93146,8.2316,0.298659,0.319457,1,1
1823191016,7.958,7.958,8.25926,0.293132,0.313544,1,1
1823291029,7.87916,7.87916,8.17772,0.292598,0.31298,1,1
1823591017,7.95662,7.95662,8.25785,0.288699,0.30881,1,1
1824091018,8.30845,8.30845,8.62284,0.288328,0.308409,1,1
1824491017,8.2353,8.2353,8.54725,0.288021,0.308079,1,1
1824691016,8.19701,8.19701,8.50741,0.288543,0.308638,1,1
1824991018,8.04585,8.04585,8.3505,0.288317,0.308392,1,1
1825491016,7.95262,7.95262,8.25397,0.289772,0.309943,1,1
1825591017,7.99979,7.99979,8.30231,0.290125,0.31032,1,1
1825891029,7.97413,7.97413,8.27619,0.286727,0.306683,1,1
1826091075,8.10131,8.10131,8.40771,0.287807,0.307838,1,1
1826391097,8.08034,8.08034,8.38642,0.287204,0.307195,1,1
1826491017,8.02557,8.02557,8.32974,0.28766,0.30768,1,1
1826791022,8.09412,8.09412,8.40057,0.290653,0.310882,1,1
1827391016,7.91496,7.91496,8.21444,0.289687,0.309849,1,1
1827491016,7.91974,7.91974,8.21989,0.28669,0.306636,1,1
1827791102,8.09072,8.09072,8.39708,0.287996,0.308036,1,1
1828291465,6.99647,6.99647,7.26123,0.289241,0.309359,1,1
1828391196,6.59494,6.59494,6.84449,0.289736,0.309889,1,1
1828691236,5.19724,5.19724,5.39393,0.287234,0.307213,1,1
1829191019,4.32377,4.32377,4.48734,0.281788,0.301381,1,1
1829391081,3.82043,3.82043,3.96512,0.281378,0.300941,1,1
1829691113,3.87186,3.87186,4.01823,0.276515,0.29574,1,1
1830191017,2.94441,2.94441,3.05578,0.268311,0.286964,1,1
1830291017,2.96717,2.96717,3.0795,0.266339,0.284852,1,1
1830591047,2.95531,2.95531,3.06707,0.261253,0.279413,1,1
1831091017,2.84876,2.84876,2.95662,0.253601,0.271225,1,1
1831191016,2.88268,2.88268,2.99172,0.251973,0.269487,1,1
1831591020,2.78809,2.78809,2.89351,0.246531,0.263658,1,1
1831691018,2.69983,2.69983,2.80192,0.245777,0.262854,1,1
1831991017,2.52576,2.52576,2.62119,0.242876,0.259751,1,1
1832491057,2.16575,2.16575,2.24756,0.239211,0.255829,1,1
1832591039,1.97883,1.97883,2.05373,0.238401,0.254963,1,1
1832891019,2.09318,2.09318,2.17224,0.235493,0.251853,1,1
1833391030,2.06479,2.06479,2.14288,0.231889,0.247997,1,1
1833791016,2.28635,2.28635,2.37279,0.231057,0.247106,1,1
1833991149,2.40211,2.40211,2.49295,0.231168,0.247223,1,1
1834291589,1.90458,1.90458,1.97658,0.230811,0.246843,1,1
1834791167,2.07675,2.07675,2.1553,0.231696,0.24779,1,1
1834891095,1.74799,1.74799,1.81408,0.232343,0.248477,1,1
1835191216,1.48893,1.48893,1.54524,0.234251,0.250518,1,1
1835391019,2.12638,2.12638,2.20713,0.235486,0.251836,1,1
1835691055,2.13364,2.13364,2.2143,0.236636,0.253066,1,1
1835791019,2.16728,2.16728,2.2496,0.236885,0.253336,1,1
1836191024,2.08319,2.08319,2.16198,0.238967,0.255558,1,1
1836291017,2.14804,2.14804,2.22967,0.239723,0.256366,1,1
1836591018,2.21575,2.21575,2.29949,0.24202,0.258818,1,1
1837091068,1.96826,1.96826,2.04296,0.242024,0.258824,1,1
1837291017,1.58305,1.58305,1.64289,0.243024,0.259893,1,1
1837591016,1.92701,1.92701,1.99979,0.244632,0.261608,1,1
1838091059,2.0165,2.0165,2.09307,0.248264,0.265492,1,1
1838191017,2.32489,2.32489,2.4131,0.248457,0.265701,1,1
1838491017,1.85905,1.85905,1.9294,0.250036,0.267388,1,1
1838991019,1.56347,1.56347,1.62283,0.251877,0.269355,1,1
1839491016,2.30673,2.30673,2.39435,0.254194,0.271828,1,1
1839591017,2.33975,2.33975,2.42858,0.254443,0.272094,1,1
1839891018,1.93437,1.93437,2.00783,0.254899,0.272587,1,1
1840391081,2.01465,2.01465,2.09105,0.258017,0.275914,1,1
1840491050,1.88,1.88,1.9513,0.259309,0.277299,1,1
1840791338,2.02117,2.02117,2.09786,0.262267,0.280456,1,1
1841291058,2.17275,2.17275,2.25521,0.26567,0.284095,1,1
1841391019,2.3954,2.3954,2.486,0.266485,0.284971,1,1
1841691018,2.60004,2.60004,2.69875,0.268103,0.286703,1,1
1841891084,2.04182,2.04182,2.11933,0.270215,0.288958,1,1
1842191018,1.67194,1.67194,1.73542,0.273698,0.292682,1,1
