timestamp,voltage_v,voltage_filtered_v,current_a,current_filtered_a,average_current_a,discharged_mah,remaining,scale,temperature,cell_count,voltage_cell_v[0],voltage_cell_v[1],voltage_cell_v[2],voltage_cell_v[3],voltage_cell_v[4],voltage_cell_v[5],voltage_cell_v[6],voltage_cell_v[7],voltage_cell_v[8],voltage_cell_v[9],max_cell_voltage_delta,capacity,cycle_count,run_time_to_empty,average_time_to_empty,serial_number,state_of_health,max_error,connected,source,priority,id,is_powering_off,warning
1104040098,15.7548,15.8795,92.7638,92.7368,0.0,28395.2,0.645967,1.05797,nan,4,3.96988,3.96988,3.96988,3.96988,0.0,0.0,0.0,0.0,0.0,0.0,0.0,0,0,0,0,0,0,0,1,0,0,1,0,0
1104050108,15.7675,15.8784,92.7638,92.7374,0.0,28395.5,0.64554,1.05804,nan,4,3.9696,3.9696,3.9696,3.9696,0.0,0.0,0.0,0.0,0.0,0.0,0.0,0,0,0,0,0,0,0,1,0,0,1,0,0
1104060118,15.8824,15.8784,92.7638,92.7379,0.0,28395.8,0.645555,1.05804,nan,4,3.96961,3.96961,3.96961,3.96961,0.0,0.0,0.0,0.0,0.0,0.0,0.0,0,0,0,0,0,0,0,1,0,0,1,0,0
1104070119,15.8058,15.8777,92.7638,92.7384,0.0,28396.0,0.645279,1.05809,nan,4,3.96943,3.96943,3.96943,3.96943,0.0,0.0,0.0,0.0,0.0,0.0,0.0,0,0,0,0,0,0,0,1,0,0,1,0,0
1104080105,15.7931,15.8769,92.7638,92.7389,0.0,28396.3,0.644957,1.05814,nan,4,3.96922,3.96922,3.96922,3.96922,0.0,0.0,0.0,0.0,0.0,0.0,0.0,0,0,0,0,0,0,0,1,0,0,1,0,0
1104370097,15.9974,15.8739,92.7345,92.7399,0.0,28403.7,0.643806,1.05834,nan,4,3.96847,3.96847,3.96847,3.96847,0.0,0.0,0.0,0.0,0.0,0.0,0.0,0,0,0,0,0,0,0,1,0,0,1,0,0
1104380157,16.0357,15.8755,92.7638,92.7403,0.0,28404.0,0.644422,1.05823,nan,4,3.96887,3.96887,3.96887,3.96887,0.0,0.0,0.0,0.0,0.0,0.0,0.0,0,0,0,0,0,0,0,1,0,0,1,0,0
1104390097,16.0612,15.8773,92.7638,92.7408,0.0,28404.3,0.645129,1.05811,nan,4,3.96933,3.96933,3.96933,3.96933,0.0,0.0,0.0,0.0,0.0,0.0,0.0,0,0,0,0,0,0,0,1,0,0,1,0,0
1104400103,15.9846,15.8784,92.7638,92.7412,0.0,28404.5,0.645537,1.05804,nan,4,3.9696,3.9696,3.9696,3.9696,0.0,0.0,0.0,0.0,0.0,0.0,0.0,0,0,0,0,0,0,0,1,0,0,1,0,0
1104410169,15.8314,15.8779,92.7638,92.7417,0.0,28404.8,0.645359,1.05807,nan,4,3.96948,3.96948,3.96948,3.96948,0.0,0.0,0.0,0.0,0.0,0.0,0.0,0,0,0,0,0,0,0,1,0,0,1,0,0
1104420123,15.8058,15.8772,92.6759,92.7404,0.0,28405.0,0.645084,1.05812,nan,4,3.9693,3.9693,3.9693,3.9693,0.0,0.0,0.0,0.0,0.0,0.0,0.0,0,0,0,0,0,0,0,1,0,0,1,0,0
1104430115,16.0612,15.879,92.7931,92.7414,0.0,28405.3,0.645785,1.058,nan,4,3.96976,3.96976,3.96976,3.96976,0.0,0.0,0.0,0.0,0.0,0.0,0.0,0,0,0,0,0,0,0,1,0,0,1,0,0
1104440098,15.7548,15.8778,92.7052,92.7407,0.0,28405.6,0.645312,1.05808,nan,4,3.96945,3.96945,3.96945,3.96945,0.0,0.0,0.0,0.0,0.0,0.0,0.0,0,0,0,0,0,0,0,1,0,0,1,0,0
1104450158,15.9207,15.8782,92.7052,92.74,0.0,28405.8,0.645475,1.05805,nan,4,3.96956,3.96956,3.96956,3.96956,0.0,0.0,0.0,0.0,0.0,0.0,0.0,0,0,0,0,0,0,0,1,0,0,1,0,0
1104460103,15.742,15.8769,92.7638,92.7405,0.0,28406.1,0.644957,1.05814,nan,4,3.96922,3.96922,3.96922,3.96922,0.0,0.0,0.0,0.0,0.0,0.0,0.0,0,0,0,0,0,0,0,1,0,0,1,0,0
1104510104,15.8186,15.8751,92.7052,92.7404,0.0,28407.4,0.644263,1.05826,nan,4,3.96877,3.96877,3.96877,3.96877,0.0,0.0,0.0,0.0,0.0,0.0,0.0,0,0,0,0,0,0,0,1,0,0,1,0,0
1104520105,16.0484,15.8768,92.7638,92.7409,0.0,28407.6,0.644923,1.05815,nan,4,3.9692,3.9692,3.9692,3.9692,0.0,0.0,0.0,0.0,0.0,0.0,0.0,0,0,0,0,0,0,0,1,0,0,1,0,0
1104530099,15.8314,15.8763,92.7638,92.7414,0.0,28407.9,0.64475,1.05818,nan,4,3.96909,3.96909,3.96909,3.96909,0.0,0.0,0.0,0.0,0.0,0.0,0.0,0,0,0,0,0,0,0,1,0,0,1,0,0
1104540103,16.0612,15.8782,92.7638,92.7418,0.0,28408.1,0.645454,1.05806,nan,4,3.96954,3.96954,3.96954,3.96954,0.0,0.0,0.0,0.0,0.0,0.0,0.0,0,0,0,0,0,0,0,1,0,0,1,0,0
1104830209,15.8314,15.8759,92.7345,92.7379,0.0,28415.6,0.644582,1.05821,nan,4,3.96898,3.96898,3.96898,3.96898,0.0,0.0,0.0,0.0,0.0,0.0,0.0,0,0,0,0,0,0,0,1,0,0,1,0,0
1104840099,15.8569,15.8757,92.7345,92.7379,0.0,28415.9,0.64451,1.05822,nan,4,3.96893,3.96893,3.96893,3.96893,0.0,0.0,0.0,0.0,0.0,0.0,0.0,0,0,0,0,0,0,0,1,0,0,1,0,0
1104850097,15.7292,15.8743,92.7638,92.7384,0.0,28416.1,0.643952,1.05832,nan,4,3.96857,3.96857,3.96857,3.96857,0.0,0.0,0.0,0.0,0.0,0.0,0.0,0,0,0,0,0,0,0,1,0,0,1,0,0
1104860126,15.8314,15.8739,92.7638,92.7389,0.0,28416.4,0.643789,1.05834,nan,4,3.96846,3.96846,3.96846,3.96846,0.0,0.0,0.0,0.0,0.0,0.0,0.0,0,0,0,0,0,0,0,1,0,0,1,0,0
1104870159,16.0101,15.8752,92.7345,92.7388,0.0,28416.6,0.644308,1.05825,nan,4,3.9688,3.9688,3.9688,3.9688,0.0,0.0,0.0,0.0,0.0,0.0,0.0,0,0,0,0,0,0,0,1,0,0,1,0,0
1104880124,15.9846,15.8763,92.7345,92.7387,0.0,28416.9,0.644725,1.05818,nan,4,3.96907,3.96907,3.96907,3.96907,0.0,0.0,0.0,0.0,0.0,0.0,0.0,0,0,0,0,0,0,0,1,0,0,1,0,0
1104890102,16.0229,15.8777,92.6759,92.7375,0.0,28417.1,0.645283,1.05809,nan,4,3.96943,3.96943,3.96943,3.96943,0.0,0.0,0.0,0.0,0.0,0.0,0.0,0,0,0,0,0,0,0,1,0,0,1,0,0
1104900112,15.7675,15.8766,92.7638,92.738,0.0,28417.4,0.644864,1.05816,nan,4,3.96916,3.96916,3.96916,3.96916,0.0,0.0,0.0,0.0,0.0,0.0,0.0,0,0,0,0,0,0,0,1,0,0,1,0,0
1104910133,15.9463,15.8773,92.7052,92.7373,0.0,28417.7,0.645129,1.05811,nan,4,3.96933,3.96933,3.96933,3.96933,0.0,0.0,0.0,0.0,0.0,0.0,0.0,0,0,0,0,0,0,0,1,0,0,1,0,0
1104920102,15.7675,15.8762,92.7345,92.7373,0.0,28417.9,0.644711,1.05818,nan,4,3.96906,3.96906,3.96906,3.96906,0.0,0.0,0.0,0.0,0.0,0.0,0.0,0,0,0,0,0,0,0,1,0,0,1,0,0
1104960099,15.9591,15.8779,92.7052,92.7382,0.0,28418.9,0.645342,1.05808,nan,4,3.96947,3.96947,3.96947,3.96947,0.0,0.0,0.0,0.0,0.0,0.0,0.0,0,0,0,0,0,0,0,1,0,0,1,0,0
1104970110,15.8314,15.8774,92.7638,92.7387,0.0,28419.2,0.645164,1.05811,nan,4,3.96936,3.96936,3.96936,3.96936,0.0,0.0,0.0,0.0,0.0,0.0,0.0,0,0,0,0,0,0,0,1,0,0,1,0,0
1104980096,15.8569,15.8772,92.7052,92.738,0.0,28419.5,0.645086,1.05812,nan,4,3.96931,3.96931,3.96931,3.96931,0.0,0.0,0.0,0.0,0.0,0.0,0.0,0,0,0,0,0,0,0,1,0,0,1,0,0
1104990099,15.8058,15.8765,92.7638,92.7385,0.0,28419.7,0.644814,1.05817,nan,4,3.96913,3.96913,3.96913,3.96913,0.0,0.0,0.0,0.0,0.0,0.0,0.0,0,0,0,0,0,0,0,1,0,0,1,0,0
1105280097,15.9718,15.877,92.7931,92.7395,0.0,28427.2,0.644989,1.05814,nan,4,3.96924,3.96924,3.96924,3.96924,0.0,0.0,0.0,0.0,0.0,0.0,0.0,0,0,0,0,0,0,0,1,0,0,1,0,0
1105290099,16.0612,15.8788,92.7345,92.7394,0.0,28427.5,0.645691,1.05801,nan,4,3.9697,3.9697,3.9697,3.9697,0.0,0.0,0.0,0.0,0.0,0.0,0.0,0,0,0,0,0,0,0,1,0,0,1,0,0
1105300102,15.9591,15.8796,92.7052,92.7387,0.0,28427.7,0.645997,1.05796,nan,4,3.9699,3.9699,3.9699,3.9699,0.0,0.0,0.0,0.0,0.0,0.0,0.0,0,0,0,0,0,0,0,1,0,0,1,0,0
1105310141,16.0995,15.8818,92.7052,92.738,0.0,28428.0,0.646834,1.05782,nan,4,3.97044,3.97044,3.97044,3.97044,0.0,0.0,0.0,0.0,0.0,0.0,0.0,0,0,0,0,0,0,0,1,0,0,1,0,0
1105320107,15.8186,15.8811,92.7052,92.7374,0.0,28428.2,0.646594,1.05786,nan,4,3.97029,3.97029,3.97029,3.97029,0.0,0.0,0.0,0.0,0.0,0.0,0.0,0,0,0,0,0,0,0,1,0,0,1,0,0
1105330123,15.7931,15.8803,92.7052,92.7368,0.0,28428.5,0.646258,1.05792,nan,4,3.97007,3.97007,3.97007,3.97007,0.0,0.0,0.0,0.0,0.0,0.0,0.0,0,0,0,0,0,0,0,1,0,0,1,0,0
1105340098,15.8314,15.8798,92.7052,92.7361,0.0,28428.7,0.646072,1.05795,nan,4,3.96995,3.96995,3.96995,3.96995,0.0,0.0,0.0,0.0,0.0,0.0,0.0,0,0,0,0,0,0,0,1,0,0,1,0,0
1105350107,16.0229,15.8812,92.7052,92.7355,0.0,28429.0,0.646617,1.05785,nan,4,3.9703,3.9703,3.9703,3.9703,0.0,0.0,0.0,0.0,0.0,0.0,0.0,0,0,0,0,0,0,0,1,0,0,1,0,0
1105360097,15.8441,15.8808,92.7638,92.7361,0.0,28429.3,0.646476,1.05788,nan,4,3.97021,3.97021,3.97021,3.97021,0.0,0.0,0.0,0.0,0.0,0.0,0.0,0,0,0,0,0,0,0,1,0,0,1,0,0
1105370096,15.7548,15.8796,92.7638,92.7366,0.0,28429.5,0.645996,1.05796,nan,4,3.9699,3.9699,3.9699,3.9699,0.0,0.0,0.0,0.0,0.0,0.0,0.0,0,0,0,0,0,0,0,1,0,0,1,0,0
1105430154,15.7548,15.8737,92.7638,92.7364,0.0,28431.1,0.643724,1.05836,nan,4,3.96842,3.96842,3.96842,3.96842,0.0,0.0,0.0,0.0,0.0,0.0,0.0,0,0,0,0,0,0,0,1,0,0,1,0,0
1105440155,15.8697,15.8736,92.7638,92.7369,0.0,28431.3,0.643708,1.05836,nan,4,3.96841,3.96841,3.96841,3.96841,0.0,0.0,0.0,0.0,0.0,0.0,0.0,0,0,0,0,0,0,0,1,0,0,1,0,0
1105450156,15.8058,15.873,92.7345,92.7369,0.0,28431.6,0.64345,1.0584,nan,4,3.96824,3.96824,3.96824,3.96824,0.0,0.0,0.0,0.0,0.0,0.0,0.0,0,0,0,0,0,0,0,1,0,0,1,0,0
1105460235,15.8058,15.8723,92.7345,92.7368,0.0,28431.8,0.643195,1.05845,nan,4,3.96808,3.96808,3.96808,3.96808,0.0,0.0,0.0,0.0,0.0,0.0,0.0,0,0,0,0,0,0,0,1,0,0,1,0,0
1105770136,15.8314,15.8738,92.7052,92.7293,0.0,28439.8,0.643769,1.05835,nan,4,3.96845,3.96845,3.96845,3.96845,0.0,0.0,0.0,0.0,0.0,0.0,0.0,0,0,0,0,0,0,0,1,0,0,1,0,0
1105780130,16.0101,15.8751,92.7345,92.7294,0.0,28440.1,0.644288,1.05826,nan,4,3.96879,3.96879,3.96879,3.96879,0.0,0.0,0.0,0.0,0.0,0.0,0.0,0,0,0,0,0,0,0,1,0,0,1,0,0
1105790153,15.8569,15.875,92.7638,92.7301,0.0,28440.3,0.644219,1.05827,nan,4,3.96874,3.96874,3.96874,3.96874,0.0,0.0,0.0,0.0,0.0,0.0,0.0,0,0,0,0,0,0,0,1,0,0,1,0,0
1105800135,16.0229,15.8764,92.7345,92.7301,0.0,28440.6,0.644783,1.05817,nan,4,3.96911,3.96911,3.96911,3.96911,0.0,0.0,0.0,0.0,0.0,0.0,0.0,0,0,0,0,0,0,0,1,0,0,1,0,0
1105810135,15.8186,15.8759,92.6759,92.7291,0.0,28440.9,0.644562,1.05821,nan,4,3.96897,3.96897,3.96897,3.96897,0.0,0.0,0.0,0.0,0.0,0.0,0.0,0,0,0,0,0,0,0,1,0,0,1,0,0
1105820128,16.0612,15.8777,92.7345,92.7292,0.0,28441.1,0.645268,1.05809,nan,4,3.96942,3.96942,3.96942,3.96942,0.0,0.0,0.0,0.0,0.0,0.0,0.0,0,0,0,0,0,0,0,1,0,0,1,0,0
1105830150,15.576,15.8747,92.7052,92.7287,0.0,28441.4,0.644119,1.05829,nan,4,3.96868,3.96868,3.96868,3.96868,0.0,0.0,0.0,0.0,0.0,0.0,0.0,0,0,0,0,0,0,0,1,0,0,1,0,0
1105840135,15.8186,15.8742,92.7638,92.7294,0.0,28441.6,0.643906,1.05832,nan,4,3.96854,3.96854,3.96854,3.96854,0.0,0.0,0.0,0.0,0.0,0.0,0.0,0,0,0,0,0,0,0,1,0,0,1,0,0
1105850134,15.7803,15.8732,92.7345,92.7295,0.0,28441.9,0.643548,1.05839,nan,4,3.96831,3.96831,3.96831,3.96831,0.0,0.0,0.0,0.0,0.0,0.0,0.0,0,0,0,0,0,0,0,1,0,0,1,0,0
1105860133,16.0101,15.8746,92.7345,92.7296,0.0,28442.1,0.64407,1.0583,nan,4,3.96865,3.96865,3.96865,3.96865,0.0,0.0,0.0,0.0,0.0,0.0,0.0,0,0,0,0,0,0,0,1,0,0,1,0,0
1105900121,15.8569,15.8746,92.7638,92.7322,0.0,28443.2,0.644091,1.05829,nan,4,3.96866,3.96866,3.96866,3.96866,0.0,0.0,0.0,0.0,0.0,0.0,0.0,0,0,0,0,0,0,0,1,0,0,1,0,0
1105910113,16.0229,15.8761,92.7052,92.7317,0.0,28443.4,0.644655,1.05819,nan,4,3.96903,3.96903,3.96903,3.96903,0.0,0.0,0.0,0.0,0.0,0.0,0.0,0,0,0,0,0,0,0,1,0,0,1,0,0
1105920114,15.8569,15.8759,92.7345,92.7317,0.0,28443.7,0.644582,1.05821,nan,4,3.96898,3.96898,3.96898,3.96898,0.0,0.0,0.0,0.0,0.0,0.0,0.0,0,0,0,0,0,0,0,1,0,0,1,0,0
1105930102,15.8569,15.8757,92.7345,92.7318,0.0,28443.9,0.64451,1.05822,nan,4,3.96893,3.96893,3.96893,3.96893,0.0,0.0,0.0,0.0,0.0,0.0,0.0,0,0,0,0,0,0,0,1,0,0,1,0,0
1106210137,15.8186,15.8722,92.7052,92.7302,0.0,28451.2,0.643156,1.05845,nan,4,3.96805,3.96805,3.96805,3.96805,0.0,0.0,0.0,0.0,0.0,0.0,0.0,0,0,0,0,0,0,0,1,0,0,1,0,0
1106220119,15.8314,15.8718,92.6759,92.7291,0.0,28451.4,0.643001,1.05848,nan,4,3.96795,3.96795,3.96795,3.96795,0.0,0.0,0.0,0.0,0.0,0.0,0.0,0,0,0,0,0,0,0,1,0,0,1,0,0
1106230163,15.8569,15.8717,92.7638,92.7298,0.0,28451.7,0.642943,1.05849,nan,4,3.96791,3.96791,3.96791,3.96791,0.0,0.0,0.0,0.0,0.0,0.0,0.0,0,0,0,0,0,0,0,1,0,0,1,0,0
1106240104,16.0101,15.873,92.7345,92.7299,0.0,28451.9,0.643471,1.0584,nan,4,3.96826,3.96826,3.96826,3.96826,0.0,0.0,0.0,0.0,0.0,0.0,0.0,0,0,0,0,0,0,0,1,0,0,1,0,0
1106250106,15.8058,15.8724,92.7052,92.7294,0.0,28452.2,0.643215,1.05844,nan,4,3.96809,3.96809,3.96809,3.96809,0.0,0.0,0.0,0.0,0.0,0.0,0.0,0,0,0,0,0,0,0,1,0,0,1,0,0
1106260180,15.7931,15.8716,92.7638,92.7301,0.0,28452.5,0.642913,1.0585,nan,4,3.96789,3.96789,3.96789,3.96789,0.0,0.0,0.0,0.0,0.0,0.0,0.0,0,0,0,0,0,0,0,1,0,0,1,0,0
1106270129,16.0612,15.8735,92.6759,92.729,0.0,28452.7,0.643636,1.05837,nan,4,3.96836,3.96836,3.96836,3.96836,0.0,0.0,0.0,0.0,0.0,0.0,0.0,0,0,0,0,0,0,0,1,0,0,1,0,0
1106280108,15.8441,15.8732,92.7638,92.7297,0.0,28453.0,0.643524,1.05839,nan,4,3.96829,3.96829,3.96829,3.96829,0.0,0.0,0.0,0.0,0.0,0.0,0.0,0,0,0,0,0,0,0,1,0,0,1,0,0
1106290096,15.7931,15.8724,92.7052,92.7292,0.0,28453.2,0.643219,1.05844,nan,4,3.96809,3.96809,3.96809,3.96809,0.0,0.0,0.0,0.0,0.0,0.0,0.0,0,0,0,0,0,0,0,1,0,0,1,0,0
1106300169,15.7803,15.8715,92.7052,92.7287,0.0,28453.5,0.642869,1.0585,nan,4,3.96786,3.96786,3.96786,3.96786,0.0,0.0,0.0,0.0,0.0,0.0,0.0,0,0,0,0,0,0,0,1,0,0,1,0,0
1106350109,15.9718,15.8732,92.7052,92.7304,0.0,28454.8,0.643554,1.05839,nan,4,3.96831,3.96831,3.96831,3.96831,0.0,0.0,0.0,0.0,0.0,0.0,0.0,0,0,0,0,0,0,0,1,0,0,1,0,0
1106360137,15.8186,15.8727,92.7638,92.731,0.0,28455.0,0.643346,1.05842,nan,4,3.96817,3.96817,3.96817,3.96817,0.0,0.0,0.0,0.0,0.0,0.0,0.0,0,0,0,0,0,0,0,1,0,0,1,0,0
1106370107,15.8314,15.8723,92.7052,92.7305,0.0,28455.3,0.643189,1.05845,nan,4,3.96807,3.96807,3.96807,3.96807,0.0,0.0,0.0,0.0,0.0,0.0,0.0,0,0,0,0,0,0,0,1,0,0,1,0,0
1106380163,16.074,15.8743,92.7345,92.7306,0.0,28455.6,0.643957,1.05832,nan,4,3.96857,3.96857,3.96857,3.96857,0.0,0.0,0.0,0.0,0.0,0.0,0.0,0,0,0,0,0,0,0,1,0,0,1,0,0
1106670155,15.8314,15.8721,92.7052,92.7279,0.0,28463.0,0.64312,1.05846,nan,4,3.96803,3.96803,3.96803,3.96803,0.0,0.0,0.0,0.0,0.0,0.0,0.0,0,0,0,0,0,0,0,1,0,0,1,0,0
1106680167,16.0229,15.8736,92.7638,92.7286,0.0,28463.3,0.643693,1.05836,nan,4,3.9684,3.9684,3.9684,3.9684,0.0,0.0,0.0,0.0,0.0,0.0,0.0,0,0,0,0,0,0,0,1,0,0,1,0,0
1106690171,15.8952,15.8738,92.7345,92.7287,0.0,28463.5,0.643776,1.05835,nan,4,3.96845,3.96845,3.96845,3.96845,0.0,0.0,0.0,0.0,0.0,0.0,0.0,0,0,0,0,0,0,0,1,0,0,1,0,0
1106700128,15.8186,15.8733,92.7052,92.7283,0.0,28463.8,0.643566,1.05838,nan,4,3.96832,3.96832,3.96832,3.96832,0.0,0.0,0.0,0.0,0.0,0.0,0.0,0,0,0,0,0,0,0,1,0,0,1,0,0
1106710130,16.0612,15.8751,92.6759,92.7272,0.0,28464.1,0.644281,1.05826,nan,4,3.96878,3.96878,3.96878,3.96878,0.0,0.0,0.0,0.0,0.0,0.0,0.0,0,0,0,0,0,0,0,1,0,0,1,0,0
1106720163,15.9974,15.8763,92.7345,92.7274,0.0,28464.3,0.644747,1.05818,nan,4,3.96909,3.96909,3.96909,3.96909,0.0,0.0,0.0,0.0,0.0,0.0,0.0,0,0,0,0,0,0,0,1,0,0,1,0,0
1106730190,16.0484,15.878,92.7638,92.7281,0.0,28464.6,0.645402,1.05806,nan,4,3.96951,3.96951,3.96951,3.96951,0.0,0.0,0.0,0.0,0.0,0.0,0.0,0,0,0,0,0,0,0,1,0,0,1,0,0
1106740210,15.8186,15.8775,92.7052,92.7276,0.0,28464.8,0.645176,1.0581,nan,4,3.96936,3.96936,3.96936,3.96936,0.0,0.0,0.0,0.0,0.0,0.0,0.0,0,0,0,0,0,0,0,1,0,0,1,0,0
1106750151,15.9335,15.878,92.7638,92.7283,0.0,28465.1,0.64539,1.05807,nan,4,3.9695,3.9695,3.9695,3.9695,0.0,0.0,0.0,0.0,0.0,0.0,0.0,0,0,0,0,0,0,0,1,0,0,1,0,0
1106760153,15.9591,15.8788,92.7638,92.729,0.0,28465.3,0.645698,1.05801,nan,4,3.9697,3.9697,3.9697,3.9697,0.0,0.0,0.0,0.0,0.0,0.0,0.0,0,0,0,0,0,0,0,1,0,0,1,0,0
1106840101,15.8314,15.8804,92.7345,92.732,0.0,28467.4,0.64631,1.05791,nan,4,3.9701,3.9701,3.9701,3.9701,0.0,0.0,0.0,0.0,0.0,0.0,0.0,0,0,0,0,0,0,0,1,0,0,1,0,0
1106850101,15.8824,15.8804,92.7931,92.7332,0.0,28467.7,0.646317,1.05791,nan,4,3.97011,3.97011,3.97011,3.97011,0.0,0.0,0.0,0.0,0.0,0.0,0.0,0,0,0,0,0,0,0,1,0,0,1,0,0
1106860167,16.0229,15.8818,92.6759,92.732,0.0,28467.9,0.64686,1.05781,nan,4,3.97046,3.97046,3.97046,3.97046,0.0,0.0,0.0,0.0,0.0,0.0,0.0,0,0,0,0,0,0,0,1,0,0,1,0,0
1106870100,15.7548,15.8806,92.6759,92.7309,0.0,28468.2,0.646376,1.0579,nan,4,3.97014,3.97014,3.97014,3.97014,0.0,0.0,0.0,0.0,0.0,0.0,0.0,0,0,0,0,0,0,0,1,0,0,1,0,0
1106880099,15.7803,15.8796,92.7052,92.7304,0.0,28468.4,0.645994,1.05796,nan,4,3.9699,3.9699,3.9699,3.9699,0.0,0.0,0.0,0.0,0.0,0.0,0.0,0,0,0,0,0,0,0,1,0,0,1,0,0
1107160099,15.8186,15.8737,92.6759,92.7245,0.0,28475.6,0.643749,1.05835,nan,4,3.96844,3.96844,3.96844,3.96844,0.0,0.0,0.0,0.0,0.0,0.0,0.0,0,0,0,0,0,0,0,1,0,0,1,0,0
1107170112,15.8824,15.8738,92.7638,92.7253,0.0,28475.9,0.643782,1.05835,nan,4,3.96846,3.96846,3.96846,3.96846,0.0,0.0,0.0,0.0,0.0,0.0,0.0,0,0,0,0,0,0,0,1,0,0,1,0,0
1107180099,15.742,15.8725,92.7345,92.7255,0.0,28476.2,0.64328,1.05843,nan,4,3.96813,3.96813,3.96813,3.96813,0.0,0.0,0.0,0.0,0.0,0.0,0.0,0,0,0,0,0,0,0,1,0,0,1,0,0
1107190105,15.9974,15.8738,92.7931,92.7268,0.0,28476.4,0.643755,1.05835,nan,4,3.96844,3.96844,3.96844,3.96844,0.0,0.0,0.0,0.0,0.0,0.0,0.0,0,0,0,0,0,0,0,1,0,0,1,0,0
1107200098,15.9463,15.8745,92.7345,92.7269,0.0,28476.7,0.644032,1.0583,nan,4,3.96862,3.96862,3.96862,3.96862,0.0,0.0,0.0,0.0,0.0,0.0,0.0,0,0,0,0,0,0,0,1,0,0,1,0,0
1107210108,15.7292,15.873,92.7052,92.7265,0.0,28476.9,0.643478,1.0584,nan,4,3.96826,3.96826,3.96826,3.96826,0.0,0.0,0.0,0.0,0.0,0.0,0.0,0,0,0,0,0,0,0,1,0,0,1,0,0
1107220177,15.6016,15.8704,92.7638,92.7272,0.0,28477.2,0.642445,1.05858,nan,4,3.96759,3.96759,3.96759,3.96759,0.0,0.0,0.0,0.0,0.0,0.0,0.0,0,0,0,0,0,0,0,1,0,0,1,0,0
1107230096,15.7548,15.8692,92.7638,92.728,0.0,28477.4,0.642004,1.05865,nan,4,3.9673,3.9673,3.9673,3.9673,0.0,0.0,0.0,0.0,0.0,0.0,0.0,0,0,0,0,0,0,0,1,0,0,1,0,0
1107240098,15.9335,15.8698,92.7052,92.7275,0.0,28477.7,0.64225,1.05861,nan,4,3.96746,3.96746,3.96746,3.96746,0.0,0.0,0.0,0.0,0.0,0.0,0.0,0,0,0,0,0,0,0,1,0,0,1,0,0
1107250097,15.8186,15.8693,92.6759,92.7265,0.0,28478.0,0.642055,1.05865,nan,4,3.96734,3.96734,3.96734,3.96734,0.0,0.0,0.0,0.0,0.0,0.0,0.0,0,0,0,0,0,0,0,1,0,0,1,0,0
1107290099,15.8314,15.8713,92.7345,92.7271,0.0,28479.0,0.642816,1.05851,nan,4,3.96783,3.96783,3.96783,3.96783,0.0,0.0,0.0,0.0,0.0,0.0,0.0,0,0,0,0,0,0,0,1,0,0,1,0,0
1107300099,15.8314,15.8709,92.7052,92.7267,0.0,28479.3,0.642663,1.05854,nan,4,3.96773,3.96773,3.96773,3.96773,0.0,0.0,0.0,0.0,0.0,0.0,0.0,0,0,0,0,0,0,0,1,0,0,1,0,0
1107310099,16.0867,15.8731,92.7052,92.7263,0.0,28479.5,0.643485,1.0584,nan,4,3.96827,3.96827,3.96827,3.96827,0.0,0.0,0.0,0.0,0.0,0.0,0.0,0,0,0,0,0,0,0,1,0,0,1,0,0
1107320157,15.8697,15.873,92.7052,92.7259,0.0,28479.8,0.643472,1.0584,nan,4,3.96826,3.96826,3.96826,3.96826,0.0,0.0,0.0,0.0,0.0,0.0,0.0,0,0,0,0,0,0,0,1,0,0,1,0,0
1107610132,15.8058,15.8695,92.7638,92.7261,0.0,28487.2,0.64211,1.05864,nan,4,3.96737,3.96737,3.96737,3.96737,0.0,0.0,0.0,0.0,0.0,0.0,0.0,0,0,0,0,0,0,0,1,0,0,1,0,0
1107620096,15.9718,15.8705,92.7052,92.7257,0.0,28487.5,0.6425,1.05857,nan,4,3.96762,3.96762,3.96762,3.96762,0.0,0.0,0.0,0.0,0.0,0.0,0.0,0,0,0,0,0,0,0,1,0,0,1,0,0
1107630104,16.0357,15.8721,92.7052,92.7253,0.0,28487.8,0.643129,1.05846,nan,4,3.96803,3.96803,3.96803,3.96803,0.0,0.0,0.0,0.0,0.0,0.0,0.0,0,0,0,0,0,0,0,1,0,0,1,0,0
1107640098,15.8569,15.872,92.7052,92.7249,0.0,28488.0,0.643071,1.05847,nan,4,3.968,3.968,3.968,3.968,0.0,0.0,0.0,0.0,0.0,0.0,0.0,0,0,0,0,0,0,0,1,0,0,1,0,0
1107650222,15.8569,15.8718,92.7638,92.7256,0.0,28488.3,0.643014,1.05848,nan,4,3.96796,3.96796,3.96796,3.96796,0.0,0.0,0.0,0.0,0.0,0.0,0.0,0,0,0,0,0,0,0,1,0,0,1,0,0
1107660133,15.8441,15.8716,92.7638,92.7264,0.0,28488.5,0.642909,1.0585,nan,4,3.96789,3.96789,3.96789,3.96789,0.0,0.0,0.0,0.0,0.0,0.0,0.0,0,0,0,0,0,0,0,1,0,0,1,0,0
1107670132,15.6143,15.869,92.7638,92.7271,0.0,28488.8,0.641929,1.05867,nan,4,3.96725,3.96725,3.96725,3.96725,0.0,0.0,0.0,0.0,0.0,0.0,0.0,0,0,0,0,0,0,0,1,0,0,1,0,0
1107680130,15.7548,15.8679,92.7052,92.7267,0.0,28489.0,0.641494,1.05874,nan,4,3.96697,3.96697,3.96697,3.96697,0.0,0.0,0.0,0.0,0.0,0.0,0.0,0,0,0,0,0,0,0,1,0,0,1,0,0
1107690176,15.908,15.8683,92.7345,92.7269,0.0,28489.3,0.641647,1.05872,nan,4,3.96707,3.96707,3.96707,3.96707,0.0,0.0,0.0,0.0,0.0,0.0,0.0,0,0,0,0,0,0,0,1,0,0,1,0,0
1107700136,15.8186,15.8678,92.7638,92.7276,0.0,28489.6,0.641458,1.05875,nan,4,3.96695,3.96695,3.96695,3.96695,0.0,0.0,0.0,0.0,0.0,0.0,0.0,0,0,0,0,0,0,0,1,0,0,1,0,0
1107710128,16.0101,15.8692,92.7638,92.7283,0.0,28489.8,0.642,1.05865,nan,4,3.9673,3.9673,3.9673,3.9673,0.0,0.0,0.0,0.0,0.0,0.0,0.0,0,0,0,0,0,0,0,1,0,0,1,0,0
1107740134,16.0484,15.8691,92.7345,92.7275,0.0,28490.6,0.641965,1.05866,nan,4,3.96728,3.96728,3.96728,3.96728,0.0,0.0,0.0,0.0,0.0,0.0,0.0,0,0,0,0,0,0,0,1,0,0,1,0,0
1107750150,15.8058,15.8685,92.7052,92.7271,0.0,28490.8,0.641724,1.0587,nan,4,3.96712,3.96712,3.96712,3.96712,0.0,0.0,0.0,0.0,0.0,0.0,0.0,0,0,0,0,0,0,0,1,0,0,1,0,0
1107760131,15.8441,15.8682,92.7052,92.7267,0.0,28491.1,0.641631,1.05872,nan,4,3.96706,3.96706,3.96706,3.96706,0.0,0.0,0.0,0.0,0.0,0.0,0.0,0,0,0,0,0,0,0,1,0,0,1,0,0
1107770134,15.7548,15.8671,92.7052,92.7263,0.0,28491.4,0.641199,1.05879,nan,4,3.96678,3.96678,3.96678,3.96678,0.0,0.0,0.0,0.0,0.0,0.0,0.0,0,0,0,0,0,0,0,1,0,0,1,0,0
1108110275,15.6526,15.8652,92.7345,92.7267,0.0,28500.1,0.640443,1.05892,nan,4,3.96629,3.96629,3.96629,3.96629,0.0,0.0,0.0,0.0,0.0,0.0,0.0,0,0,0,0,0,0,0,1,0,0,1,0,0
1108120358,15.9207,15.8657,92.6759,92.7257,0.0,28500.4,0.640655,1.05889,nan,4,3.96643,3.96643,3.96643,3.96643,0.0,0.0,0.0,0.0,0.0,0.0,0.0,0,0,0,0,0,0,0,1,0,0,1,0,0
1108130155,15.9974,15.867,92.7052,92.7253,0.0,28500.6,0.641156,1.0588,nan,4,3.96675,3.96675,3.96675,3.96675,0.0,0.0,0.0,0.0,0.0,0.0,0.0,0,0,0,0,0,0,0,1,0,0,1,0,0
1108140148,15.7931,15.8663,92.7052,92.7249,0.0,28500.9,0.640874,1.05885,nan,4,3.96657,3.96657,3.96657,3.96657,0.0,0.0,0.0,0.0,0.0,0.0,0.0,0,0,0,0,0,0,0,1,0,0,1,0,0
1108150235,15.7675,15.8653,92.7345,92.7251,0.0,28501.2,0.640499,1.05891,nan,4,3.96632,3.96632,3.96632,3.96632,0.0,0.0,0.0,0.0,0.0,0.0,0.0,0,0,0,0,0,0,0,1,0,0,1,0,0
1108160206,15.8186,15.8648,92.6759,92.7241,0.0,28501.4,0.640321,1.05895,nan,4,3.96621,3.96621,3.96621,3.96621,0.0,0.0,0.0,0.0,0.0,0.0,0.0,0,0,0,0,0,0,0,1,0,0,1,0,0
1108170129,15.8314,15.8645,92.7638,92.7249,0.0,28501.7,0.640193,1.05897,nan,4,3.96613,3.96613,3.96613,3.96613,0.0,0.0,0.0,0.0,0.0,0.0,0.0,0,0,0,0,0,0,0,1,0,0,1,0,0
1108180132,16.0101,15.8659,92.7052,92.7245,0.0,28501.9,0.640748,1.05887,nan,4,3.96649,3.96649,3.96649,3.96649,0.0,0.0,0.0,0.0,0.0,0.0,0.0,0,0,0,0,0,0,0,1,0,0,1,0,0
1108190198,15.8441,15.8657,92.7345,92.7247,0.0,28502.2,0.640665,1.05889,nan,4,3.96643,3.96643,3.96643,3.96643,0.0,0.0,0.0,0.0,0.0,0.0,0.0,0,0,0,0,0,0,0,1,0,0,1,0,0
1108200158,15.8058,15.8651,92.7052,92.7243,0.0,28502.4,0.640437,1.05893,nan,4,3.96628,3.96628,3.96628,3.96628,0.0,0.0,0.0,0.0,0.0,0.0,0.0,0,0,0,0,0,0,0,1,0,0,1,0,0
1108260106,15.9207,15.8603,92.7052,92.7233,0.0,28504.0,0.638586,1.05925,nan,4,3.96508,3.96508,3.96508,3.96508,0.0,0.0,0.0,0.0,0.0,0.0,0.0,0,0,0,0,0,0,0,1,0,0,1,0,0
1108270128,15.8441,15.8602,92.7052,92.723,0.0,28504.2,0.638525,1.05926,nan,4,3.96504,3.96504,3.96504,3.96504,0.0,0.0,0.0,0.0,0.0,0.0,0.0,0,0,0,0,0,0,0,1,0,0,1,0,0
1108280112,15.8314,15.8599,92.7345,92.7232,0.0,28504.5,0.638415,1.05928,nan,4,3.96497,3.96497,3.96497,3.96497,0.0,0.0,0.0,0.0,0.0,0.0,0.0,0,0,0,0,0,0,0,1,0,0,1,0,0
1108290099,15.8441,15.8597,92.7052,92.7228,0.0,28504.8,0.638355,1.05929,nan,4,3.96493,3.96493,3.96493,3.96493,0.0,0.0,0.0,0.0,0.0,0.0,0.0,0,0,0,0,0,0,0,1,0,0,1,0,0
1108590101,15.8697,15.8657,92.7638,92.7254,0.0,28512.5,0.640636,1.05889,nan,4,3.96641,3.96641,3.96641,3.96641,0.0,0.0,0.0,0.0,0.0,0.0,0.0,0,0,0,0,0,0,0,1,0,0,1,0,0
1108600098,15.6143,15.8632,92.7052,92.725,0.0,28512.8,0.639679,1.05906,nan,4,3.96579,3.96579,3.96579,3.96579,0.0,0.0,0.0,0.0,0.0,0.0,0.0,0,0,0,0,0,0,0,1,0,0,1,0,0
1108610108,15.7165,15.8617,92.7638,92.7257,0.0,28513.0,0.639121,1.05915,nan,4,3.96543,3.96543,3.96543,3.96543,0.0,0.0,0.0,0.0,0.0,0.0,0.0,0,0,0,0,0,0,0,1,0,0,1,0,0
1108620098,15.8186,15.8613,92.7052,92.7253,0.0,28513.3,0.638957,1.05918,nan,4,3.96532,3.96532,3.96532,3.96532,0.0,0.0,0.0,0.0,0.0,0.0,0.0,0,0,0,0,0,0,0,1,0,0,1,0,0
1108630097,15.8058,15.8607,92.7638,92.7261,0.0,28513.5,0.638745,1.05922,nan,4,3.96518,3.96518,3.96518,3.96518,0.0,0.0,0.0,0.0,0.0,0.0,0.0,0,0,0,0,0,0,0,1,0,0,1,0,0
1108640101,15.7931,15.8601,92.7345,92.7263,0.0,28513.8,0.638488,1.05926,nan,4,3.96502,3.96502,3.96502,3.96502,0.0,0.0,0.0,0.0,0.0,0.0,0.0,0,0,0,0,0,0,0,1,0,0,1,0,0
1108650175,16.0229,15.8617,92.7638,92.727,0.0,28514.0,0.639108,1.05916,nan,4,3.96542,3.96542,3.96542,3.96542,0.0,0.0,0.0,0.0,0.0,0.0,0.0,0,0,0,0,0,0,0,1,0,0,1,0,0
1108660129,15.8314,15.8614,92.7052,92.7266,0.0,28514.3,0.638992,1.05918,nan,4,3.96534,3.96534,3.96534,3.96534,0.0,0.0,0.0,0.0,0.0,0.0,0.0,0,0,0,0,0,0,0,1,0,0,1,0,0
1108670145,15.8186,15.861,92.7052,92.7262,0.0,28514.6,0.638829,1.0592,nan,4,3.96524,3.96524,3.96524,3.96524,0.0,0.0,0.0,0.0,0.0,0.0,0.0,0,0,0,0,0,0,0,1,0,0,1,0,0
1108680159,15.8186,15.8605,92.7052,92.7257,0.0,28514.8,0.638668,1.05923,nan,4,3.96513,3.96513,3.96513,3.96513,0.0,0.0,0.0,0.0,0.0,0.0,0.0,0,0,0,0,0,0,0,1,0,0,1,0,0
1108730131,15.9974,15.8646,92.7052,92.7249,0.0,28516.1,0.640225,1.05896,nan,4,3.96615,3.96615,3.96615,3.96615,0.0,0.0,0.0,0.0,0.0,0.0,0.0,0,0,0,0,0,0,0,1,0,0,1,0,0
1108740099,15.8697,15.8646,92.7638,92.7256,0.0,28516.4,0.640244,1.05896,nan,4,3.96616,3.96616,3.96616,3.96616,0.0,0.0,0.0,0.0,0.0,0.0,0.0,0,0,0,0,0,0,0,1,0,0,1,0,0
1108750206,15.8186,15.8642,92.7638,92.7264,0.0,28516.6,0.640069,1.05899,nan,4,3.96604,3.96604,3.96604,3.96604,0.0,0.0,0.0,0.0,0.0,0.0,0.0,0,0,0,0,0,0,0,1,0,0,1,0,0
1108760109,15.7037,15.8626,92.6759,92.7254,0.0,28516.9,0.639458,1.0591,nan,4,3.96565,3.96565,3.96565,3.96565,0.0,0.0,0.0,0.0,0.0,0.0,0.0,0,0,0,0,0,0,0,1,0,0,1,0,0
1109050101,15.8058,15.8713,92.7052,92.7251,0.0,28524.3,0.64281,1.05851,nan,4,3.96783,3.96783,3.96783,3.96783,0.0,0.0,0.0,0.0,0.0,0.0,0.0,0,0,0,0,0,0,0,1,0,0,1,0,0
1109060100,15.7675,15.8703,92.7931,92.7264,0.0,28524.6,0.642416,1.05858,nan,4,3.96757,3.96757,3.96757,3.96757,0.0,0.0,0.0,0.0,0.0,0.0,0.0,0,0,0,0,0,0,0,1,0,0,1,0,0
1109070112,15.9463,15.871,92.7052,92.726,0.0,28524.9,0.642705,1.05853,nan,4,3.96776,3.96776,3.96776,3.96776,0.0,0.0,0.0,0.0,0.0,0.0,0.0,0,0,0,0,0,0,0,1,0,0,1,0,0
1109080137,15.8314,15.8706,92.7931,92.7273,0.0,28525.1,0.642554,1.05856,nan,4,3.96766,3.96766,3.96766,3.96766,0.0,0.0,0.0,0.0,0.0,0.0,0.0,0,0,0,0,0,0,0,1,0,0,1,0,0
1109090099,15.8441,15.8704,92.6759,92.7263,0.0,28525.4,0.642453,1.05858,nan,4,3.96759,3.96759,3.96759,3.96759,0.0,0.0,0.0,0.0,0.0,0.0,0.0,0,0,0,0,0,0,0,1,0,0,1,0,0
1109100112,15.8314,15.87,92.7638,92.727,0.0,28525.6,0.642304,1.0586,nan,4,3.9675,3.9675,3.9675,3.9675,0.0,0.0,0.0,0.0,0.0,0.0,0.0,0,0,0,0,0,0,0,1,0,0,1,0,0
1109110130,15.8058,15.8694,92.7345,92.7272,0.0,28525.9,0.64206,1.05864,nan,4,3.96734,3.96734,3.96734,3.96734,0.0,0.0,0.0,0.0,0.0,0.0,0.0,0,0,0,0,0,0,0,1,0,0,1,0,0
1109120134,15.8058,15.8687,92.7052,92.7267,0.0,28526.1,0.641818,1.05869,nan,4,3.96718,3.96718,3.96718,3.96718,0.0,0.0,0.0,0.0,0.0,0.0,0.0,0,0,0,0,0,0,0,1,0,0,1,0,0
1109130104,15.7931,15.868,92.7052,92.7263,0.0,28526.4,0.641531,1.05874,nan,4,3.96699,3.96699,3.96699,3.96699,0.0,0.0,0.0,0.0,0.0,0.0,0.0,0,0,0,0,0,0,0,1,0,0,1,0,0
1109140103,15.8314,15.8676,92.7052,92.7259,0.0,28526.7,0.641391,1.05876,nan,4,3.9669,3.9669,3.9669,3.9669,0.0,0.0,0.0,0.0,0.0,0.0,0.0,0,0,0,0,0,0,0,1,0,0,1,0,0
1109170215,15.8314,15.8705,92.7345,92.7259,0.0,28527.4,0.642514,1.05857,nan,4,3.96763,3.96763,3.96763,3.96763,0.0,0.0,0.0,0.0,0.0,0.0,0.0,0,0,0,0,0,0,0,1,0,0,1,0,0
1109180097,15.7292,15.8691,92.7052,92.7254,0.0,28527.7,0.641976,1.05866,nan,4,3.96728,3.96728,3.96728,3.96728,0.0,0.0,0.0,0.0,0.0,0.0,0.0,0,0,0,0,0,0,0,1,0,0,1,0,0
1109190102,15.8441,15.8689,92.6466,92.7239,0.0,28527.9,0.641881,1.05868,nan,4,3.96722,3.96722,3.96722,3.96722,0.0,0.0,0.0,0.0,0.0,0.0,0.0,0,0,0,0,0,0,0,1,0,0,1,0,0
1109200100,15.8314,15.8685,92.7345,92.7241,0.0,28528.2,0.641738,1.0587,nan,4,3.96713,3.96713,3.96713,3.96713,0.0,0.0,0.0,0.0,0.0,0.0,0.0,0,0,0,0,0,0,0,1,0,0,1,0,0
1109490099,15.7548,15.8637,92.7052,92.7243,0.0,28535.7,0.639867,1.05902,nan,4,3.96591,3.96591,3.96591,3.96591,0.0,0.0,0.0,0.0,0.0,0.0,0.0,0,0,0,0,0,0,0,1,0,0,1,0,0
1109500102,15.8314,15.8633,92.7052,92.7239,0.0,28535.9,0.639744,1.05905,nan,4,3.96583,3.96583,3.96583,3.96583,0.0,0.0,0.0,0.0,0.0,0.0,0.0,0,0,0,0,0,0,0,1,0,0,1,0,0
1109510183,15.7931,15.8626,92.7638,92.7247,0.0,28536.2,0.639477,1.05909,nan,4,3.96566,3.96566,3.96566,3.96566,0.0,0.0,0.0,0.0,0.0,0.0,0.0,0,0,0,0,0,0,0,1,0,0,1,0,0
1109520173,15.9207,15.8632,92.7638,92.7255,0.0,28536.5,0.639698,1.05905,nan,4,3.9658,3.9658,3.9658,3.9658,0.0,0.0,0.0,0.0,0.0,0.0,0.0,0,0,0,0,0,0,0,1,0,0,1,0,0
1109530097,15.9846,15.8644,92.7638,92.7262,0.0,28536.7,0.64016,1.05897,nan,4,3.9661,3.9661,3.9661,3.9661,0.0,0.0,0.0,0.0,0.0,0.0,0.0,0,0,0,0,0,0,0,1,0,0,1,0,0
1109540096,15.8186,15.864,92.6759,92.7252,0.0,28537.0,0.639986,1.059,nan,4,3.96599,3.96599,3.96599,3.96599,0.0,0.0,0.0,0.0,0.0,0.0,0.0,0,0,0,0,0,0,0,1,0,0,1,0,0
1109550179,16.0357,15.8657,92.7638,92.726,0.0,28537.2,0.64064,1.05889,nan,4,3.96642,3.96642,3.96642,3.96642,0.0,0.0,0.0,0.0,0.0,0.0,0.0,0,0,0,0,0,0,0,1,0,0,1,0,0
1109560100,15.6909,15.8639,92.7052,92.7256,0.0,28537.5,0.639974,1.05901,nan,4,3.96598,3.96598,3.96598,3.96598,0.0,0.0,0.0,0.0,0.0,0.0,0.0,0,0,0,0,0,0,0,1,0,0,1,0,0
1109570129,16.0484,15.8658,92.6759,92.7246,0.0,28537.7,0.640677,1.05888,nan,4,3.96644,3.96644,3.96644,3.96644,0.0,0.0,0.0,0.0,0.0,0.0,0.0,0,0,0,0,0,0,0,1,0,0,1,0,0
1109580133,16.074,15.8678,92.7052,92.7242,0.0,28538.0,0.64147,1.05875,nan,4,3.96696,3.96696,3.96696,3.96696,0.0,0.0,0.0,0.0,0.0,0.0,0.0,0,0,0,0,0,0,0,1,0,0,1,0,0
1109640136,15.9335,15.8678,92.7052,92.7215,0.0,28539.5,0.641474,1.05875,nan,4,3.96696,3.96696,3.96696,3.96696,0.0,0.0,0.0,0.0,0.0,0.0,0.0,0,0,0,0,0,0,0,1,0,0,1,0,0
1109650133,15.9207,15.8684,92.7052,92.7212,0.0,28539.8,0.641675,1.05871,nan,4,3.96709,3.96709,3.96709,3.96709,0.0,0.0,0.0,0.0,0.0,0.0,0.0,0,0,0,0,0,0,0,1,0,0,1,0,0
1109660167,15.9974,15.8696,92.6759,92.7203,0.0,28540.1,0.642166,1.05863,nan,4,3.96741,3.96741,3.96741,3.96741,0.0,0.0,0.0,0.0,0.0,0.0,0.0,0,0,0,0,0,0,0,1,0,0,1,0,0
1109670132,16.0101,15.871,92.7052,92.72,0.0,28540.3,0.642702,1.05853,nan,4,3.96776,3.96776,3.96776,3.96776,0.0,0.0,0.0,0.0,0.0,0.0,0.0,0,0,0,0,0,0,0,1,0,0,1,0,0
1109980901,15.742,15.8768,92.7345,92.724,0.0,28548.3,0.644942,1.05814,nan,4,3.96921,3.96921,3.96921,3.96921,0.0,0.0,0.0,0.0,0.0,0.0,0.0,0,0,0,0,0,0,0,1,0,0,1,0,0
1109991232,15.8314,15.8764,92.7345,92.7242,0.0,28548.6,0.644769,1.05817,nan,4,3.9691,3.9691,3.9691,3.9691,0.0,0.0,0.0,0.0,0.0,0.0,0.0,0,0,0,0,0,0,0,1,0,0,1,0,0
1110001214,15.7803,15.8754,92.7052,92.7239,0.0,28548.9,0.644403,1.05824,nan,4,3.96886,3.96886,3.96886,3.96886,0.0,0.0,0.0,0.0,0.0,0.0,0.0,0,0,0,0,0,0,0,1,0,0,1,0,0
1110010797,16.0101,15.8768,92.7345,92.7241,0.0,28549.1,0.644916,1.05815,nan,4,3.9692,3.9692,3.9692,3.9692,0.0,0.0,0.0,0.0,0.0,0.0,0.0,0,0,0,0,0,0,0,1,0,0,1,0,0
1110020954,15.8441,15.8765,92.7345,92.7243,0.0,28549.4,0.644792,1.05817,nan,4,3.96911,3.96911,3.96911,3.96911,0.0,0.0,0.0,0.0,0.0,0.0,0.0,0,0,0,0,0,0,0,1,0,0,1,0,0
1110031041,15.8058,15.8758,92.7052,92.7239,0.0,28549.6,0.644523,1.05822,nan,4,3.96894,3.96894,3.96894,3.96894,0.0,0.0,0.0,0.0,0.0,0.0,0.0,0,0,0,0,0,0,0,1,0,0,1,0,0
1110040965,16.0612,15.8776,92.7638,92.7247,0.0,28549.9,0.645229,1.05809,nan,4,3.9694,3.9694,3.9694,3.9694,0.0,0.0,0.0,0.0,0.0,0.0,0.0,0,0,0,0,0,0,0,1,0,0,1,0,0
1110050919,15.8058,15.8769,92.7638,92.7254,0.0,28550.1,0.644956,1.05814,nan,4,3.96922,3.96922,3.96922,3.96922,0.0,0.0,0.0,0.0,0.0,0.0,0.0,0,0,0,0,0,0,0,1,0,0,1,0,0
1110060939,15.9207,15.8773,92.7345,92.7256,0.0,28550.4,0.645123,1.05811,nan,4,3.96933,3.96933,3.96933,3.96933,0.0,0.0,0.0,0.0,0.0,0.0,0.0,0,0,0,0,0,0,0,1,0,0,1,0,0
1110070816,15.8441,15.877,92.7638,92.7264,0.0,28550.6,0.644996,1.05814,nan,4,3.96925,3.96925,3.96925,3.96925,0.0,0.0,0.0,0.0,0.0,0.0,0.0,0,0,0,0,0,0,0,1,0,0,1,0,0
1110100906,15.7292,15.8761,92.7638,92.7274,0.0,28551.4,0.644662,1.05819,nan,4,3.96903,3.96903,3.96903,3.96903,0.0,0.0,0.0,0.0,0.0,0.0,0.0,0,0,0,0,0,0,0,1,0,0,1,0,0
1110110910,15.7548,15.8749,92.7638,92.7281,0.0,28551.7,0.6442,1.05827,nan,4,3.96873,3.96873,3.96873,3.96873,0.0,0.0,0.0,0.0,0.0,0.0,0.0,0,0,0,0,0,0,0,1,0,0,1,0,0
1110120755,15.9718,15.8759,92.6759,92.7271,0.0,28551.9,0.644569,1.05821,nan,4,3.96897,3.96897,3.96897,3.96897,0.0,0.0,0.0,0.0,0.0,0.0,0.0,0,0,0,0,0,0,0,1,0,0,1,0,0
1110130891,15.9207,15.8763,92.7638,92.7278,0.0,28552.2,0.64474,1.05818,nan,4,3.96908,3.96908,3.96908,3.96908,0.0,0.0,0.0,0.0,0.0,0.0,0.0,0,0,0,0,0,0,0,1,0,0,1,0,0
1110441081,15.5633,15.8674,92.7345,92.7236,0.0,28560.2,0.641299,1.05878,nan,4,3.96684,3.96684,3.96684,3.96684,0.0,0.0,0.0,0.0,0.0,0.0,0.0,0,0,0,0,0,0,0,1,0,0,1,0,0
1110450725,15.7548,15.8663,92.7638,92.7243,0.0,28560.4,0.640871,1.05885,nan,4,3.96657,3.96657,3.96657,3.96657,0.0,0.0,0.0,0.0,0.0,0.0,0.0,0,0,0,0,0,0,0,1,0,0,1,0,0
1110460652,15.7675,15.8653,92.7638,92.7251,0.0,28560.7,0.640494,1.05892,nan,4,3.96632,3.96632,3.96632,3.96632,0.0,0.0,0.0,0.0,0.0,0.0,0.0,0,0,0,0,0,0,0,1,0,0,1,0,0
1110470539,15.8058,15.8647,92.7345,92.7253,0.0,28560.9,0.640268,1.05895,nan,4,3.96617,3.96617,3.96617,3.96617,0.0,0.0,0.0,0.0,0.0,0.0,0.0,0,0,0,0,0,0,0,1,0,0,1,0,0
1110480687,15.9463,15.8655,92.7052,92.7249,0.0,28561.2,0.640579,1.0589,nan,4,3.96638,3.96638,3.96638,3.96638,0.0,0.0,0.0,0.0,0.0,0.0,0.0,0,0,0,0,0,0,0,1,0,0,1,0,0
1110490636,16.0229,15.8671,92.7638,92.7257,0.0,28561.5,0.641178,1.0588,nan,4,3.96677,3.96677,3.96677,3.96677,0.0,0.0,0.0,0.0,0.0,0.0,0.0,0,0,0,0,0,0,0,1,0,0,1,0,0
1110500496,15.8824,15.8672,92.7638,92.7264,0.0,28561.7,0.641237,1.05879,nan,4,3.9668,3.9668,3.9668,3.9668,0.0,0.0,0.0,0.0,0.0,0.0,0.0,0,0,0,0,0,0,0,1,0,0,1,0,0
1110510579,15.9846,15.8684,92.7345,92.7266,0.0,28562.0,0.641684,1.05871,nan,4,3.96709,3.96709,3.96709,3.96709,0.0,0.0,0.0,0.0,0.0,0.0,0.0,0,0,0,0,0,0,0,1,0,0,1,0,0
1110520774,15.8186,15.8679,92.7345,92.7267,0.0,28562.2,0.641494,1.05874,nan,4,3.96697,3.96697,3.96697,3.96697,0.0,0.0,0.0,0.0,0.0,0.0,0.0,0,0,0,0,0,0,0,1,0,0,1,0,0
1110530517,15.8569,15.8678,92.7052,92.7263,0.0,28562.5,0.641452,1.05875,nan,4,3.96694,3.96694,3.96694,3.96694,0.0,0.0,0.0,0.0,0.0,0.0,0.0,0,0,0,0,0,0,0,1,0,0,1,0,0
1110550560,15.8441,15.8671,92.7052,92.726,0.0,28563.0,0.641178,1.0588,nan,4,3.96677,3.96677,3.96677,3.96677,0.0,0.0,0.0,0.0,0.0,0.0,0.0,0,0,0,0,0,0,0,1,0,0,1,0,0
1110560420,15.9335,15.8677,92.7638,92.7268,0.0,28563.3,0.64143,1.05875,nan,4,3.96693,3.96693,3.96693,3.96693,0.0,0.0,0.0,0.0,0.0,0.0,0.0,0,0,0,0,0,0,0,1,0,0,1,0,0
1110570738,16.0101,15.8691,92.7638,92.7275,0.0,28563.5,0.641973,1.05866,nan,4,3.96728,3.96728,3.96728,3.96728,0.0,0.0,0.0,0.0,0.0,0.0,0.0,0,0,0,0,0,0,0,1,0,0,1,0,0
1110580605,16.074,15.8712,92.7345,92.7276,0.0,28563.8,0.642753,1.05852,nan,4,3.96779,3.96779,3.96779,3.96779,0.0,0.0,0.0,0.0,0.0,0.0,0.0,0,0,0,0,0,0,0,1,0,0,1,0,0
1110890358,16.0229,15.8818,92.7052,92.7246,0.0,28571.8,0.64686,1.05781,nan,4,3.97046,3.97046,3.97046,3.97046,0.0,0.0,0.0,0.0,0.0,0.0,0.0,0,0,0,0,0,0,0,1,0,0,1,0,0
1110900533,15.8569,15.8816,92.7638,92.7253,0.0,28572.0,0.646765,1.05783,nan,4,3.9704,3.9704,3.9704,3.9704,0.0,0.0,0.0,0.0,0.0,0.0,0.0,0,0,0,0,0,0,0,1,0,0,1,0,0
1110910360,15.7292,15.8801,92.7345,92.7255,0.0,28572.3,0.646184,1.05793,nan,4,3.97002,3.97002,3.97002,3.97002,0.0,0.0,0.0,0.0,0.0,0.0,0.0,0,0,0,0,0,0,0,1,0,0,1,0,0
1110920378,15.8314,15.8796,92.7345,92.7257,0.0,28572.5,0.645999,1.05796,nan,4,3.9699,3.9699,3.9699,3.9699,0.0,0.0,0.0,0.0,0.0,0.0,0.0,0,0,0,0,0,0,0,1,0,0,1,0,0
1110930345,16.0484,15.8813,92.6759,92.7247,0.0,28572.8,0.646642,1.05785,nan,4,3.97032,3.97032,3.97032,3.97032,0.0,0.0,0.0,0.0,0.0,0.0,0.0,0,0,0,0,0,0,0,1,0,0,1,0,0
1110940259,15.6782,15.8793,92.7052,92.7243,0.0,28573.0,0.645868,1.05798,nan,4,3.96981,3.96981,3.96981,3.96981,0.0,0.0,0.0,0.0,0.0,0.0,0.0,0,0,0,0,0,0,0,1,0,0,1,0,0
1110950537,15.8824,15.8793,92.7345,92.7245,0.0,28573.3,0.645881,1.05798,nan,4,3.96982,3.96982,3.96982,3.96982,0.0,0.0,0.0,0.0,0.0,0.0,0.0,0,0,0,0,0,0,0,1,0,0,1,0,0
1110960407,16.0101,15.8806,92.7345,92.7247,0.0,28573.6,0.646379,1.0579,nan,4,3.97015,3.97015,3.97015,3.97015,0.0,0.0,0.0,0.0,0.0,0.0,0.0,0,0,0,0,0,0,0,1,0,0,1,0,0
1110970183,16.074,15.8825,92.7052,92.7243,0.0,28573.8,0.647115,1.05777,nan,4,3.97062,3.97062,3.97062,3.97062,0.0,0.0,0.0,0.0,0.0,0.0,0.0,0,0,0,0,0,0,0,1,0,0,1,0,0
1110980535,15.7165,15.8809,92.7345,92.7245,0.0,28574.1,0.646483,1.05788,nan,4,3.97021,3.97021,3.97021,3.97021,0.0,0.0,0.0,0.0,0.0,0.0,0.0,0,0,0,0,0,0,0,1,0,0,1,0,0
1111040324,15.7931,15.8762,92.7345,92.7268,0.0,28575.6,0.64471,1.05818,nan,4,3.96906,3.96906,3.96906,3.96906,0.0,0.0,0.0,0.0,0.0,0.0,0.0,0,0,0,0,0,0,0,1,0,0,1,0,0
1111050192,15.9974,15.8774,92.7638,92.7275,0.0,28575.9,0.645171,1.0581,nan,4,3.96936,3.96936,3.96936,3.96936,0.0,0.0,0.0,0.0,0.0,0.0,0.0,0,0,0,0,0,0,0,1,0,0,1,0,0
1111060498,16.0229,15.8789,92.7052,92.7271,0.0,28576.1,0.645725,1.05801,nan,4,3.96972,3.96972,3.96972,3.96972,0.0,0.0,0.0,0.0,0.0,0.0,0.0,0,0,0,0,0,0,0,1,0,0,1,0,0
1111070103,15.9463,15.8796,92.7345,92.7272,0.0,28576.4,0.645981,1.05796,nan,4,3.96989,3.96989,3.96989,3.96989,0.0,0.0,0.0,0.0,0.0,0.0,0.0,0,0,0,0,0,0,0,1,0,0,1,0,0
1111370101,15.7548,15.8853,92.7638,92.7313,0.0,28584.1,0.648179,1.05758,nan,4,3.97132,3.97132,3.97132,3.97132,0.0,0.0,0.0,0.0,0.0,0.0,0.0,0,0,0,0,0,0,0,1,0,0,1,0,0
1111380197,15.7931,15.8844,92.7052,92.7307,0.0,28584.4,0.647828,1.05764,nan,4,3.97109,3.97109,3.97109,3.97109,0.0,0.0,0.0,0.0,0.0,0.0,0.0,0,0,0,0,0,0,0,1,0,0,1,0,0
1111390106,15.908,15.8846,92.7345,92.7308,0.0,28584.6,0.647918,1.05763,nan,4,3.97115,3.97115,3.97115,3.97115,0.0,0.0,0.0,0.0,0.0,0.0,0.0,0,0,0,0,0,0,0,1,0,0,1,0,0
1111400102,15.742,15.8832,92.7052,92.7303,0.0,28584.9,0.647375,1.05772,nan,4,3.97079,3.97079,3.97079,3.97079,0.0,0.0,0.0,0.0,0.0,0.0,0.0,0,0,0,0,0,0,0,1,0,0,1,0,0
1111410112,15.7548,15.8819,92.7052,92.7298,0.0,28585.1,0.646886,1.05781,nan,4,3.97048,3.97048,3.97048,3.97048,0.0,0.0,0.0,0.0,0.0,0.0,0.0,0,0,0,0,0,0,0,1,0,0,1,0,0
1111420101,15.9591,15.8827,92.7052,92.7293,0.0,28585.4,0.64718,1.05776,nan,4,3.97067,3.97067,3.97067,3.97067,0.0,0.0,0.0,0.0,0.0,0.0,0.0,0,0,0,0,0,0,0,1,0,0,1,0,0
1111430114,15.8569,15.8824,92.7931,92.7306,0.0,28585.7,0.647082,1.05777,nan,4,3.9706,3.9706,3.9706,3.9706,0.0,0.0,0.0,0.0,0.0,0.0,0.0,0,0,0,0,0,0,0,1,0,0,1,0,0
1111440257,15.7037,15.8806,92.7345,92.7307,0.0,28585.9,0.646401,1.05789,nan,4,3.97016,3.97016,3.97016,3.97016,0.0,0.0,0.0,0.0,0.0,0.0,0.0,0,0,0,0,0,0,0,1,0,0,1,0,0
1111450148,15.7292,15.8791,92.7345,92.7307,0.0,28586.2,0.645825,1.05799,nan,4,3.96979,3.96979,3.96979,3.96979,0.0,0.0,0.0,0.0,0.0,0.0,0.0,0,0,0,0,0,0,0,1,0,0,1,0,0
1111460139,15.742,15.8778,92.7052,92.7302,0.0,28586.4,0.645302,1.05808,nan,4,3.96945,3.96945,3.96945,3.96945,0.0,0.0,0.0,0.0,0.0,0.0,0.0,0,0,0,0,0,0,0,1,0,0,1,0,0
1111510176,16.0357,15.8781,92.7052,92.7311,0.0,28587.7,0.645418,1.05806,nan,4,3.96952,3.96952,3.96952,3.96952,0.0,0.0,0.0,0.0,0.0,0.0,0.0,0,0,0,0,0,0,0,1,0,0,1,0,0
1111520138,16.074,15.88,92.7052,92.7306,0.0,28588.0,0.646164,1.05793,nan,4,3.97001,3.97001,3.97001,3.97001,0.0,0.0,0.0,0.0,0.0,0.0,0.0,0,0,0,0,0,0,0,1,0,0,1,0,0
1111530140,15.9846,15.8811,92.7638,92.7313,0.0,28588.2,0.646563,1.05786,nan,4,3.97027,3.97027,3.97027,3.97027,0.0,0.0,0.0,0.0,0.0,0.0,0.0,0,0,0,0,0,0,0,1,0,0,1,0,0
1111540151,15.7931,15.8802,92.7052,92.7308,0.0,28588.5,0.646227,1.05792,nan,4,3.97005,3.97005,3.97005,3.97005,0.0,0.0,0.0,0.0,0.0,0.0,0.0,0,0,0,0,0,0,0,1,0,0,1,0,0
1111830213,15.742,15.8878,92.7638,92.734,0.0,28596.0,0.649168,1.05741,nan,4,3.97196,3.97196,3.97196,3.97196,0.0,0.0,0.0,0.0,0.0,0.0,0.0,0,0,0,0,0,0,0,1,0,0,1,0,0
1111840219,15.742,15.8864,92.7345,92.734,0.0,28596.2,0.648612,1.05751,nan,4,3.9716,3.9716,3.9716,3.9716,0.0,0.0,0.0,0.0,0.0,0.0,0.0,0,0,0,0,0,0,0,1,0,0,1,0,0
1111850281,15.9463,15.887,92.7345,92.734,0.0,28596.5,0.64884,1.05747,nan,4,3.97175,3.97175,3.97175,3.97175,0.0,0.0,0.0,0.0,0.0,0.0,0.0,0,0,0,0,0,0,0,1,0,0,1,0,0
1111860264,15.7803,15.8859,92.7638,92.7346,0.0,28596.7,0.648434,1.05754,nan,4,3.97148,3.97148,3.97148,3.97148,0.0,0.0,0.0,0.0,0.0,0.0,0.0,0,0,0,0,0,0,0,1,0,0,1,0,0
1111870221,15.8952,15.886,92.7052,92.734,0.0,28597.0,0.648469,1.05753,nan,4,3.9715,3.9715,3.9715,3.9715,0.0,0.0,0.0,0.0,0.0,0.0,0.0,0,0,0,0,0,0,0,1,0,0,1,0,0
1111880273,15.7037,15.8842,92.7345,92.734,0.0,28597.3,0.647775,1.05765,nan,4,3.97105,3.97105,3.97105,3.97105,0.0,0.0,0.0,0.0,0.0,0.0,0.0,0,0,0,0,0,0,0,1,0,0,1,0,0
1111890277,15.8186,15.8836,92.7638,92.7346,0.0,28597.5,0.647525,1.0577,nan,4,3.97089,3.97089,3.97089,3.97089,0.0,0.0,0.0,0.0,0.0,0.0,0.0,0,0,0,0,0,0,0,1,0,0,1,0,0
1111900237,15.9335,15.8841,92.6759,92.7335,0.0,28597.8,0.647716,1.05766,nan,4,3.97101,3.97101,3.97101,3.97101,0.0,0.0,0.0,0.0,0.0,0.0,0.0,0,0,0,0,0,0,0,1,0,0,1,0,0
1111910214,15.8314,15.8835,92.6759,92.7323,0.0,28598.0,0.647515,1.0577,nan,4,3.97088,3.97088,3.97088,3.97088,0.0,0.0,0.0,0.0,0.0,0.0,0.0,0,0,0,0,0,0,0,1,0,0,1,0,0
1111920226,15.9846,15.8845,92.7345,92.7324,0.0,28598.3,0.6479,1.05763,nan,4,3.97113,3.97113,3.97113,3.97113,0.0,0.0,0.0,0.0,0.0,0.0,0.0,0,0,0,0,0,0,0,1,0,0,1,0,0
1111950162,15.9335,15.8844,92.7052,92.7325,0.0,28599.1,0.647831,1.05764,nan,4,3.97109,3.97109,3.97109,3.97109,0.0,0.0,0.0,0.0,0.0,0.0,0.0,0,0,0,0,0,0,0,1,0,0,1,0,0
1111960213,15.9463,15.885,92.7052,92.732,0.0,28599.3,0.648067,1.0576,nan,4,3.97124,3.97124,3.97124,3.97124,0.0,0.0,0.0,0.0,0.0,0.0,0.0,0,0,0,0,0,0,0,1,0,0,1,0,0
1111970211,16.1761,15.8879,92.6759,92.7309,0.0,28599.6,0.649175,1.05741,nan,4,3.97196,3.97196,3.97196,3.97196,0.0,0.0,0.0,0.0,0.0,0.0,0.0,0,0,0,0,0,0,0,1,0,0,1,0,0
1111980198,16.0357,15.8893,92.7638,92.7315,0.0,28599.8,0.649738,1.05731,nan,4,3.97233,3.97233,3.97233,3.97233,0.0,0.0,0.0,0.0,0.0,0.0,0.0,0,0,0,0,0,0,0,1,0,0,1,0,0
1111990129,15.8186,15.8886,92.7345,92.7316,0.0,28600.1,0.649468,1.05736,nan,4,3.97215,3.97215,3.97215,3.97215,0.0,0.0,0.0,0.0,0.0,0.0,0.0,0,0,0,0,0,0,0,1,0,0,1,0,0
1112280099,15.742,15.8934,92.7638,92.729,0.0,28607.6,0.65132,1.05704,nan,4,3.97336,3.97336,3.97336,3.97336,0.0,0.0,0.0,0.0,0.0,0.0,0.0,0,0,0,0,0,0,0,1,0,0,1,0,0
1112290111,15.6654,15.8912,92.7052,92.7285,0.0,28607.8,0.650452,1.05719,nan,4,3.97279,3.97279,3.97279,3.97279,0.0,0.0,0.0,0.0,0.0,0.0,0.0,0,0,0,0,0,0,0,1,0,0,1,0,0
1112300121,15.7548,15.8898,92.7052,92.7281,0.0,28608.1,0.649933,1.05728,nan,4,3.97246,3.97246,3.97246,3.97246,0.0,0.0,0.0,0.0,0.0,0.0,0.0,0,0,0,0,0,0,0,1,0,0,1,0,0
1112310100,15.8314,15.8892,92.7052,92.7276,0.0,28608.3,0.64971,1.05732,nan,4,3.97231,3.97231,3.97231,3.97231,0.0,0.0,0.0,0.0,0.0,0.0,0.0,0,0,0,0,0,0,0,1,0,0,1,0,0
1112320110,15.8186,15.8885,92.7638,92.7283,0.0,28608.6,0.649441,1.05737,nan,4,3.97214,3.97214,3.97214,3.97214,0.0,0.0,0.0,0.0,0.0,0.0,0.0,0,0,0,0,0,0,0,1,0,0,1,0,0
1112330103,15.8441,15.8881,92.7052,92.7279,0.0,28608.8,0.649272,1.05739,nan,4,3.97203,3.97203,3.97203,3.97203,0.0,0.0,0.0,0.0,0.0,0.0,0.0,0,0,0,0,0,0,0,1,0,0,1,0,0
1112340103,16.0357,15.8896,92.7052,92.7274,0.0,28609.1,0.649834,1.0573,nan,4,3.97239,3.97239,3.97239,3.97239,0.0,0.0,0.0,0.0,0.0,0.0,0.0,0,0,0,0,0,0,0,1,0,0,1,0,0
1112350099,15.7037,15.8877,92.7052,92.727,0.0,28609.4,0.649127,1.05742,nan,4,3.97193,3.97193,3.97193,3.97193,0.0,0.0,0.0,0.0,0.0,0.0,0.0,0,0,0,0,0,0,0,1,0,0,1,0,0
1112360111,15.8058,15.8869,92.7052,92.7266,0.0,28609.6,0.648815,1.05747,nan,4,3.97173,3.97173,3.97173,3.97173,0.0,0.0,0.0,0.0,0.0,0.0,0.0,0,0,0,0,0,0,0,1,0,0,1,0,0
1112370157,15.8058,15.8861,92.7931,92.7279,0.0,28609.9,0.648506,1.05753,nan,4,3.97153,3.97153,3.97153,3.97153,0.0,0.0,0.0,0.0,0.0,0.0,0.0,0,0,0,0,0,0,0,1,0,0,1,0,0
1112430100,15.9207,15.883,92.7345,92.7291,0.0,28611.4,0.647318,1.05773,nan,4,3.97076,3.97076,3.97076,3.97076,0.0,0.0,0.0,0.0,0.0,0.0,0.0,0,0,0,0,0,0,0,1,0,0,1,0,0
1112440108,15.742,15.8816,92.7931,92.7304,0.0,28611.7,0.646781,1.05783,nan,4,3.97041,3.97041,3.97041,3.97041,0.0,0.0,0.0,0.0,0.0,0.0,0.0,0,0,0,0,0,0,0,1,0,0,1,0,0
1112450152,15.6399,15.8792,92.7052,92.7299,0.0,28611.9,0.645861,1.05799,nan,4,3.96981,3.96981,3.96981,3.96981,0.0,0.0,0.0,0.0,0.0,0.0,0.0,0,0,0,0,0,0,0,1,0,0,1,0,0
1112460108,15.5633,15.8761,92.6759,92.7288,0.0,28612.2,0.644658,1.05819,nan,4,3.96903,3.96903,3.96903,3.96903,0.0,0.0,0.0,0.0,0.0,0.0,0.0,0,0,0,0,0,0,0,1,0,0,1,0,0
1112750098,15.6016,15.8822,92.7345,92.7213,0.0,28619.7,0.646982,1.05779,nan,4,3.97054,3.97054,3.97054,3.97054,0.0,0.0,0.0,0.0,0.0,0.0,0.0,0,0,0,0,0,0,0,1,0,0,1,0,0
1112760134,15.7548,15.8809,92.6759,92.7204,0.0,28619.9,0.646497,1.05788,nan,4,3.97022,3.97022,3.97022,3.97022,0.0,0.0,0.0,0.0,0.0,0.0,0.0,0,0,0,0,0,0,0,1,0,0,1,0,0
1112770096,15.8441,15.8805,92.7638,92.7212,0.0,28620.2,0.646358,1.0579,nan,4,3.97013,3.97013,3.97013,3.97013,0.0,0.0,0.0,0.0,0.0,0.0,0.0,0,0,0,0,0,0,0,1,0,0,1,0,0
1112780097,15.8569,15.8803,92.7638,92.7221,0.0,28620.4,0.646267,1.05791,nan,4,3.97007,3.97007,3.97007,3.97007,0.0,0.0,0.0,0.0,0.0,0.0,0.0,0,0,0,0,0,0,0,1,0,0,1,0,0
1112790161,15.8058,15.8796,92.7052,92.7217,0.0,28620.7,0.645984,1.05796,nan,4,3.96989,3.96989,3.96989,3.96989,0.0,0.0,0.0,0.0,0.0,0.0,0.0,0,0,0,0,0,0,0,1,0,0,1,0,0
1112800103,16.0229,15.881,92.6759,92.7208,0.0,28621.0,0.64653,1.05787,nan,4,3.97024,3.97024,3.97024,3.97024,0.0,0.0,0.0,0.0,0.0,0.0,0.0,0,0,0,0,0,0,0,1,0,0,1,0,0
1112810108,15.8569,15.8807,92.7638,92.7217,0.0,28621.2,0.646438,1.05789,nan,4,3.97018,3.97018,3.97018,3.97018,0.0,0.0,0.0,0.0,0.0,0.0,0.0,0,0,0,0,0,0,0,1,0,0,1,0,0
1112820099,15.8441,15.8804,92.7638,92.7225,0.0,28621.5,0.646299,1.05791,nan,4,3.97009,3.97009,3.97009,3.97009,0.0,0.0,0.0,0.0,0.0,0.0,0.0,0,0,0,0,0,0,0,1,0,0,1,0,0
1112830159,15.8441,15.88,92.7638,92.7233,0.0,28621.7,0.646161,1.05793,nan,4,3.97,3.97,3.97,3.97,0.0,0.0,0.0,0.0,0.0,0.0,0.0,0,0,0,0,0,0,0,1,0,0,1,0,0
1112840098,15.8186,15.8794,92.7638,92.7241,0.0,28622.0,0.645927,1.05797,nan,4,3.96985,3.96985,3.96985,3.96985,0.0,0.0,0.0,0.0,0.0,0.0,0.0,0,0,0,0,0,0,0,1,0,0,1,0,0
1112890097,15.8952,15.878,92.7345,92.7251,0.0,28623.3,0.645366,1.05807,nan,4,3.96949,3.96949,3.96949,3.96949,0.0,0.0,0.0,0.0,0.0,0.0,0.0,0,0,0,0,0,0,0,1,0,0,1,0,0
1112900119,15.8186,15.8774,92.7345,92.7253,0.0,28623.5,0.64514,1.05811,nan,4,3.96934,3.96934,3.96934,3.96934,0.0,0.0,0.0,0.0,0.0,0.0,0.0,0,0,0,0,0,0,0,1,0,0,1,0,0
1112910105,15.7931,15.8765,92.7638,92.7261,0.0,28623.8,0.644819,1.05817,nan,4,3.96913,3.96913,3.96913,3.96913,0.0,0.0,0.0,0.0,0.0,0.0,0.0,0,0,0,0,0,0,0,1,0,0,1,0,0
1112920100,16.0101,15.8779,92.6759,92.7251,0.0,28624.0,0.645328,1.05808,nan,4,3.96946,3.96946,3.96946,3.96946,0.0,0.0,0.0,0.0,0.0,0.0,0.0,0,0,0,0,0,0,0,1,0,0,1,0,0
1113200179,15.908,15.8794,92.7052,92.7222,0.0,28631.3,0.645905,1.05798,nan,4,3.96984,3.96984,3.96984,3.96984,0.0,0.0,0.0,0.0,0.0,0.0,0.0,0,0,0,0,0,0,0,1,0,0,1,0,0
1113210199,15.742,15.878,92.7345,92.7225,0.0,28631.5,0.645382,1.05807,nan,4,3.9695,3.9695,3.9695,3.9695,0.0,0.0,0.0,0.0,0.0,0.0,0.0,0,0,0,0,0,0,0,1,0,0,1,0,0
1113220123,15.7548,15.8768,92.7345,92.7227,0.0,28631.8,0.644913,1.05815,nan,4,3.96919,3.96919,3.96919,3.96919,0.0,0.0,0.0,0.0,0.0,0.0,0.0,0,0,0,0,0,0,0,1,0,0,1,0,0
1113230141,16.0101,15.8781,92.7638,92.7235,0.0,28632.0,0.645421,1.05806,nan,4,3.96952,3.96952,3.96952,3.96952,0.0,0.0,0.0,0.0,0.0,0.0,0.0,0,0,0,0,0,0,0,1,0,0,1,0,0
1113240148,15.8569,15.8779,92.7345,92.7237,0.0,28632.3,0.64534,1.05808,nan,4,3.96947,3.96947,3.96947,3.96947,0.0,0.0,0.0,0.0,0.0,0.0,0.0,0,0,0,0,0,0,0,1,0,0,1,0,0
1113250233,15.8186,15.8773,92.7052,92.7234,0.0,28632.6,0.645114,1.05811,nan,4,3.96932,3.96932,3.96932,3.96932,0.0,0.0,0.0,0.0,0.0,0.0,0.0,0,0,0,0,0,0,0,1,0,0,1,0,0
1113260164,15.6782,15.8753,92.7052,92.723,0.0,28632.8,0.644356,1.05825,nan,4,3.96883,3.96883,3.96883,3.96883,0.0,0.0,0.0,0.0,0.0,0.0,0.0,0,0,0,0,0,0,0,1,0,0,1,0,0
1113270156,16.0357,15.8769,92.7638,92.7238,0.0,28633.1,0.644967,1.05814,nan,4,3.96923,3.96923,3.96923,3.96923,0.0,0.0,0.0,0.0,0.0,0.0,0.0,0,0,0,0,0,0,0,1,0,0,1,0,0
1113280159,15.8441,15.8766,92.7638,92.7246,0.0,28633.3,0.644843,1.05816,nan,4,3.96915,3.96915,3.96915,3.96915,0.0,0.0,0.0,0.0,0.0,0.0,0.0,0,0,0,0,0,0,0,1,0,0,1,0,0
1113290219,15.9591,15.8774,92.6466,92.7231,0.0,28633.6,0.645156,1.05811,nan,4,3.96935,3.96935,3.96935,3.96935,0.0,0.0,0.0,0.0,0.0,0.0,0.0,0,0,0,0,0,0,0,1,0,0,1,0,0
1113300201,15.8314,15.877,92.7345,92.7233,0.0,28633.8,0.644981,1.05814,nan,4,3.96924,3.96924,3.96924,3.96924,0.0,0.0,0.0,0.0,0.0,0.0,0.0,0,0,0,0,0,0,0,1,0,0,1,0,0
1113340098,15.7675,15.8776,92.7638,92.7236,0.0,28634.9,0.64525,1.05809,nan,4,3.96941,3.96941,3.96941,3.96941,0.0,0.0,0.0,0.0,0.0,0.0,0.0,0,0,0,0,0,0,0,1,0,0,1,0,0
1113350179,15.8441,15.8773,92.7345,92.7238,0.0,28635.1,0.645122,1.05811,nan,4,3.96933,3.96933,3.96933,3.96933,0.0,0.0,0.0,0.0,0.0,0.0,0.0,0,0,0,0,0,0,0,1,0,0,1,0,0
1113360098,15.8569,15.8771,92.7052,92.7235,0.0,28635.4,0.645044,1.05813,nan,4,3.96928,3.96928,3.96928,3.96928,0.0,0.0,0.0,0.0,0.0,0.0,0.0,0,0,0,0,0,0,0,1,0,0,1,0,0
1113370136,15.8441,15.8768,92.7638,92.7243,0.0,28635.6,0.644919,1.05815,nan,4,3.9692,3.9692,3.9692,3.9692,0.0,0.0,0.0,0.0,0.0,0.0,0.0,0,0,0,0,0,0,0,1,0,0,1,0,0
1113380139,16.0229,15.8782,92.7638,92.725,0.0,28635.9,0.645475,1.05805,nan,4,3.96956,3.96956,3.96956,3.96956,0.0,0.0,0.0,0.0,0.0,0.0,0.0,0,0,0,0,0,0,0,1,0,0,1,0,0
1113660175,15.8314,15.8784,92.7052,92.7276,0.0,28643.1,0.64555,1.05804,nan,4,3.96961,3.96961,3.96961,3.96961,0.0,0.0,0.0,0.0,0.0,0.0,0.0,0,0,0,0,0,0,0,1,0,0,1,0,0
1113670186,16.0229,15.8799,92.8224,92.7295,0.0,28643.4,0.6461,1.05794,nan,4,3.96996,3.96996,3.96996,3.96996,0.0,0.0,0.0,0.0,0.0,0.0,0.0,0,0,0,0,0,0,0,1,0,0,1,0,0
1113680172,15.6654,15.8777,92.7052,92.729,0.0,28643.6,0.645284,1.05809,nan,4,3.96943,3.96943,3.96943,3.96943,0.0,0.0,0.0,0.0,0.0,0.0,0.0,0,0,0,0,0,0,0,1,0,0,1,0,0
1113690248,15.7803,15.8768,92.7345,92.7291,0.0,28643.9,0.644913,1.05815,nan,4,3.96919,3.96919,3.96919,3.96919,0.0,0.0,0.0,0.0,0.0,0.0,0.0,0,0,0,0,0,0,0,1,0,0,1,0,0
1113700172,15.9846,15.8778,92.7638,92.7298,0.0,28644.1,0.645323,1.05808,nan,4,3.96946,3.96946,3.96946,3.96946,0.0,0.0,0.0,0.0,0.0,0.0,0.0,0,0,0,0,0,0,0,1,0,0,1,0,0
1113710171,15.8314,15.8774,92.7931,92.731,0.0,28644.4,0.645146,1.05811,nan,4,3.96935,3.96935,3.96935,3.96935,0.0,0.0,0.0,0.0,0.0,0.0,0.0,0,0,0,0,0,0,0,1,0,0,1,0,0
1113720182,16.0101,15.8787,92.7345,92.7311,0.0,28644.7,0.645652,1.05802,nan,4,3.96967,3.96967,3.96967,3.96967,0.0,0.0,0.0,0.0,0.0,0.0,0.0,0,0,0,0,0,0,0,1,0,0,1,0,0
1113730209,15.8569,15.8785,92.7345,92.7312,0.0,28644.9,0.645569,1.05804,nan,4,3.96962,3.96962,3.96962,3.96962,0.0,0.0,0.0,0.0,0.0,0.0,0.0,0,0,0,0,0,0,0,1,0,0,1,0,0
1113740166,15.7037,15.8767,92.7052,92.7307,0.0,28645.2,0.644904,1.05815,nan,4,3.96919,3.96919,3.96919,3.96919,0.0,0.0,0.0,0.0,0.0,0.0,0.0,0,0,0,0,0,0,0,1,0,0,1,0,0
1113750170,15.8314,15.8763,92.7345,92.7308,0.0,28645.4,0.644731,1.05818,nan,4,3.96907,3.96907,3.96907,3.96907,0.0,0.0,0.0,0.0,0.0,0.0,0.0,0,0,0,0,0,0,0,1,0,0,1,0,0
1113800277,15.8824,15.8742,92.7052,92.73,0.0,28646.7,0.643939,1.05832,nan,4,3.96856,3.96856,3.96856,3.96856,0.0,0.0,0.0,0.0,0.0,0.0,0.0,0,0,0,0,0,0,0,1,0,0,1,0,0
1113810217,16.0229,15.8757,92.6759,92.7289,0.0,28647.0,0.644505,1.05822,nan,4,3.96893,3.96893,3.96893,3.96893,0.0,0.0,0.0,0.0,0.0,0.0,0.0,0,0,0,0,0,0,0,1,0,0,1,0,0
1113820169,16.0357,15.8773,92.6759,92.7279,0.0,28647.2,0.645114,1.05811,nan,4,3.96932,3.96932,3.96932,3.96932,0.0,0.0,0.0,0.0,0.0,0.0,0.0,0,0,0,0,0,0,0,1,0,0,1,0,0
1113830162,15.7675,15.8762,92.6759,92.7268,0.0,28647.5,0.644697,1.05819,nan,4,3.96905,3.96905,3.96905,3.96905,0.0,0.0,0.0,0.0,0.0,0.0,0.0,0,0,0,0,0,0,0,1,0,0,1,0,0
1115070123,15.7548,15.8807,92.7638,92.731,0.0,28679.4,0.646437,1.05789,nan,4,3.97018,3.97018,3.97018,3.97018,0.0,0.0,0.0,0.0,0.0,0.0,0.0,0,0,0,0,0,0,0,1,0,0,1,0,0
1115080098,15.908,15.881,92.7052,92.7305,0.0,28679.7,0.64654,1.05787,nan,4,3.97025,3.97025,3.97025,3.97025,0.0,0.0,0.0,0.0,0.0,0.0,0.0,0,0,0,0,0,0,0,1,0,0,1,0,0
1115090099,15.8697,15.8809,92.7345,92.7305,0.0,28680.0,0.646497,1.05788,nan,4,3.97022,3.97022,3.97022,3.97022,0.0,0.0,0.0,0.0,0.0,0.0,0.0,0,0,0,0,0,0,0,1,0,0,1,0,0
1115100148,15.9207,15.8813,92.7345,92.7306,0.0,28680.2,0.646649,1.05785,nan,4,3.97032,3.97032,3.97032,3.97032,0.0,0.0,0.0,0.0,0.0,0.0,0.0,0,0,0,0,0,0,0,1,0,0,1,0,0
1115110106,16.0612,15.8831,92.7052,92.7301,0.0,28680.5,0.647334,1.05773,nan,4,3.97077,3.97077,3.97077,3.97077,0.0,0.0,0.0,0.0,0.0,0.0,0.0,0,0,0,0,0,0,0,1,0,0,1,0,0
1115120107,15.8186,15.8824,92.7345,92.7302,0.0,28680.7,0.647089,1.05777,nan,4,3.97061,3.97061,3.97061,3.97061,0.0,0.0,0.0,0.0,0.0,0.0,0.0,0,0,0,0,0,0,0,1,0,0,1,0,0
1115130098,15.8314,15.8819,92.7052,92.7297,0.0,28681.0,0.646894,1.05781,nan,4,3.97048,3.97048,3.97048,3.97048,0.0,0.0,0.0,0.0,0.0,0.0,0.0,0,0,0,0,0,0,0,1,0,0,1,0,0
1115140101,16.0101,15.8832,92.7052,92.7292,0.0,28681.2,0.647383,1.05772,nan,4,3.9708,3.9708,3.9708,3.9708,0.0,0.0,0.0,0.0,0.0,0.0,0.0,0,0,0,0,0,0,0,1,0,0,1,0,0
1115150100,15.8314,15.8827,92.6759,92.7282,0.0,28681.5,0.647185,1.05776,nan,4,3.97067,3.97067,3.97067,3.97067,0.0,0.0,0.0,0.0,0.0,0.0,0.0,0,0,0,0,0,0,0,1,0,0,1,0,0
1115160108,15.8314,15.8822,92.7638,92.7289,0.0,28681.8,0.64699,1.05779,nan,4,3.97054,3.97054,3.97054,3.97054,0.0,0.0,0.0,0.0,0.0,0.0,0.0,0,0,0,0,0,0,0,1,0,0,1,0,0
1115210193,15.8824,15.8791,92.7638,92.7278,0.0,28683.0,0.645813,1.05799,nan,4,3.96978,3.96978,3.96978,3.96978,0.0,0.0,0.0,0.0,0.0,0.0,0.0,0,0,0,0,0,0,0,1,0,0,1,0,0
1115220249,15.8058,15.8784,92.7052,92.7274,0.0,28683.3,0.645534,1.05804,nan,4,3.9696,3.9696,3.9696,3.9696,0.0,0.0,0.0,0.0,0.0,0.0,0.0,0,0,0,0,0,0,0,1,0,0,1,0,0
1115230184,15.7803,15.8774,92.7638,92.7281,0.0,28683.6,0.645161,1.05811,nan,4,3.96935,3.96935,3.96935,3.96935,0.0,0.0,0.0,0.0,0.0,0.0,0.0,0,0,0,0,0,0,0,1,0,0,1,0,0
1115240173,15.6399,15.8751,92.7052,92.7276,0.0,28683.8,0.644256,1.05826,nan,4,3.96877,3.96877,3.96877,3.96877,0.0,0.0,0.0,0.0,0.0,0.0,0.0,0,0,0,0,0,0,0,1,0,0,1,0,0
1115250225,16.0357,15.8767,92.7345,92.7278,0.0,28684.1,0.644868,1.05816,nan,4,3.96916,3.96916,3.96916,3.96916,0.0,0.0,0.0,0.0,0.0,0.0,0.0,0,0,0,0,0,0,0,1,0,0,1,0,0
1115530287,15.742,15.8678,92.7052,92.7277,0.0,28691.3,0.64148,1.05874,nan,4,3.96696,3.96696,3.96696,3.96696,0.0,0.0,0.0,0.0,0.0,0.0,0.0,0,0,0,0,0,0,0,1,0,0,1,0,0
1115540263,16.0229,15.8694,92.6759,92.7267,0.0,28691.6,0.642071,1.05864,nan,4,3.96735,3.96735,3.96735,3.96735,0.0,0.0,0.0,0.0,0.0,0.0,0.0,0,0,0,0,0,0,0,1,0,0,1,0,0
1115550213,15.7292,15.868,92.7345,92.7268,0.0,28691.8,0.641537,1.05873,nan,4,3.967,3.967,3.967,3.967,0.0,0.0,0.0,0.0,0.0,0.0,0.0,0,0,0,0,0,0,0,1,0,0,1,0,0
1115560276,16.0484,15.8698,92.7345,92.727,0.0,28692.1,0.642224,1.05862,nan,4,3.96745,3.96745,3.96745,3.96745,0.0,0.0,0.0,0.0,0.0,0.0,0.0,0,0,0,0,0,0,0,1,0,0,1,0,0
1115570261,15.9718,15.8708,92.7638,92.7277,0.0,28692.3,0.642613,1.05855,nan,4,3.9677,3.9677,3.9677,3.9677,0.0,0.0,0.0,0.0,0.0,0.0,0.0,0,0,0,0,0,0,0,1,0,0,1,0,0
1115580214,15.9207,15.8713,92.7638,92.7284,0.0,28692.6,0.642803,1.05852,nan,4,3.96782,3.96782,3.96782,3.96782,0.0,0.0,0.0,0.0,0.0,0.0,0.0,0,0,0,0,0,0,0,1,0,0,1,0,0
1115590214,15.8058,15.8706,92.7345,92.7286,0.0,28692.8,0.642554,1.05856,nan,4,3.96766,3.96766,3.96766,3.96766,0.0,0.0,0.0,0.0,0.0,0.0,0.0,0,0,0,0,0,0,0,1,0,0,1,0,0
1115600324,16.0484,15.8724,92.7345,92.7287,0.0,28693.1,0.643231,1.05844,nan,4,3.9681,3.9681,3.9681,3.9681,0.0,0.0,0.0,0.0,0.0,0.0,0.0,0,0,0,0,0,0,0,1,0,0,1,0,0
1115610265,16.0229,15.8739,92.7638,92.7294,0.0,28693.4,0.643804,1.05834,nan,4,3.96847,3.96847,3.96847,3.96847,0.0,0.0,0.0,0.0,0.0,0.0,0.0,0,0,0,0,0,0,0,1,0,0,1,0,0
1115620294,15.9718,15.8749,92.7052,92.7289,0.0,28693.6,0.644177,1.05828,nan,4,3.96871,3.96871,3.96871,3.96871,0.0,0.0,0.0,0.0,0.0,0.0,0.0,0,0,0,0,0,0,0,1,0,0,1,0,0
1115660278,15.8058,15.8743,92.7052,92.7281,0.0,28694.6,0.643947,1.05832,nan,4,3.96857,3.96857,3.96857,3.96857,0.0,0.0,0.0,0.0,0.0,0.0,0.0,0,0,0,0,0,0,0,1,0,0,1,0,0
1115670269,15.8441,15.874,92.7638,92.7288,0.0,28694.9,0.643832,1.05834,nan,4,3.96849,3.96849,3.96849,3.96849,0.0,0.0,0.0,0.0,0.0,0.0,0.0,0,0,0,0,0,0,0,1,0,0,1,0,0
1115680246,15.8186,15.8734,92.7638,92.7295,0.0,28695.2,0.643621,1.05837,nan,4,3.96835,3.96835,3.96835,3.96835,0.0,0.0,0.0,0.0,0.0,0.0,0.0,0,0,0,0,0,0,0,1,0,0,1,0,0
1115690256,15.7292,15.872,92.7638,92.7302,0.0,28695.4,0.643072,1.05847,nan,4,3.968,3.968,3.968,3.968,0.0,0.0,0.0,0.0,0.0,0.0,0.0,0,0,0,0,0,0,0,1,0,0,1,0,0
1115700340,15.8186,15.8715,92.7638,92.7308,0.0,28695.7,0.642869,1.0585,nan,4,3.96786,3.96786,3.96786,3.96786,0.0,0.0,0.0,0.0,0.0,0.0,0.0,0,0,0,0,0,0,0,1,0,0,1,0,0
1115980099,15.7803,15.8699,92.7638,92.7266,0.0,28702.9,0.642281,1.05861,nan,4,3.96748,3.96748,3.96748,3.96748,0.0,0.0,0.0,0.0,0.0,0.0,0.0,0,0,0,0,0,0,0,1,0,0,1,0,0
1115990103,15.7548,15.8688,92.7052,92.7262,0.0,28703.1,0.641842,1.05868,nan,4,3.9672,3.9672,3.9672,3.9672,0.0,0.0,0.0,0.0,0.0,0.0,0.0,0,0,0,0,0,0,0,1,0,0,1,0,0
1116000098,15.9463,15.8696,92.6466,92.7246,0.0,28703.4,0.642138,1.05863,nan,4,3.96739,3.96739,3.96739,3.96739,0.0,0.0,0.0,0.0,0.0,0.0,0.0,0,0,0,0,0,0,0,1,0,0,1,0,0
1116010168,16.0101,15.8709,92.7638,92.7254,0.0,28703.7,0.642673,1.05854,nan,4,3.96774,3.96774,3.96774,3.96774,0.0,0.0,0.0,0.0,0.0,0.0,0.0,0,0,0,0,0,0,0,1,0,0,1,0,0
1116020097,15.8186,15.8704,92.7052,92.725,0.0,28703.9,0.642473,1.05857,nan,4,3.96761,3.96761,3.96761,3.96761,0.0,0.0,0.0,0.0,0.0,0.0,0.0,0,0,0,0,0,0,0,1,0,0,1,0,0
1116030107,16.0101,15.8718,92.7052,92.7246,0.0,28704.2,0.643005,1.05848,nan,4,3.96795,3.96795,3.96795,3.96795,0.0,0.0,0.0,0.0,0.0,0.0,0.0,0,0,0,0,0,0,0,1,0,0,1,0,0
1116040100,15.6909,15.87,92.7638,92.7254,0.0,28704.4,0.642316,1.0586,nan,4,3.96751,3.96751,3.96751,3.96751,0.0,0.0,0.0,0.0,0.0,0.0,0.0,0,0,0,0,0,0,0,1,0,0,1,0,0
1116050149,15.8058,15.8694,92.7638,92.7261,0.0,28704.7,0.642072,1.05864,nan,4,3.96735,3.96735,3.96735,3.96735,0.0,0.0,0.0,0.0,0.0,0.0,0.0,0,0,0,0,0,0,0,1,0,0,1,0,0
1116060100,15.8314,15.869,92.7638,92.7269,0.0,28704.9,0.641927,1.05867,nan,4,3.96725,3.96725,3.96725,3.96725,0.0,0.0,0.0,0.0,0.0,0.0,0.0,0,0,0,0,0,0,0,1,0,0,1,0,0
1116070104,15.8186,15.8685,92.7345,92.727,0.0,28705.2,0.641736,1.0587,nan,4,3.96713,3.96713,3.96713,3.96713,0.0,0.0,0.0,0.0,0.0,0.0,0.0,0,0,0,0,0,0,0,1,0,0,1,0,0
1116110100,15.8441,15.8679,92.7052,92.7276,0.0,28706.2,0.641511,1.05874,nan,4,3.96698,3.96698,3.96698,3.96698,0.0,0.0,0.0,0.0,0.0,0.0,0.0,0,0,0,0,0,0,0,1,0,0,1,0,0
1116120167,15.9974,15.8692,92.7052,92.7272,0.0,28706.5,0.642004,1.05865,nan,4,3.9673,3.9673,3.9673,3.9673,0.0,0.0,0.0,0.0,0.0,0.0,0.0,0,0,0,0,0,0,0,1,0,0,1,0,0
1116130099,15.8569,15.8691,92.7345,92.7273,0.0,28706.8,0.641957,1.05866,nan,4,3.96727,3.96727,3.96727,3.96727,0.0,0.0,0.0,0.0,0.0,0.0,0.0,0,0,0,0,0,0,0,1,0,0,1,0,0
1116140102,16.074,15.8711,92.7052,92.7269,0.0,28707.0,0.642737,1.05853,nan,4,3.96778,3.96778,3.96778,3.96778,0.0,0.0,0.0,0.0,0.0,0.0,0.0,0,0,0,0,0,0,0,1,0,0,1,0,0
1116430134,15.9974,15.8689,92.7052,92.726,0.0,28714.5,0.641887,1.05867,nan,4,3.96723,3.96723,3.96723,3.96723,0.0,0.0,0.0,0.0,0.0,0.0,0.0,0,0,0,0,0,0,0,1,0,0,1,0,0
1116440098,15.8186,15.8684,92.7638,92.7267,0.0,28714.7,0.641695,1.05871,nan,4,3.9671,3.9671,3.9671,3.9671,0.0,0.0,0.0,0.0,0.0,0.0,0.0,0,0,0,0,0,0,0,1,0,0,1,0,0
1116450108,15.7292,15.867,92.7052,92.7263,0.0,28715.0,0.641166,1.0588,nan,4,3.96676,3.96676,3.96676,3.96676,0.0,0.0,0.0,0.0,0.0,0.0,0.0,0,0,0,0,0,0,0,1,0,0,1,0,0
1116460144,15.9207,15.8676,92.7638,92.7271,0.0,28715.3,0.64137,1.05876,nan,4,3.96689,3.96689,3.96689,3.96689,0.0,0.0,0.0,0.0,0.0,0.0,0.0,0,0,0,0,0,0,0,1,0,0,1,0,0
1116470171,15.9718,15.8686,92.7345,92.7272,0.0,28715.5,0.641767,1.05869,nan,4,3.96715,3.96715,3.96715,3.96715,0.0,0.0,0.0,0.0,0.0,0.0,0.0,0,0,0,0,0,0,0,1,0,0,1,0,0
1116480126,15.9335,15.8692,92.7052,92.7268,0.0,28715.8,0.642015,1.05865,nan,4,3.96731,3.96731,3.96731,3.96731,0.0,0.0,0.0,0.0,0.0,0.0,0.0,0,0,0,0,0,0,0,1,0,0,1,0,0
1116490138,15.7292,15.8679,92.6759,92.7258,0.0,28716.0,0.641481,1.05874,nan,4,3.96696,3.96696,3.96696,3.96696,0.0,0.0,0.0,0.0,0.0,0.0,0.0,0,0,0,0,0,0,0,1,0,0,1,0,0
1116500156,15.576,15.865,92.7052,92.7254,0.0,28716.3,0.64037,1.05894,nan,4,3.96624,3.96624,3.96624,3.96624,0.0,0.0,0.0,0.0,0.0,0.0,0.0,0,0,0,0,0,0,0,1,0,0,1,0,0
1116510203,16.1889,15.8682,92.6759,92.7244,0.0,28716.5,0.641603,1.05872,nan,4,3.96704,3.96704,3.96704,3.96704,0.0,0.0,0.0,0.0,0.0,0.0,0.0,0,0,0,0,0,0,0,1,0,0,1,0,0
1116520165,16.0612,15.8701,92.7638,92.7252,0.0,28716.8,0.642339,1.0586,nan,4,3.96752,3.96752,3.96752,3.96752,0.0,0.0,0.0,0.0,0.0,0.0,0.0,0,0,0,0,0,0,0,1,0,0,1,0,0
1116570098,15.7675,15.8707,92.6466,92.7259,0.0,28718.1,0.642565,1.05856,nan,4,3.96767,3.96767,3.96767,3.96767,0.0,0.0,0.0,0.0,0.0,0.0,0.0,0,0,0,0,0,0,0,1,0,0,1,0,0
1116580098,15.8186,15.8702,92.7345,92.7261,0.0,28718.3,0.642366,1.05859,nan,4,3.96754,3.96754,3.96754,3.96754,0.0,0.0,0.0,0.0,0.0,0.0,0.0,0,0,0,0,0,0,0,1,0,0,1,0,0
1116590104,15.8058,15.8695,92.7345,92.7263,0.0,28718.6,0.642122,1.05863,nan,4,3.96738,3.96738,3.96738,3.96738,0.0,0.0,0.0,0.0,0.0,0.0,0.0,0,0,0,0,0,0,0,1,0,0,1,0,0
1116600096,15.9974,15.8708,92.7052,92.7259,0.0,28718.9,0.642608,1.05855,nan,4,3.9677,3.9677,3.9677,3.9677,0.0,0.0,0.0,0.0,0.0,0.0,0.0,0,0,0,0,0,0,0,1,0,0,1,0,0
1116610129,15.8314,15.8704,92.7345,92.726,0.0,28719.1,0.642458,1.05857,nan,4,3.9676,3.9676,3.9676,3.9676,0.0,0.0,0.0,0.0,0.0,0.0,0.0,0,0,0,0,0,0,0,1,0,0,1,0,0
1116900098,15.8314,15.8805,92.7345,92.7269,0.0,28726.6,0.646334,1.0579,nan,4,3.97012,3.97012,3.97012,3.97012,0.0,0.0,0.0,0.0,0.0,0.0,0.0,0,0,0,0,0,0,0,1,0,0,1,0,0
1116910223,15.8569,15.8802,92.7931,92.7282,0.0,28726.9,0.646244,1.05792,nan,4,3.97006,3.97006,3.97006,3.97006,0.0,0.0,0.0,0.0,0.0,0.0,0.0,0,0,0,0,0,0,0,1,0,0,1,0,0
