timestamp,voltage_v,voltage_filtered_v,current_a,current_filtered_a,average_current_a,discharged_mah,remaining,scale,temperature,cell_count,voltage_cell_v[0],voltage_cell_v[1],voltage_cell_v[2],voltage_cell_v[3],voltage_cell_v[4],voltage_cell_v[5],voltage_cell_v[6],voltage_cell_v[7],voltage_cell_v[8],voltage_cell_v[9],max_cell_voltage_delta,capacity,cycle_count,run_time_to_empty,average_time_to_empty,serial_number,state_of_health,max_error,connected,source,priority,id,is_powering_off,warning
1925660156,15.3462,15.3744,92.5587,92.6038,0.0,49557.0,0.451708,1.09272,nan,4,3.84361,3.84361,3.84361,3.84361,0.0,0.0,0.0,0.0,0.0,0.0,0.0,0,0,0,0,0,0,0,1,0,0,1,0,0
1925670144,15.4611,15.3753,92.588,92.6035,0.0,49557.3,0.452038,1.09266,nan,4,3.84382,3.84382,3.84382,3.84382,0.0,0.0,0.0,0.0,0.0,0.0,0.0,0,0,0,0,0,0,0,1,0,0,1,0,0
1925680099,15.5377,15.3769,92.6466,92.6043,0.0,49557.5,0.452656,1.09255,nan,4,3.84423,3.84423,3.84423,3.84423,0.0,0.0,0.0,0.0,0.0,0.0,0.0,0,0,0,0,0,0,0,1,0,0,1,0,0
1925690096,15.3207,15.3763,92.5587,92.6034,0.0,49557.8,0.452442,1.09259,nan,4,3.84409,3.84409,3.84409,3.84409,0.0,0.0,0.0,0.0,0.0,0.0,0.0,0,0,0,0,0,0,0,1,0,0,1,0,0
1925700099,15.525,15.3778,92.6466,92.6043,0.0,49558.0,0.453008,1.09248,nan,4,3.84446,3.84446,3.84446,3.84446,0.0,0.0,0.0,0.0,0.0,0.0,0.0,0,0,0,0,0,0,0,1,0,0,1,0,0
1926000206,15.3845,15.3652,92.588,92.6049,0.0,49565.8,0.448136,1.09338,nan,4,3.84129,3.84129,3.84129,3.84129,0.0,0.0,0.0,0.0,0.0,0.0,0.0,0,0,0,0,0,0,0,1,0,0,1,0,0
1926010173,15.576,15.3672,92.588,92.6046,0.0,49566.0,0.448939,1.09323,nan,4,3.84181,3.84181,3.84181,3.84181,0.0,0.0,0.0,0.0,0.0,0.0,0.0,0,0,0,0,0,0,0,1,0,0,1,0,0
1926020101,15.5505,15.3691,92.588,92.6042,0.0,49566.3,0.449637,1.09311,nan,4,3.84226,3.84226,3.84226,3.84226,0.0,0.0,0.0,0.0,0.0,0.0,0.0,0,0,0,0,0,0,0,1,0,0,1,0,0
1926030098,15.3207,15.3686,92.5587,92.6033,0.0,49566.5,0.449453,1.09314,nan,4,3.84214,3.84214,3.84214,3.84214,0.0,0.0,0.0,0.0,0.0,0.0,0.0,0,0,0,0,0,0,0,1,0,0,1,0,0
1926040101,15.2185,15.3671,92.588,92.603,0.0,49566.8,0.448882,1.09325,nan,4,3.84177,3.84177,3.84177,3.84177,0.0,0.0,0.0,0.0,0.0,0.0,0.0,0,0,0,0,0,0,0,1,0,0,1,0,0
1926050098,15.2824,15.3663,92.588,92.6027,0.0,49567.0,0.448559,1.0933,nan,4,3.84156,3.84156,3.84156,3.84156,0.0,0.0,0.0,0.0,0.0,0.0,0.0,0,0,0,0,0,0,0,1,0,0,1,0,0
1926060102,15.3718,15.3663,92.6173,92.603,0.0,49567.3,0.44858,1.0933,nan,4,3.84158,3.84158,3.84158,3.84158,0.0,0.0,0.0,0.0,0.0,0.0,0.0,0,0,0,0,0,0,0,1,0,0,1,0,0
1926070148,15.3207,15.3659,92.588,92.6027,0.0,49567.6,0.448406,1.09333,nan,4,3.84146,3.84146,3.84146,3.84146,0.0,0.0,0.0,0.0,0.0,0.0,0.0,0,0,0,0,0,0,0,1,0,0,1,0,0
1926080100,15.4739,15.3669,92.6173,92.603,0.0,49567.8,0.448818,1.09326,nan,4,3.84173,3.84173,3.84173,3.84173,0.0,0.0,0.0,0.0,0.0,0.0,0.0,0,0,0,0,0,0,0,1,0,0,1,0,0
1926090154,15.1292,15.3646,92.588,92.6027,0.0,49568.1,0.447912,1.09342,nan,4,3.84114,3.84114,3.84114,3.84114,0.0,0.0,0.0,0.0,0.0,0.0,0.0,0,0,0,0,0,0,0,1,0,0,1,0,0
1926120098,15.3462,15.3632,92.6466,92.6024,0.0,49568.8,0.44737,1.09352,nan,4,3.84079,3.84079,3.84079,3.84079,0.0,0.0,0.0,0.0,0.0,0.0,0.0,0,0,0,0,0,0,0,1,0,0,1,0,0
1926130099,15.3462,15.363,92.6173,92.6027,0.0,49569.1,0.447306,1.09354,nan,4,3.84075,3.84075,3.84075,3.84075,0.0,0.0,0.0,0.0,0.0,0.0,0.0,0,0,0,0,0,0,0,1,0,0,1,0,0
1926140105,15.3462,15.3628,92.5587,92.6019,0.0,49569.4,0.447242,1.09355,nan,4,3.84071,3.84071,3.84071,3.84071,0.0,0.0,0.0,0.0,0.0,0.0,0.0,0,0,0,0,0,0,0,1,0,0,1,0,0
1926150096,15.3335,15.3625,92.6173,92.6022,0.0,49569.6,0.44713,1.09357,nan,4,3.84063,3.84063,3.84063,3.84063,0.0,0.0,0.0,0.0,0.0,0.0,0.0,0,0,0,0,0,0,0,1,0,0,1,0,0
1926440122,15.4228,15.3712,92.588,92.6043,0.0,49577.1,0.450469,1.09295,nan,4,3.84281,3.84281,3.84281,3.84281,0.0,0.0,0.0,0.0,0.0,0.0,0.0,0,0,0,0,0,0,0,1,0,0,1,0,0
1926450222,15.2696,15.3702,92.6173,92.6046,0.0,49577.3,0.450083,1.09302,nan,4,3.84255,3.84255,3.84255,3.84255,0.0,0.0,0.0,0.0,0.0,0.0,0.0,0,0,0,0,0,0,0,1,0,0,1,0,0
1926460149,15.2313,15.3688,92.6466,92.6054,0.0,49577.6,0.449554,1.09312,nan,4,3.84221,3.84221,3.84221,3.84221,0.0,0.0,0.0,0.0,0.0,0.0,0.0,0,0,0,0,0,0,0,1,0,0,1,0,0
1926470161,15.359,15.3687,92.5587,92.6045,0.0,49577.9,0.449516,1.09313,nan,4,3.84219,3.84219,3.84219,3.84219,0.0,0.0,0.0,0.0,0.0,0.0,0.0,0,0,0,0,0,0,0,1,0,0,1,0,0
1926480133,15.3207,15.3683,92.6466,92.6053,0.0,49578.1,0.449333,1.09316,nan,4,3.84207,3.84207,3.84207,3.84207,0.0,0.0,0.0,0.0,0.0,0.0,0.0,0,0,0,0,0,0,0,1,0,0,1,0,0
1926490138,15.3335,15.3679,92.5587,92.6044,0.0,49578.4,0.449201,1.09319,nan,4,3.84198,3.84198,3.84198,3.84198,0.0,0.0,0.0,0.0,0.0,0.0,0.0,0,0,0,0,0,0,0,1,0,0,1,0,0
1926500131,15.525,15.3695,92.6466,92.6052,0.0,49578.6,0.449799,1.09308,nan,4,3.84237,3.84237,3.84237,3.84237,0.0,0.0,0.0,0.0,0.0,0.0,0.0,0,0,0,0,0,0,0,1,0,0,1,0,0
1926510129,15.5377,15.3711,92.6173,92.6055,0.0,49578.9,0.450439,1.09296,nan,4,3.84279,3.84279,3.84279,3.84279,0.0,0.0,0.0,0.0,0.0,0.0,0.0,0,0,0,0,0,0,0,1,0,0,1,0,0
1926520128,15.4867,15.3723,92.588,92.6051,0.0,49579.1,0.45088,1.09288,nan,4,3.84307,3.84307,3.84307,3.84307,0.0,0.0,0.0,0.0,0.0,0.0,0.0,0,0,0,0,0,0,0,1,0,0,1,0,0
1926530126,15.525,15.3738,92.6466,92.6059,0.0,49579.4,0.451461,1.09277,nan,4,3.84345,3.84345,3.84345,3.84345,0.0,0.0,0.0,0.0,0.0,0.0,0.0,0,0,0,0,0,0,0,1,0,0,1,0,0
1926540135,15.2952,15.373,92.5587,92.605,0.0,49579.7,0.451161,1.09282,nan,4,3.84325,3.84325,3.84325,3.84325,0.0,0.0,0.0,0.0,0.0,0.0,0.0,0,0,0,0,0,0,0,1,0,0,1,0,0
1926570136,15.5505,15.3759,92.6466,92.6063,0.0,49580.4,0.452255,1.09262,nan,4,3.84397,3.84397,3.84397,3.84397,0.0,0.0,0.0,0.0,0.0,0.0,0.0,0,0,0,0,0,0,0,1,0,0,1,0,0
1926580147,15.5633,15.3777,92.6466,92.6071,0.0,49580.7,0.452969,1.09249,nan,4,3.84443,3.84443,3.84443,3.84443,0.0,0.0,0.0,0.0,0.0,0.0,0.0,0,0,0,0,0,0,0,1,0,0,1,0,0
1926590128,15.3079,15.377,92.6173,92.6073,0.0,49580.9,0.452703,1.09254,nan,4,3.84426,3.84426,3.84426,3.84426,0.0,0.0,0.0,0.0,0.0,0.0,0.0,0,0,0,0,0,0,0,1,0,0,1,0,0
1926600116,15.2952,15.3762,92.588,92.6069,0.0,49581.2,0.452391,1.0926,nan,4,3.84405,3.84405,3.84405,3.84405,0.0,0.0,0.0,0.0,0.0,0.0,0.0,0,0,0,0,0,0,0,1,0,0,1,0,0
1926880198,15.1419,15.3769,92.588,92.6034,0.0,49588.4,0.452669,1.09255,nan,4,3.84423,3.84423,3.84423,3.84423,0.0,0.0,0.0,0.0,0.0,0.0,0.0,0,0,0,0,0,0,0,1,0,0,1,0,0
1926890184,15.2313,15.3755,92.5294,92.602,0.0,49588.7,0.452115,1.09265,nan,4,3.84387,3.84387,3.84387,3.84387,0.0,0.0,0.0,0.0,0.0,0.0,0.0,0,0,0,0,0,0,0,1,0,0,1,0,0
1926900163,15.2569,15.3743,92.5294,92.6005,0.0,49588.9,0.451663,1.09273,nan,4,3.84358,3.84358,3.84358,3.84358,0.0,0.0,0.0,0.0,0.0,0.0,0.0,0,0,0,0,0,0,0,1,0,0,1,0,0
1926910175,15.3462,15.374,92.588,92.6003,0.0,49589.2,0.451555,1.09275,nan,4,3.84351,3.84351,3.84351,3.84351,0.0,0.0,0.0,0.0,0.0,0.0,0.0,0,0,0,0,0,0,0,1,0,0,1,0,0
1926920110,15.359,15.3739,92.588,92.6001,0.0,49589.4,0.451498,1.09276,nan,4,3.84347,3.84347,3.84347,3.84347,0.0,0.0,0.0,0.0,0.0,0.0,0.0,0,0,0,0,0,0,0,1,0,0,1,0,0
1926930149,15.2058,15.3722,92.6466,92.601,0.0,49589.7,0.450858,1.09288,nan,4,3.84306,3.84306,3.84306,3.84306,0.0,0.0,0.0,0.0,0.0,0.0,0.0,0,0,0,0,0,0,0,1,0,0,1,0,0
1926940101,15.3335,15.3718,92.6173,92.6013,0.0,49590.0,0.45071,1.09291,nan,4,3.84296,3.84296,3.84296,3.84296,0.0,0.0,0.0,0.0,0.0,0.0,0.0,0,0,0,0,0,0,0,1,0,0,1,0,0
1926950127,15.576,15.3739,92.5294,92.5999,0.0,49590.2,0.451488,1.09276,nan,4,3.84347,3.84347,3.84347,3.84347,0.0,0.0,0.0,0.0,0.0,0.0,0.0,0,0,0,0,0,0,0,1,0,0,1,0,0
1926960100,15.525,15.3754,92.588,92.5996,0.0,49590.5,0.452064,1.09266,nan,4,3.84384,3.84384,3.84384,3.84384,0.0,0.0,0.0,0.0,0.0,0.0,0.0,0,0,0,0,0,0,0,1,0,0,1,0,0
1926970147,15.4994,15.3766,92.588,92.5994,0.0,49590.7,0.452536,1.09257,nan,4,3.84415,3.84415,3.84415,3.84415,0.0,0.0,0.0,0.0,0.0,0.0,0.0,0,0,0,0,0,0,0,1,0,0,1,0,0
1927030102,15.3207,15.3734,92.588,92.5987,0.0,49592.3,0.451293,1.0928,nan,4,3.84334,3.84334,3.84334,3.84334,0.0,0.0,0.0,0.0,0.0,0.0,0.0,0,0,0,0,0,0,0,1,0,0,1,0,0
1927040102,15.3718,15.3733,92.588,92.5985,0.0,49592.5,0.451287,1.0928,nan,4,3.84334,3.84334,3.84334,3.84334,0.0,0.0,0.0,0.0,0.0,0.0,0.0,0,0,0,0,0,0,0,1,0,0,1,0,0
1927050105,15.3207,15.3728,92.5294,92.5971,0.0,49592.8,0.451087,1.09284,nan,4,3.84321,3.84321,3.84321,3.84321,0.0,0.0,0.0,0.0,0.0,0.0,0.0,0,0,0,0,0,0,0,1,0,0,1,0,0
1927060212,15.5122,15.3742,92.7052,92.5992,0.0,49593.1,0.451617,1.09274,nan,4,3.84355,3.84355,3.84355,3.84355,0.0,0.0,0.0,0.0,0.0,0.0,0.0,0,0,0,0,0,0,0,1,0,0,1,0,0
1927370316,15.2569,15.3687,92.588,92.5993,0.0,49601.0,0.449518,1.09313,nan,4,3.84219,3.84219,3.84219,3.84219,0.0,0.0,0.0,0.0,0.0,0.0,0.0,0,0,0,0,0,0,0,1,0,0,1,0,0
1927380130,15.5122,15.3702,92.5587,92.5985,0.0,49601.3,0.450064,1.09303,nan,4,3.84254,3.84254,3.84254,3.84254,0.0,0.0,0.0,0.0,0.0,0.0,0.0,0,0,0,0,0,0,0,1,0,0,1,0,0
1927390102,15.3079,15.3695,92.6173,92.5989,0.0,49601.6,0.449827,1.09307,nan,4,3.84239,3.84239,3.84239,3.84239,0.0,0.0,0.0,0.0,0.0,0.0,0.0,0,0,0,0,0,0,0,1,0,0,1,0,0
1927400108,15.2952,15.3688,92.588,92.5987,0.0,49601.8,0.449544,1.09312,nan,4,3.8422,3.8422,3.8422,3.8422,0.0,0.0,0.0,0.0,0.0,0.0,0.0,0,0,0,0,0,0,0,1,0,0,1,0,0
1927410099,15.3462,15.3686,92.5587,92.5979,0.0,49602.1,0.449458,1.09314,nan,4,3.84215,3.84215,3.84215,3.84215,0.0,0.0,0.0,0.0,0.0,0.0,0.0,0,0,0,0,0,0,0,1,0,0,1,0,0
1927420187,15.2696,15.3676,92.6466,92.5988,0.0,49602.3,0.449081,1.09321,nan,4,3.8419,3.8419,3.8419,3.8419,0.0,0.0,0.0,0.0,0.0,0.0,0.0,0,0,0,0,0,0,0,1,0,0,1,0,0
1927430099,15.3462,15.3674,92.6173,92.5992,0.0,49602.6,0.449,1.09322,nan,4,3.84185,3.84185,3.84185,3.84185,0.0,0.0,0.0,0.0,0.0,0.0,0.0,0,0,0,0,0,0,0,1,0,0,1,0,0
1927440105,15.4994,15.3687,92.6173,92.5995,0.0,49602.8,0.449503,1.09313,nan,4,3.84218,3.84218,3.84218,3.84218,0.0,0.0,0.0,0.0,0.0,0.0,0.0,0,0,0,0,0,0,0,1,0,0,1,0,0
1927450099,15.3718,15.3687,92.588,92.5993,0.0,49603.1,0.449514,1.09313,nan,4,3.84218,3.84218,3.84218,3.84218,0.0,0.0,0.0,0.0,0.0,0.0,0.0,0,0,0,0,0,0,0,1,0,0,1,0,0
1927460101,15.525,15.3703,92.588,92.5991,0.0,49603.4,0.450109,1.09302,nan,4,3.84257,3.84257,3.84257,3.84257,0.0,0.0,0.0,0.0,0.0,0.0,0.0,0,0,0,0,0,0,0,1,0,0,1,0,0
1927470127,15.2952,15.3695,92.6173,92.5995,0.0,49603.6,0.449823,1.09307,nan,4,3.84239,3.84239,3.84239,3.84239,0.0,0.0,0.0,0.0,0.0,0.0,0.0,0,0,0,0,0,0,0,1,0,0,1,0,0
1927490099,15.2313,15.3683,92.6173,92.5996,0.0,49604.1,0.449354,1.09316,nan,4,3.84208,3.84208,3.84208,3.84208,0.0,0.0,0.0,0.0,0.0,0.0,0.0,0,0,0,0,0,0,0,1,0,0,1,0,0
1927500099,15.2569,15.3672,92.588,92.5994,0.0,49604.4,0.448929,1.09324,nan,4,3.8418,3.8418,3.8418,3.8418,0.0,0.0,0.0,0.0,0.0,0.0,0.0,0,0,0,0,0,0,0,1,0,0,1,0,0
1927510204,15.2824,15.3664,92.5587,92.5986,0.0,49604.6,0.448606,1.0933,nan,4,3.84159,3.84159,3.84159,3.84159,0.0,0.0,0.0,0.0,0.0,0.0,0.0,0,0,0,0,0,0,0,1,0,0,1,0,0
1927520095,15.5377,15.3681,92.588,92.5984,0.0,49604.9,0.449258,1.09318,nan,4,3.84202,3.84202,3.84202,3.84202,0.0,0.0,0.0,0.0,0.0,0.0,0.0,0,0,0,0,0,0,0,1,0,0,1,0,0
1927820107,15.4101,15.3626,92.6173,92.5971,0.0,49612.6,0.447155,1.09356,nan,4,3.84065,3.84065,3.84065,3.84065,0.0,0.0,0.0,0.0,0.0,0.0,0.0,0,0,0,0,0,0,0,1,0,0,1,0,0
1927830109,15.2441,15.3614,92.5587,92.5963,0.0,49612.9,0.446704,1.09365,nan,4,3.84036,3.84036,3.84036,3.84036,0.0,0.0,0.0,0.0,0.0,0.0,0.0,0,0,0,0,0,0,0,1,0,0,1,0,0
1927840096,15.359,15.3614,92.6173,92.5967,0.0,49613.1,0.446694,1.09365,nan,4,3.84035,3.84035,3.84035,3.84035,0.0,0.0,0.0,0.0,0.0,0.0,0.0,0,0,0,0,0,0,0,1,0,0,1,0,0
1927850113,15.3207,15.361,92.588,92.5966,0.0,49613.4,0.446539,1.09368,nan,4,3.84025,3.84025,3.84025,3.84025,0.0,0.0,0.0,0.0,0.0,0.0,0.0,0,0,0,0,0,0,0,1,0,0,1,0,0
1927860145,15.3335,15.3607,92.588,92.5964,0.0,49613.7,0.446434,1.0937,nan,4,3.84018,3.84018,3.84018,3.84018,0.0,0.0,0.0,0.0,0.0,0.0,0.0,0,0,0,0,0,0,0,1,0,0,1,0,0
1927870281,15.3335,15.3605,92.588,92.5962,0.0,49613.9,0.446331,1.09372,nan,4,3.84011,3.84011,3.84011,3.84011,0.0,0.0,0.0,0.0,0.0,0.0,0.0,0,0,0,0,0,0,0,1,0,0,1,0,0
1927880102,15.5122,15.362,92.588,92.5961,0.0,49614.2,0.446908,1.09361,nan,4,3.84049,3.84049,3.84049,3.84049,0.0,0.0,0.0,0.0,0.0,0.0,0.0,0,0,0,0,0,0,0,1,0,0,1,0,0
1927890109,15.3462,15.3618,92.588,92.5959,0.0,49614.4,0.446848,1.09362,nan,4,3.84045,3.84045,3.84045,3.84045,0.0,0.0,0.0,0.0,0.0,0.0,0.0,0,0,0,0,0,0,0,1,0,0,1,0,0
1927900101,15.3207,15.3614,92.6173,92.5963,0.0,49614.7,0.446692,1.09365,nan,4,3.84035,3.84035,3.84035,3.84035,0.0,0.0,0.0,0.0,0.0,0.0,0.0,0,0,0,0,0,0,0,1,0,0,1,0,0
1927910103,15.4994,15.3628,92.588,92.5962,0.0,49614.9,0.447217,1.09355,nan,4,3.84069,3.84069,3.84069,3.84069,0.0,0.0,0.0,0.0,0.0,0.0,0.0,0,0,0,0,0,0,0,1,0,0,1,0,0
1927920098,15.3973,15.3631,92.588,92.596,0.0,49615.2,0.447349,1.09353,nan,4,3.84078,3.84078,3.84078,3.84078,0.0,0.0,0.0,0.0,0.0,0.0,0.0,0,0,0,0,0,0,0,1,0,0,1,0,0
1927950099,15.3845,15.3619,92.588,92.5967,0.0,49616.0,0.446874,1.09362,nan,4,3.84047,3.84047,3.84047,3.84047,0.0,0.0,0.0,0.0,0.0,0.0,0.0,0,0,0,0,0,0,0,1,0,0,1,0,0
1927960195,15.3845,15.3621,92.588,92.5965,0.0,49616.2,0.44696,1.0936,nan,4,3.84052,3.84052,3.84052,3.84052,0.0,0.0,0.0,0.0,0.0,0.0,0.0,0,0,0,0,0,0,0,1,0,0,1,0,0
1927970115,15.3462,15.3619,92.588,92.5963,0.0,49616.5,0.446899,1.09361,nan,4,3.84048,3.84048,3.84048,3.84048,0.0,0.0,0.0,0.0,0.0,0.0,0.0,0,0,0,0,0,0,0,1,0,0,1,0,0
1927980097,15.3462,15.3618,92.6466,92.5973,0.0,49616.8,0.446839,1.09362,nan,4,3.84045,3.84045,3.84045,3.84045,0.0,0.0,0.0,0.0,0.0,0.0,0.0,0,0,0,0,0,0,0,1,0,0,1,0,0
1928291546,15.3973,15.3674,92.6466,92.5994,0.0,49624.8,0.448988,1.09323,nan,4,3.84184,3.84184,3.84184,3.84184,0.0,0.0,0.0,0.0,0.0,0.0,0.0,0,0,0,0,0,0,0,1,0,0,1,0,0
1928300960,15.4101,15.3678,92.6173,92.5998,0.0,49625.0,0.449151,1.0932,nan,4,3.84195,3.84195,3.84195,3.84195,0.0,0.0,0.0,0.0,0.0,0.0,0.0,0,0,0,0,0,0,0,1,0,0,1,0,0
1928310991,15.2952,15.3671,92.6466,92.6007,0.0,49625.3,0.448874,1.09325,nan,4,3.84177,3.84177,3.84177,3.84177,0.0,0.0,0.0,0.0,0.0,0.0,0.0,0,0,0,0,0,0,0,1,0,0,1,0,0
1928321078,15.2952,15.3664,92.588,92.6004,0.0,49625.5,0.4486,1.0933,nan,4,3.84159,3.84159,3.84159,3.84159,0.0,0.0,0.0,0.0,0.0,0.0,0.0,0,0,0,0,0,0,0,1,0,0,1,0,0
1928330769,15.3718,15.3664,92.6466,92.6013,0.0,49625.8,0.448621,1.09329,nan,4,3.8416,3.8416,3.8416,3.8416,0.0,0.0,0.0,0.0,0.0,0.0,0.0,0,0,0,0,0,0,0,1,0,0,1,0,0
1928341077,15.576,15.3685,92.588,92.6011,0.0,49626.1,0.449419,1.09315,nan,4,3.84212,3.84212,3.84212,3.84212,0.0,0.0,0.0,0.0,0.0,0.0,0.0,0,0,0,0,0,0,0,1,0,0,1,0,0
1928350846,15.3973,15.3688,92.6173,92.6014,0.0,49626.3,0.449528,1.09313,nan,4,3.84219,3.84219,3.84219,3.84219,0.0,0.0,0.0,0.0,0.0,0.0,0.0,0,0,0,0,0,0,0,1,0,0,1,0,0
1928361080,15.3079,15.3682,92.588,92.6011,0.0,49626.6,0.449296,1.09317,nan,4,3.84204,3.84204,3.84204,3.84204,0.0,0.0,0.0,0.0,0.0,0.0,0.0,0,0,0,0,0,0,0,1,0,0,1,0,0
1928371060,15.5377,15.3698,92.6466,92.602,0.0,49626.8,0.449942,1.09305,nan,4,3.84246,3.84246,3.84246,3.84246,0.0,0.0,0.0,0.0,0.0,0.0,0.0,0,0,0,0,0,0,0,1,0,0,1,0,0
1928381136,15.3335,15.3695,92.588,92.6018,0.0,49627.1,0.449803,1.09307,nan,4,3.84237,3.84237,3.84237,3.84237,0.0,0.0,0.0,0.0,0.0,0.0,0.0,0,0,0,0,0,0,0,1,0,0,1,0,0
1928421019,15.3207,15.3687,92.588,92.6002,0.0,49628.1,0.449502,1.09313,nan,4,3.84218,3.84218,3.84218,3.84218,0.0,0.0,0.0,0.0,0.0,0.0,0.0,0,0,0,0,0,0,0,1,0,0,1,0,0
1928430740,15.2569,15.3676,92.6466,92.6011,0.0,49628.4,0.449075,1.09321,nan,4,3.8419,3.8419,3.8419,3.8419,0.0,0.0,0.0,0.0,0.0,0.0,0.0,0,0,0,0,0,0,0,1,0,0,1,0,0
1928440948,15.576,15.3697,92.6466,92.602,0.0,49628.6,0.449869,1.09306,nan,4,3.84241,3.84241,3.84241,3.84241,0.0,0.0,0.0,0.0,0.0,0.0,0.0,0,0,0,0,0,0,0,1,0,0,1,0,0
1928450939,15.5122,15.3711,92.588,92.6017,0.0,49628.9,0.450412,1.09296,nan,4,3.84277,3.84277,3.84277,3.84277,0.0,0.0,0.0,0.0,0.0,0.0,0.0,0,0,0,0,0,0,0,1,0,0,1,0,0
1928460936,15.3462,15.3708,92.6173,92.602,0.0,49629.1,0.450317,1.09298,nan,4,3.84271,3.84271,3.84271,3.84271,0.0,0.0,0.0,0.0,0.0,0.0,0.0,0,0,0,0,0,0,0,1,0,0,1,0,0
1928770637,15.5505,15.3727,92.5294,92.6007,0.0,49637.1,0.451053,1.09284,nan,4,3.84318,3.84318,3.84318,3.84318,0.0,0.0,0.0,0.0,0.0,0.0,0.0,0,0,0,0,0,0,0,1,0,0,1,0,0
1928780678,15.3335,15.3723,92.588,92.6005,0.0,49637.4,0.450903,1.09287,nan,4,3.84309,3.84309,3.84309,3.84309,0.0,0.0,0.0,0.0,0.0,0.0,0.0,0,0,0,0,0,0,0,1,0,0,1,0,0
1928790528,15.5633,15.3742,92.588,92.6002,0.0,49637.6,0.45163,1.09274,nan,4,3.84356,3.84356,3.84356,3.84356,0.0,0.0,0.0,0.0,0.0,0.0,0.0,0,0,0,0,0,0,0,1,0,0,1,0,0
1928800789,15.5633,15.3761,92.6173,92.6006,0.0,49637.9,0.45235,1.0926,nan,4,3.84403,3.84403,3.84403,3.84403,0.0,0.0,0.0,0.0,0.0,0.0,0.0,0,0,0,0,0,0,0,1,0,0,1,0,0
1928810561,15.5122,15.3775,92.6466,92.6015,0.0,49638.1,0.452868,1.09251,nan,4,3.84436,3.84436,3.84436,3.84436,0.0,0.0,0.0,0.0,0.0,0.0,0.0,0,0,0,0,0,0,0,1,0,0,1,0,0
1928820672,15.525,15.3789,92.6466,92.6024,0.0,49638.4,0.45343,1.0924,nan,4,3.84473,3.84473,3.84473,3.84473,0.0,0.0,0.0,0.0,0.0,0.0,0.0,0,0,0,0,0,0,0,1,0,0,1,0,0
1928830590,15.5122,15.3802,92.588,92.6021,0.0,49638.6,0.453938,1.09231,nan,4,3.84506,3.84506,3.84506,3.84506,0.0,0.0,0.0,0.0,0.0,0.0,0.0,0,0,0,0,0,0,0,1,0,0,1,0,0
1928840688,15.3335,15.3798,92.6173,92.6024,0.0,49638.9,0.45376,1.09234,nan,4,3.84494,3.84494,3.84494,3.84494,0.0,0.0,0.0,0.0,0.0,0.0,0.0,0,0,0,0,0,0,0,1,0,0,1,0,0
1928850639,15.2185,15.3782,92.588,92.6021,0.0,49639.2,0.453146,1.09246,nan,4,3.84454,3.84454,3.84454,3.84454,0.0,0.0,0.0,0.0,0.0,0.0,0.0,0,0,0,0,0,0,0,1,0,0,1,0,0
1928860583,15.4611,15.379,92.5587,92.6012,0.0,49639.4,0.453461,1.0924,nan,4,3.84475,3.84475,3.84475,3.84475,0.0,0.0,0.0,0.0,0.0,0.0,0.0,0,0,0,0,0,0,0,1,0,0,1,0,0
1928870475,15.2952,15.3782,92.588,92.601,0.0,49639.7,0.453142,1.09246,nan,4,3.84454,3.84454,3.84454,3.84454,0.0,0.0,0.0,0.0,0.0,0.0,0.0,0,0,0,0,0,0,0,1,0,0,1,0,0
1928890644,15.3462,15.3787,92.6466,92.6016,0.0,49640.2,0.453333,1.09242,nan,4,3.84467,3.84467,3.84467,3.84467,0.0,0.0,0.0,0.0,0.0,0.0,0.0,0,0,0,0,0,0,0,1,0,0,1,0,0
1928900404,15.3207,15.3781,92.5587,92.6008,0.0,49640.4,0.453113,1.09246,nan,4,3.84452,3.84452,3.84452,3.84452,0.0,0.0,0.0,0.0,0.0,0.0,0.0,0,0,0,0,0,0,0,1,0,0,1,0,0
1928910615,15.5122,15.3794,92.588,92.6005,0.0,49640.7,0.453623,1.09237,nan,4,3.84485,3.84485,3.84485,3.84485,0.0,0.0,0.0,0.0,0.0,0.0,0.0,0,0,0,0,0,0,0,1,0,0,1,0,0
1928920573,15.2441,15.3781,92.588,92.6003,0.0,49641.0,0.453108,1.09246,nan,4,3.84452,3.84452,3.84452,3.84452,0.0,0.0,0.0,0.0,0.0,0.0,0.0,0,0,0,0,0,0,0,1,0,0,1,0,0
1929220273,15.5122,15.3875,92.5587,92.5993,0.0,49648.7,0.456721,1.0918,nan,4,3.84687,3.84687,3.84687,3.84687,0.0,0.0,0.0,0.0,0.0,0.0,0.0,0,0,0,0,0,0,0,1,0,0,1,0,0
1929230278,15.1547,15.3852,92.5294,92.5979,0.0,49648.9,0.455835,1.09196,nan,4,3.84629,3.84629,3.84629,3.84629,0.0,0.0,0.0,0.0,0.0,0.0,0.0,0,0,0,0,0,0,0,1,0,0,1,0,0
1929240376,15.5505,15.3868,92.588,92.5977,0.0,49649.2,0.456465,1.09184,nan,4,3.8467,3.8467,3.8467,3.8467,0.0,0.0,0.0,0.0,0.0,0.0,0.0,0,0,0,0,0,0,0,1,0,0,1,0,0
1929250187,15.5505,15.3884,92.588,92.5975,0.0,49649.4,0.457088,1.09173,nan,4,3.84711,3.84711,3.84711,3.84711,0.0,0.0,0.0,0.0,0.0,0.0,0.0,0,0,0,0,0,0,0,1,0,0,1,0,0
1929260280,15.3335,15.3879,92.6173,92.5979,0.0,49649.7,0.456878,1.09177,nan,4,3.84697,3.84697,3.84697,3.84697,0.0,0.0,0.0,0.0,0.0,0.0,0.0,0,0,0,0,0,0,0,1,0,0,1,0,0
1929270330,15.3335,15.3873,92.588,92.5977,0.0,49649.9,0.456671,1.09181,nan,4,3.84684,3.84684,3.84684,3.84684,0.0,0.0,0.0,0.0,0.0,0.0,0.0,0,0,0,0,0,0,0,1,0,0,1,0,0
1929280113,15.3207,15.3867,92.6173,92.5981,0.0,49650.2,0.456417,1.09185,nan,4,3.84667,3.84667,3.84667,3.84667,0.0,0.0,0.0,0.0,0.0,0.0,0.0,0,0,0,0,0,0,0,1,0,0,1,0,0
1929290302,15.5888,15.3887,92.5587,92.5973,0.0,49650.5,0.457187,1.09171,nan,4,3.84717,3.84717,3.84717,3.84717,0.0,0.0,0.0,0.0,0.0,0.0,0.0,0,0,0,0,0,0,0,1,0,0,1,0,0
1929300143,15.3462,15.3883,92.588,92.5971,0.0,49650.7,0.457025,1.09174,nan,4,3.84707,3.84707,3.84707,3.84707,0.0,0.0,0.0,0.0,0.0,0.0,0.0,0,0,0,0,0,0,0,1,0,0,1,0,0
1929310195,15.2696,15.3871,92.6173,92.5975,0.0,49651.0,0.456573,1.09182,nan,4,3.84677,3.84677,3.84677,3.84677,0.0,0.0,0.0,0.0,0.0,0.0,0.0,0,0,0,0,0,0,0,1,0,0,1,0,0
1929340408,15.3335,15.3836,92.6173,92.5981,0.0,49651.7,0.455247,1.09207,nan,4,3.84591,3.84591,3.84591,3.84591,0.0,0.0,0.0,0.0,0.0,0.0,0.0,0,0,0,0,0,0,0,1,0,0,1,0,0
1929350187,15.2185,15.382,92.588,92.5979,0.0,49652.0,0.454619,1.09219,nan,4,3.8455,3.8455,3.8455,3.8455,0.0,0.0,0.0,0.0,0.0,0.0,0.0,0,0,0,0,0,0,0,1,0,0,1,0,0
1929360108,15.3335,15.3815,92.6466,92.5989,0.0,49652.2,0.454434,1.09222,nan,4,3.84538,3.84538,3.84538,3.84538,0.0,0.0,0.0,0.0,0.0,0.0,0.0,0,0,0,0,0,0,0,1,0,0,1,0,0
1929370156,15.525,15.3829,92.6173,92.5992,0.0,49652.5,0.45498,1.09212,nan,4,3.84574,3.84574,3.84574,3.84574,0.0,0.0,0.0,0.0,0.0,0.0,0.0,0,0,0,0,0,0,0,1,0,0,1,0,0
1929680168,15.5122,15.3785,92.588,92.5998,0.0,49660.5,0.453281,1.09243,nan,4,3.84463,3.84463,3.84463,3.84463,0.0,0.0,0.0,0.0,0.0,0.0,0.0,0,0,0,0,0,0,0,1,0,0,1,0,0
1929690140,15.4994,15.3797,92.588,92.5996,0.0,49660.7,0.453742,1.09235,nan,4,3.84493,3.84493,3.84493,3.84493,0.0,0.0,0.0,0.0,0.0,0.0,0.0,0,0,0,0,0,0,0,1,0,0,1,0,0
1929700134,15.1547,15.3775,92.6466,92.6005,0.0,49661.0,0.452885,1.09251,nan,4,3.84438,3.84438,3.84438,3.84438,0.0,0.0,0.0,0.0,0.0,0.0,0.0,0,0,0,0,0,0,0,1,0,0,1,0,0
1929710127,15.3462,15.3772,92.5587,92.5997,0.0,49661.3,0.452766,1.09253,nan,4,3.8443,3.8443,3.8443,3.8443,0.0,0.0,0.0,0.0,0.0,0.0,0.0,0,0,0,0,0,0,0,1,0,0,1,0,0
1929720132,15.3718,15.3771,92.6173,92.6,0.0,49661.5,0.452745,1.09253,nan,4,3.84428,3.84428,3.84428,3.84428,0.0,0.0,0.0,0.0,0.0,0.0,0.0,0,0,0,0,0,0,0,1,0,0,1,0,0
1929730112,15.4356,15.3777,92.6173,92.6004,0.0,49661.8,0.452968,1.09249,nan,4,3.84443,3.84443,3.84443,3.84443,0.0,0.0,0.0,0.0,0.0,0.0,0.0,0,0,0,0,0,0,0,1,0,0,1,0,0
1929740104,15.3718,15.3777,92.588,92.6001,0.0,49662.0,0.452945,1.09249,nan,4,3.84441,3.84441,3.84441,3.84441,0.0,0.0,0.0,0.0,0.0,0.0,0.0,0,0,0,0,0,0,0,1,0,0,1,0,0
1929750097,15.2569,15.3765,92.6173,92.6005,0.0,49662.3,0.452485,1.09258,nan,4,3.84412,3.84412,3.84412,3.84412,0.0,0.0,0.0,0.0,0.0,0.0,0.0,0,0,0,0,0,0,0,1,0,0,1,0,0
1929760296,15.3462,15.3762,92.6173,92.6008,0.0,49662.6,0.45237,1.0926,nan,4,3.84404,3.84404,3.84404,3.84404,0.0,0.0,0.0,0.0,0.0,0.0,0.0,0,0,0,0,0,0,0,1,0,0,1,0,0
1929770098,15.193,15.3743,92.6466,92.6017,0.0,49662.8,0.451673,1.09273,nan,4,3.84359,3.84359,3.84359,3.84359,0.0,0.0,0.0,0.0,0.0,0.0,0.0,0,0,0,0,0,0,0,1,0,0,1,0,0
1929780223,15.4101,15.3747,92.588,92.6014,0.0,49663.1,0.451809,1.0927,nan,4,3.84368,3.84368,3.84368,3.84368,0.0,0.0,0.0,0.0,0.0,0.0,0.0,0,0,0,0,0,0,0,1,0,0,1,0,0
1929830223,15.3335,15.3767,92.6466,92.6035,0.0,49664.4,0.452559,1.09257,nan,4,3.84416,3.84416,3.84416,3.84416,0.0,0.0,0.0,0.0,0.0,0.0,0.0,0,0,0,0,0,0,0,1,0,0,1,0,0
1929840186,15.4867,15.3777,92.5587,92.6026,0.0,49664.6,0.452978,1.09249,nan,4,3.84444,3.84444,3.84444,3.84444,0.0,0.0,0.0,0.0,0.0,0.0,0.0,0,0,0,0,0,0,0,1,0,0,1,0,0
1929850205,15.3335,15.3773,92.6466,92.6035,0.0,49664.9,0.452809,1.09252,nan,4,3.84433,3.84433,3.84433,3.84433,0.0,0.0,0.0,0.0,0.0,0.0,0.0,0,0,0,0,0,0,0,1,0,0,1,0,0
1929860251,15.3973,15.3775,92.588,92.6032,0.0,49665.1,0.452885,1.09251,nan,4,3.84438,3.84438,3.84438,3.84438,0.0,0.0,0.0,0.0,0.0,0.0,0.0,0,0,0,0,0,0,0,1,0,0,1,0,0
1931140099,15.5122,15.3853,92.6173,92.5951,0.0,49698.1,0.455894,1.09195,nan,4,3.84633,3.84633,3.84633,3.84633,0.0,0.0,0.0,0.0,0.0,0.0,0.0,0,0,0,0,0,0,0,1,0,0,1,0,0
1931150097,15.4994,15.3865,92.6466,92.5961,0.0,49698.3,0.456329,1.09187,nan,4,3.84661,3.84661,3.84661,3.84661,0.0,0.0,0.0,0.0,0.0,0.0,0.0,0,0,0,0,0,0,0,1,0,0,1,0,0
1931160179,15.2185,15.3848,92.588,92.5959,0.0,49698.6,0.455689,1.09199,nan,4,3.8462,3.8462,3.8462,3.8462,0.0,0.0,0.0,0.0,0.0,0.0,0.0,0,0,0,0,0,0,0,1,0,0,1,0,0
1931170136,15.359,15.3845,92.5294,92.5946,0.0,49698.8,0.455591,1.09201,nan,4,3.84613,3.84613,3.84613,3.84613,0.0,0.0,0.0,0.0,0.0,0.0,0.0,0,0,0,0,0,0,0,1,0,0,1,0,0
1931180136,15.3718,15.3844,92.5294,92.5934,0.0,49699.1,0.455543,1.09201,nan,4,3.8461,3.8461,3.8461,3.8461,0.0,0.0,0.0,0.0,0.0,0.0,0.0,0,0,0,0,0,0,0,1,0,0,1,0,0
1931190130,15.4867,15.3854,92.588,92.5932,0.0,49699.4,0.455932,1.09194,nan,4,3.84636,3.84636,3.84636,3.84636,0.0,0.0,0.0,0.0,0.0,0.0,0.0,0,0,0,0,0,0,0,1,0,0,1,0,0
1931200132,15.359,15.3852,92.6173,92.5937,0.0,49699.6,0.455832,1.09196,nan,4,3.84629,3.84629,3.84629,3.84629,0.0,0.0,0.0,0.0,0.0,0.0,0.0,0,0,0,0,0,0,0,1,0,0,1,0,0
1931210144,15.525,15.3865,92.6466,92.5948,0.0,49699.9,0.456364,1.09186,nan,4,3.84664,3.84664,3.84664,3.84664,0.0,0.0,0.0,0.0,0.0,0.0,0.0,0,0,0,0,0,0,0,1,0,0,1,0,0
1931220128,15.525,15.3879,92.6173,92.5952,0.0,49700.1,0.456891,1.09177,nan,4,3.84698,3.84698,3.84698,3.84698,0.0,0.0,0.0,0.0,0.0,0.0,0.0,0,0,0,0,0,0,0,1,0,0,1,0,0
1931230136,15.3335,15.3874,92.6466,92.5962,0.0,49700.4,0.456684,1.0918,nan,4,3.84684,3.84684,3.84684,3.84684,0.0,0.0,0.0,0.0,0.0,0.0,0.0,0,0,0,0,0,0,0,1,0,0,1,0,0
1931270123,15.5633,15.3886,92.6759,92.5962,0.0,49701.4,0.457142,1.09172,nan,4,3.84714,3.84714,3.84714,3.84714,0.0,0.0,0.0,0.0,0.0,0.0,0.0,0,0,0,0,0,0,0,1,0,0,1,0,0
1931280121,15.0398,15.3851,92.588,92.596,0.0,49701.7,0.455814,1.09196,nan,4,3.84628,3.84628,3.84628,3.84628,0.0,0.0,0.0,0.0,0.0,0.0,0.0,0,0,0,0,0,0,0,1,0,0,1,0,0
1931290105,15.4101,15.3854,92.588,92.5959,0.0,49701.9,0.455909,1.09195,nan,4,3.84634,3.84634,3.84634,3.84634,0.0,0.0,0.0,0.0,0.0,0.0,0.0,0,0,0,0,0,0,0,1,0,0,1,0,0
1931300113,15.4739,15.3862,92.6173,92.5963,0.0,49702.2,0.456246,1.09188,nan,4,3.84656,3.84656,3.84656,3.84656,0.0,0.0,0.0,0.0,0.0,0.0,0.0,0,0,0,0,0,0,0,1,0,0,1,0,0
1931600180,15.3335,15.3842,92.588,92.5981,0.0,49709.9,0.455472,1.09203,nan,4,3.84606,3.84606,3.84606,3.84606,0.0,0.0,0.0,0.0,0.0,0.0,0.0,0,0,0,0,0,0,0,1,0,0,1,0,0
1931610096,15.3335,15.3837,92.588,92.5979,0.0,49710.2,0.455278,1.09206,nan,4,3.84593,3.84593,3.84593,3.84593,0.0,0.0,0.0,0.0,0.0,0.0,0.0,0,0,0,0,0,0,0,1,0,0,1,0,0
1931620108,15.4739,15.3846,92.6173,92.5983,0.0,49710.4,0.455621,1.092,nan,4,3.84615,3.84615,3.84615,3.84615,0.0,0.0,0.0,0.0,0.0,0.0,0.0,0,0,0,0,0,0,0,1,0,0,1,0,0
1931630187,15.3207,15.384,92.588,92.5981,0.0,49710.7,0.455378,1.09204,nan,4,3.846,3.846,3.846,3.846,0.0,0.0,0.0,0.0,0.0,0.0,0.0,0,0,0,0,0,0,0,1,0,0,1,0,0
1931640101,15.3718,15.3839,92.6173,92.5985,0.0,49711.0,0.455331,1.09205,nan,4,3.84597,3.84597,3.84597,3.84597,0.0,0.0,0.0,0.0,0.0,0.0,0.0,0,0,0,0,0,0,0,1,0,0,1,0,0
1931650099,15.5505,15.3855,92.588,92.5983,0.0,49711.2,0.455966,1.09194,nan,4,3.84638,3.84638,3.84638,3.84638,0.0,0.0,0.0,0.0,0.0,0.0,0.0,0,0,0,0,0,0,0,1,0,0,1,0,0
1931660141,15.3462,15.3851,92.6466,92.5992,0.0,49711.5,0.455816,1.09196,nan,4,3.84628,3.84628,3.84628,3.84628,0.0,0.0,0.0,0.0,0.0,0.0,0.0,0,0,0,0,0,0,0,1,0,0,1,0,0
1931670112,15.3207,15.3845,92.6173,92.5996,0.0,49711.7,0.455571,1.09201,nan,4,3.84612,3.84612,3.84612,3.84612,0.0,0.0,0.0,0.0,0.0,0.0,0.0,0,0,0,0,0,0,0,1,0,0,1,0,0
1931680128,15.3335,15.384,92.588,92.5993,0.0,49712.0,0.455376,1.09205,nan,4,3.84599,3.84599,3.84599,3.84599,0.0,0.0,0.0,0.0,0.0,0.0,0.0,0,0,0,0,0,0,0,1,0,0,1,0,0
1931690099,15.4994,15.3851,92.588,92.5991,0.0,49712.2,0.455816,1.09196,nan,4,3.84628,3.84628,3.84628,3.84628,0.0,0.0,0.0,0.0,0.0,0.0,0.0,0,0,0,0,0,0,0,1,0,0,1,0,0
1931730108,15.3207,15.3851,92.6466,92.6,0.0,49713.3,0.45581,1.09197,nan,4,3.84628,3.84628,3.84628,3.84628,0.0,0.0,0.0,0.0,0.0,0.0,0.0,0,0,0,0,0,0,0,1,0,0,1,0,0
1931740107,15.2441,15.3837,92.588,92.5997,0.0,49713.5,0.455273,1.09206,nan,4,3.84593,3.84593,3.84593,3.84593,0.0,0.0,0.0,0.0,0.0,0.0,0.0,0,0,0,0,0,0,0,1,0,0,1,0,0
1931750095,15.2824,15.3827,92.5294,92.5984,0.0,49713.8,0.454886,1.09214,nan,4,3.84568,3.84568,3.84568,3.84568,0.0,0.0,0.0,0.0,0.0,0.0,0.0,0,0,0,0,0,0,0,1,0,0,1,0,0
1931760098,15.3335,15.3822,92.588,92.5982,0.0,49714.1,0.454699,1.09217,nan,4,3.84555,3.84555,3.84555,3.84555,0.0,0.0,0.0,0.0,0.0,0.0,0.0,0,0,0,0,0,0,0,1,0,0,1,0,0
1932040103,15.5633,15.3805,92.588,92.5997,0.0,49721.3,0.454038,1.09229,nan,4,3.84512,3.84512,3.84512,3.84512,0.0,0.0,0.0,0.0,0.0,0.0,0.0,0,0,0,0,0,0,0,1,0,0,1,0,0
1932050099,15.525,15.3819,92.5587,92.5989,0.0,49721.5,0.454588,1.09219,nan,4,3.84548,3.84548,3.84548,3.84548,0.0,0.0,0.0,0.0,0.0,0.0,0.0,0,0,0,0,0,0,0,1,0,0,1,0,0
1932060097,15.4739,15.3828,92.5294,92.5975,0.0,49721.8,0.454938,1.09213,nan,4,3.84571,3.84571,3.84571,3.84571,0.0,0.0,0.0,0.0,0.0,0.0,0.0,0,0,0,0,0,0,0,1,0,0,1,0,0
1932070107,15.5377,15.3844,92.5587,92.5967,0.0,49722.0,0.455528,1.09202,nan,4,3.84609,3.84609,3.84609,3.84609,0.0,0.0,0.0,0.0,0.0,0.0,0.0,0,0,0,0,0,0,0,1,0,0,1,0,0
1932080159,15.2824,15.3834,92.6173,92.5971,0.0,49722.3,0.45514,1.09209,nan,4,3.84584,3.84584,3.84584,3.84584,0.0,0.0,0.0,0.0,0.0,0.0,0.0,0,0,0,0,0,0,0,1,0,0,1,0,0
1932090107,15.2313,15.3819,92.6173,92.5975,0.0,49722.6,0.454561,1.0922,nan,4,3.84546,3.84546,3.84546,3.84546,0.0,0.0,0.0,0.0,0.0,0.0,0.0,0,0,0,0,0,0,0,1,0,0,1,0,0
1932100099,15.3462,15.3815,92.6466,92.5985,0.0,49722.8,0.454425,1.09222,nan,4,3.84538,3.84538,3.84538,3.84538,0.0,0.0,0.0,0.0,0.0,0.0,0.0,0,0,0,0,0,0,0,1,0,0,1,0,0
1932110103,15.576,15.3834,92.6173,92.5989,0.0,49723.1,0.455166,1.09208,nan,4,3.84586,3.84586,3.84586,3.84586,0.0,0.0,0.0,0.0,0.0,0.0,0.0,0,0,0,0,0,0,0,1,0,0,1,0,0
1932120097,15.4739,15.3843,92.588,92.5986,0.0,49723.3,0.455511,1.09202,nan,4,3.84608,3.84608,3.84608,3.84608,0.0,0.0,0.0,0.0,0.0,0.0,0.0,0,0,0,0,0,0,0,1,0,0,1,0,0
1932130105,15.3973,15.3845,92.6466,92.5996,0.0,49723.6,0.45556,1.09201,nan,4,3.84611,3.84611,3.84611,3.84611,0.0,0.0,0.0,0.0,0.0,0.0,0.0,0,0,0,0,0,0,0,1,0,0,1,0,0
1932170161,15.3207,15.3873,92.6173,92.6021,0.0,49724.6,0.456655,1.09181,nan,4,3.84683,3.84683,3.84683,3.84683,0.0,0.0,0.0,0.0,0.0,0.0,0.0,0,0,0,0,0,0,0,1,0,0,1,0,0
1932180134,15.3207,15.3866,92.6173,92.6024,0.0,49724.9,0.456401,1.09186,nan,4,3.84666,3.84666,3.84666,3.84666,0.0,0.0,0.0,0.0,0.0,0.0,0.0,0,0,0,0,0,0,0,1,0,0,1,0,0
1932190115,15.525,15.388,92.5587,92.6015,0.0,49725.1,0.456927,1.09176,nan,4,3.847,3.847,3.847,3.847,0.0,0.0,0.0,0.0,0.0,0.0,0.0,0,0,0,0,0,0,0,1,0,0,1,0,0
1932200124,15.2441,15.3866,92.588,92.6012,0.0,49725.4,0.456379,1.09186,nan,4,3.84665,3.84665,3.84665,3.84665,0.0,0.0,0.0,0.0,0.0,0.0,0.0,0,0,0,0,0,0,0,1,0,0,1,0,0
1932510106,15.3845,15.3758,92.588,92.5969,0.0,49733.4,0.452216,1.09263,nan,4,3.84394,3.84394,3.84394,3.84394,0.0,0.0,0.0,0.0,0.0,0.0,0.0,0,0,0,0,0,0,0,1,0,0,1,0,0
1932520101,15.3335,15.3753,92.5587,92.5961,0.0,49733.6,0.452055,1.09266,nan,4,3.84384,3.84384,3.84384,3.84384,0.0,0.0,0.0,0.0,0.0,0.0,0.0,0,0,0,0,0,0,0,1,0,0,1,0,0
1932530153,15.359,15.3752,92.588,92.596,0.0,49733.9,0.451992,1.09267,nan,4,3.84379,3.84379,3.84379,3.84379,0.0,0.0,0.0,0.0,0.0,0.0,0.0,0,0,0,0,0,0,0,1,0,0,1,0,0
1932540097,15.3207,15.3746,92.588,92.5958,0.0,49734.1,0.451785,1.09271,nan,4,3.84366,3.84366,3.84366,3.84366,0.0,0.0,0.0,0.0,0.0,0.0,0.0,0,0,0,0,0,0,0,1,0,0,1,0,0
1932550101,15.4356,15.3752,92.5587,92.5951,0.0,49734.4,0.452017,1.09267,nan,4,3.84381,3.84381,3.84381,3.84381,0.0,0.0,0.0,0.0,0.0,0.0,0.0,0,0,0,0,0,0,0,1,0,0,1,0,0
1932560097,15.4228,15.3757,92.6173,92.5955,0.0,49734.7,0.452198,1.09263,nan,4,3.84393,3.84393,3.84393,3.84393,0.0,0.0,0.0,0.0,0.0,0.0,0.0,0,0,0,0,0,0,0,1,0,0,1,0,0
1932570097,15.5377,15.3773,92.5587,92.5948,0.0,49734.9,0.452815,1.09252,nan,4,3.84433,3.84433,3.84433,3.84433,0.0,0.0,0.0,0.0,0.0,0.0,0.0,0,0,0,0,0,0,0,1,0,0,1,0,0
1932580107,15.3335,15.3769,92.6466,92.5958,0.0,49735.2,0.452648,1.09255,nan,4,3.84422,3.84422,3.84422,3.84422,0.0,0.0,0.0,0.0,0.0,0.0,0.0,0,0,0,0,0,0,0,1,0,0,1,0,0
1932590102,15.3718,15.3768,92.5587,92.5951,0.0,49735.4,0.452629,1.09255,nan,4,3.84421,3.84421,3.84421,3.84421,0.0,0.0,0.0,0.0,0.0,0.0,0.0,0,0,0,0,0,0,0,1,0,0,1,0,0
1932600099,15.3335,15.3764,92.6173,92.5955,0.0,49735.7,0.452464,1.09258,nan,4,3.8441,3.8441,3.8441,3.8441,0.0,0.0,0.0,0.0,0.0,0.0,0.0,0,0,0,0,0,0,0,1,0,0,1,0,0
1932640159,15.3207,15.3749,92.588,92.5949,0.0,49736.7,0.451879,1.09269,nan,4,3.84372,3.84372,3.84372,3.84372,0.0,0.0,0.0,0.0,0.0,0.0,0.0,0,0,0,0,0,0,0,1,0,0,1,0,0
1932650106,15.5505,15.3766,92.588,92.5948,0.0,49737.0,0.452548,1.09257,nan,4,3.84416,3.84416,3.84416,3.84416,0.0,0.0,0.0,0.0,0.0,0.0,0.0,0,0,0,0,0,0,0,1,0,0,1,0,0
1932660099,15.2569,15.3754,92.588,92.5947,0.0,49737.2,0.452092,1.09265,nan,4,3.84386,3.84386,3.84386,3.84386,0.0,0.0,0.0,0.0,0.0,0.0,0.0,0,0,0,0,0,0,0,1,0,0,1,0,0
1932670129,15.2441,15.3741,92.588,92.5946,0.0,49737.5,0.451591,1.09274,nan,4,3.84353,3.84353,3.84353,3.84353,0.0,0.0,0.0,0.0,0.0,0.0,0.0,0,0,0,0,0,0,0,1,0,0,1,0,0
1932680098,15.525,15.3756,92.6466,92.5956,0.0,49737.7,0.452166,1.09264,nan,4,3.84391,3.84391,3.84391,3.84391,0.0,0.0,0.0,0.0,0.0,0.0,0.0,0,0,0,0,0,0,0,1,0,0,1,0,0
1932970259,15.5888,15.3809,92.588,92.5979,0.0,49745.2,0.454179,1.09227,nan,4,3.84522,3.84522,3.84522,3.84522,0.0,0.0,0.0,0.0,0.0,0.0,0.0,0,0,0,0,0,0,0,1,0,0,1,0,0
1932980288,15.3718,15.3808,92.588,92.5977,0.0,49745.5,0.454144,1.09227,nan,4,3.84519,3.84519,3.84519,3.84519,0.0,0.0,0.0,0.0,0.0,0.0,0.0,0,0,0,0,0,0,0,1,0,0,1,0,0
1932990322,15.1292,15.3783,92.588,92.5975,0.0,49745.7,0.453187,1.09245,nan,4,3.84457,3.84457,3.84457,3.84457,0.0,0.0,0.0,0.0,0.0,0.0,0.0,0,0,0,0,0,0,0,1,0,0,1,0,0
1933000349,15.3718,15.3782,92.588,92.5973,0.0,49746.0,0.453162,1.09245,nan,4,3.84455,3.84455,3.84455,3.84455,0.0,0.0,0.0,0.0,0.0,0.0,0.0,0,0,0,0,0,0,0,1,0,0,1,0,0
1933010272,15.2952,15.3774,92.5587,92.5966,0.0,49746.2,0.452846,1.09251,nan,4,3.84435,3.84435,3.84435,3.84435,0.0,0.0,0.0,0.0,0.0,0.0,0.0,0,0,0,0,0,0,0,1,0,0,1,0,0
1933020272,15.2952,15.3766,92.5294,92.5952,0.0,49746.5,0.452532,1.09257,nan,4,3.84415,3.84415,3.84415,3.84415,0.0,0.0,0.0,0.0,0.0,0.0,0.0,0,0,0,0,0,0,0,1,0,0,1,0,0
1933030274,15.359,15.3764,92.6173,92.5957,0.0,49746.8,0.452465,1.09258,nan,4,3.8441,3.8441,3.8441,3.8441,0.0,0.0,0.0,0.0,0.0,0.0,0.0,0,0,0,0,0,0,0,1,0,0,1,0,0
1933040312,15.2313,15.375,92.6173,92.5961,0.0,49747.0,0.451912,1.09268,nan,4,3.84374,3.84374,3.84374,3.84374,0.0,0.0,0.0,0.0,0.0,0.0,0.0,0,0,0,0,0,0,0,1,0,0,1,0,0
1933050310,15.3335,15.3746,92.588,92.5959,0.0,49747.3,0.451755,1.09271,nan,4,3.84364,3.84364,3.84364,3.84364,0.0,0.0,0.0,0.0,0.0,0.0,0.0,0,0,0,0,0,0,0,1,0,0,1,0,0
1933060190,15.5122,15.3759,92.588,92.5958,0.0,49747.5,0.452279,1.09262,nan,4,3.84398,3.84398,3.84398,3.84398,0.0,0.0,0.0,0.0,0.0,0.0,0.0,0,0,0,0,0,0,0,1,0,0,1,0,0
1933070187,15.5122,15.3773,92.588,92.5956,0.0,49747.8,0.452798,1.09252,nan,4,3.84432,3.84432,3.84432,3.84432,0.0,0.0,0.0,0.0,0.0,0.0,0.0,0,0,0,0,0,0,0,1,0,0,1,0,0
1933110147,15.3462,15.3784,92.588,92.5945,0.0,49748.8,0.45323,1.09244,nan,4,3.8446,3.8446,3.8446,3.8446,0.0,0.0,0.0,0.0,0.0,0.0,0.0,0,0,0,0,0,0,0,1,0,0,1,0,0
1933120143,15.3462,15.3781,92.6173,92.595,0.0,49749.1,0.453108,1.09246,nan,4,3.84452,3.84452,3.84452,3.84452,0.0,0.0,0.0,0.0,0.0,0.0,0.0,0,0,0,0,0,0,0,1,0,0,1,0,0
1933130170,15.1292,15.3756,92.588,92.5948,0.0,49749.3,0.45216,1.09264,nan,4,3.8439,3.8439,3.8439,3.8439,0.0,0.0,0.0,0.0,0.0,0.0,0.0,0,0,0,0,0,0,0,1,0,0,1,0,0
1933140172,15.2696,15.3746,92.6173,92.5953,0.0,49749.6,0.451756,1.09271,nan,4,3.84364,3.84364,3.84364,3.84364,0.0,0.0,0.0,0.0,0.0,0.0,0.0,0,0,0,0,0,0,0,1,0,0,1,0,0
1933430140,15.525,15.3722,92.6173,92.5909,0.0,49757.1,0.450844,1.09288,nan,4,3.84305,3.84305,3.84305,3.84305,0.0,0.0,0.0,0.0,0.0,0.0,0.0,0,0,0,0,0,0,0,1,0,0,1,0,0
1933440100,15.3718,15.3722,92.588,92.5909,0.0,49757.3,0.450842,1.09288,nan,4,3.84305,3.84305,3.84305,3.84305,0.0,0.0,0.0,0.0,0.0,0.0,0.0,0,0,0,0,0,0,0,1,0,0,1,0,0
1933450154,15.4484,15.3729,92.5587,92.5902,0.0,49757.6,0.451132,1.09283,nan,4,3.84324,3.84324,3.84324,3.84324,0.0,0.0,0.0,0.0,0.0,0.0,0.0,0,0,0,0,0,0,0,1,0,0,1,0,0
1933460152,15.5633,15.3748,92.6173,92.5908,0.0,49757.8,0.451857,1.0927,nan,4,3.84371,3.84371,3.84371,3.84371,0.0,0.0,0.0,0.0,0.0,0.0,0.0,0,0,0,0,0,0,0,1,0,0,1,0,0
1933470098,15.2696,15.3738,92.588,92.5907,0.0,49758.1,0.451457,1.09277,nan,4,3.84345,3.84345,3.84345,3.84345,0.0,0.0,0.0,0.0,0.0,0.0,0.0,0,0,0,0,0,0,0,1,0,0,1,0,0
1933480097,15.4228,15.3743,92.5587,92.5901,0.0,49758.3,0.451643,1.09273,nan,4,3.84357,3.84357,3.84357,3.84357,0.0,0.0,0.0,0.0,0.0,0.0,0.0,0,0,0,0,0,0,0,1,0,0,1,0,0
1933490107,15.4611,15.3751,92.6466,92.5912,0.0,49758.6,0.451974,1.09267,nan,4,3.84378,3.84378,3.84378,3.84378,0.0,0.0,0.0,0.0,0.0,0.0,0.0,0,0,0,0,0,0,0,1,0,0,1,0,0
1933500096,15.5505,15.3769,92.588,92.5911,0.0,49758.9,0.452642,1.09255,nan,4,3.84422,3.84422,3.84422,3.84422,0.0,0.0,0.0,0.0,0.0,0.0,0.0,0,0,0,0,0,0,0,1,0,0,1,0,0
1933510106,15.2952,15.3761,92.5587,92.5905,0.0,49759.1,0.452331,1.09261,nan,4,3.84402,3.84402,3.84402,3.84402,0.0,0.0,0.0,0.0,0.0,0.0,0.0,0,0,0,0,0,0,0,1,0,0,1,0,0
1933520097,15.4356,15.3766,92.588,92.5905,0.0,49759.4,0.452558,1.09257,nan,4,3.84416,3.84416,3.84416,3.84416,0.0,0.0,0.0,0.0,0.0,0.0,0.0,0,0,0,0,0,0,0,1,0,0,1,0,0
1933530098,15.2185,15.3751,92.588,92.5904,0.0,49759.6,0.451956,1.09268,nan,4,3.84377,3.84377,3.84377,3.84377,0.0,0.0,0.0,0.0,0.0,0.0,0.0,0,0,0,0,0,0,0,1,0,0,1,0,0
1933550104,15.525,15.3772,92.588,92.5903,0.0,49760.2,0.452755,1.09253,nan,4,3.84429,3.84429,3.84429,3.84429,0.0,0.0,0.0,0.0,0.0,0.0,0.0,0,0,0,0,0,0,0,1,0,0,1,0,0
1933560139,15.3462,15.3769,92.5587,92.5897,0.0,49760.4,0.452637,1.09255,nan,4,3.84421,3.84421,3.84421,3.84421,0.0,0.0,0.0,0.0,0.0,0.0,0.0,0,0,0,0,0,0,0,1,0,0,1,0,0
1933570098,15.3207,15.3763,92.6466,92.5908,0.0,49760.7,0.452423,1.09259,nan,4,3.84407,3.84407,3.84407,3.84407,0.0,0.0,0.0,0.0,0.0,0.0,0.0,0,0,0,0,0,0,0,1,0,0,1,0,0
1933580209,15.2952,15.3755,92.6173,92.5913,0.0,49760.9,0.452115,1.09265,nan,4,3.84387,3.84387,3.84387,3.84387,0.0,0.0,0.0,0.0,0.0,0.0,0.0,0,0,0,0,0,0,0,1,0,0,1,0,0
1933880106,15.525,15.3858,92.6173,92.5908,0.0,49768.7,0.45608,1.09192,nan,4,3.84645,3.84645,3.84645,3.84645,0.0,0.0,0.0,0.0,0.0,0.0,0.0,0,0,0,0,0,0,0,1,0,0,1,0,0
1933890099,15.525,15.3872,92.5587,92.5902,0.0,49768.9,0.45661,1.09182,nan,4,3.8468,3.8468,3.8468,3.8468,0.0,0.0,0.0,0.0,0.0,0.0,0.0,0,0,0,0,0,0,0,1,0,0,1,0,0
1933900099,15.1802,15.3851,92.588,92.5901,0.0,49769.2,0.455822,1.09196,nan,4,3.84628,3.84628,3.84628,3.84628,0.0,0.0,0.0,0.0,0.0,0.0,0.0,0,0,0,0,0,0,0,1,0,0,1,0,0
1933910131,15.5505,15.3868,92.588,92.5901,0.0,49769.4,0.456452,1.09185,nan,4,3.84669,3.84669,3.84669,3.84669,0.0,0.0,0.0,0.0,0.0,0.0,0.0,0,0,0,0,0,0,0,1,0,0,1,0,0
1933920161,15.3207,15.3861,92.5587,92.5895,0.0,49769.7,0.456201,1.09189,nan,4,3.84653,3.84653,3.84653,3.84653,0.0,0.0,0.0,0.0,0.0,0.0,0.0,0,0,0,0,0,0,0,1,0,0,1,0,0
1933930099,15.2696,15.385,92.5587,92.5889,0.0,49769.9,0.455757,1.09197,nan,4,3.84624,3.84624,3.84624,3.84624,0.0,0.0,0.0,0.0,0.0,0.0,0.0,0,0,0,0,0,0,0,1,0,0,1,0,0
1933940099,15.4484,15.3856,92.5587,92.5883,0.0,49770.2,0.455998,1.09193,nan,4,3.8464,3.8464,3.8464,3.8464,0.0,0.0,0.0,0.0,0.0,0.0,0.0,0,0,0,0,0,0,0,1,0,0,1,0,0
1933950097,15.5888,15.3876,92.5587,92.5877,0.0,49770.5,0.456772,1.09179,nan,4,3.8469,3.8469,3.8469,3.8469,0.0,0.0,0.0,0.0,0.0,0.0,0.0,0,0,0,0,0,0,0,1,0,0,1,0,0
1933960098,15.359,15.3873,92.5587,92.5871,0.0,49770.7,0.456664,1.09181,nan,4,3.84683,3.84683,3.84683,3.84683,0.0,0.0,0.0,0.0,0.0,0.0,0.0,0,0,0,0,0,0,0,1,0,0,1,0,0
1933970098,15.4739,15.3882,92.588,92.5871,0.0,49771.0,0.456993,1.09175,nan,4,3.84705,3.84705,3.84705,3.84705,0.0,0.0,0.0,0.0,0.0,0.0,0.0,0,0,0,0,0,0,0,1,0,0,1,0,0
1934020099,15.4228,15.3859,92.6173,92.5867,0.0,49772.3,0.456119,1.09191,nan,4,3.84648,3.84648,3.84648,3.84648,0.0,0.0,0.0,0.0,0.0,0.0,0.0,0,0,0,0,0,0,0,1,0,0,1,0,0
1934030102,15.3462,15.3855,92.588,92.5867,0.0,49772.5,0.455967,1.09194,nan,4,3.84638,3.84638,3.84638,3.84638,0.0,0.0,0.0,0.0,0.0,0.0,0.0,0,0,0,0,0,0,0,1,0,0,1,0,0
1934040103,15.3207,15.3849,92.5294,92.5856,0.0,49772.8,0.455721,1.09198,nan,4,3.84622,3.84622,3.84622,3.84622,0.0,0.0,0.0,0.0,0.0,0.0,0.0,0,0,0,0,0,0,0,1,0,0,1,0,0
1934050110,15.3462,15.3845,92.588,92.5857,0.0,49773.0,0.455574,1.09201,nan,4,3.84612,3.84612,3.84612,3.84612,0.0,0.0,0.0,0.0,0.0,0.0,0.0,0,0,0,0,0,0,0,1,0,0,1,0,0
1934060114,15.2824,15.3835,92.6173,92.5863,0.0,49773.3,0.455185,1.09208,nan,4,3.84587,3.84587,3.84587,3.84587,0.0,0.0,0.0,0.0,0.0,0.0,0.0,0,0,0,0,0,0,0,1,0,0,1,0,0
1934350135,15.1547,15.3904,92.6173,92.5906,0.0,49780.8,0.45786,1.09159,nan,4,3.84761,3.84761,3.84761,3.84761,0.0,0.0,0.0,0.0,0.0,0.0,0.0,0,0,0,0,0,0,0,1,0,0,1,0,0
1934360132,15.3462,15.39,92.588,92.5905,0.0,49781.0,0.457691,1.09162,nan,4,3.8475,3.8475,3.8475,3.8475,0.0,0.0,0.0,0.0,0.0,0.0,0.0,0,0,0,0,0,0,0,1,0,0,1,0,0
1934370176,15.2824,15.3889,92.5587,92.5899,0.0,49781.3,0.457282,1.09169,nan,4,3.84723,3.84723,3.84723,3.84723,0.0,0.0,0.0,0.0,0.0,0.0,0.0,0,0,0,0,0,0,0,1,0,0,1,0,0
1934380129,15.4867,15.3899,92.588,92.5898,0.0,49781.5,0.457654,1.09163,nan,4,3.84747,3.84747,3.84747,3.84747,0.0,0.0,0.0,0.0,0.0,0.0,0.0,0,0,0,0,0,0,0,1,0,0,1,0,0
1934390124,15.2441,15.3885,92.6466,92.591,0.0,49781.8,0.457098,1.09173,nan,4,3.84711,3.84711,3.84711,3.84711,0.0,0.0,0.0,0.0,0.0,0.0,0.0,0,0,0,0,0,0,0,1,0,0,1,0,0
1934400121,15.2313,15.3869,92.6173,92.5915,0.0,49782.0,0.4565,1.09184,nan,4,3.84672,3.84672,3.84672,3.84672,0.0,0.0,0.0,0.0,0.0,0.0,0.0,0,0,0,0,0,0,0,1,0,0,1,0,0
1934410114,15.3718,15.3868,92.588,92.5914,0.0,49782.3,0.456442,1.09185,nan,4,3.84669,3.84669,3.84669,3.84669,0.0,0.0,0.0,0.0,0.0,0.0,0.0,0,0,0,0,0,0,0,1,0,0,1,0,0
1934420105,15.2313,15.3852,92.5587,92.5908,0.0,49782.6,0.455851,1.09196,nan,4,3.8463,3.8463,3.8463,3.8463,0.0,0.0,0.0,0.0,0.0,0.0,0.0,0,0,0,0,0,0,0,1,0,0,1,0,0
1934430100,15.5122,15.3865,92.588,92.5907,0.0,49782.8,0.456334,1.09187,nan,4,3.84662,3.84662,3.84662,3.84662,0.0,0.0,0.0,0.0,0.0,0.0,0.0,0,0,0,0,0,0,0,1,0,0,1,0,0
1934440105,15.4228,15.3868,92.6759,92.5924,0.0,49783.1,0.456473,1.09184,nan,4,3.84671,3.84671,3.84671,3.84671,0.0,0.0,0.0,0.0,0.0,0.0,0.0,0,0,0,0,0,0,0,1,0,0,1,0,0
1934481072,15.4867,15.3863,92.6759,92.5949,0.0,49784.1,0.456251,1.09188,nan,4,3.84656,3.84656,3.84656,3.84656,0.0,0.0,0.0,0.0,0.0,0.0,0.0,0,0,0,0,0,0,0,1,0,0,1,0,0
1934491282,15.5505,15.3879,92.588,92.5947,0.0,49784.4,0.456876,1.09177,nan,4,3.84697,3.84697,3.84697,3.84697,0.0,0.0,0.0,0.0,0.0,0.0,0.0,0,0,0,0,0,0,0,1,0,0,1,0,0
1934501057,15.3462,15.3875,92.6466,92.5957,0.0,49784.6,0.456717,1.0918,nan,4,3.84687,3.84687,3.84687,3.84687,0.0,0.0,0.0,0.0,0.0,0.0,0.0,0,0,0,0,0,0,0,1,0,0,1,0,0
1934510854,15.2569,15.3862,92.6466,92.5967,0.0,49784.9,0.45622,1.09189,nan,4,3.84654,3.84654,3.84654,3.84654,0.0,0.0,0.0,0.0,0.0,0.0,0.0,0,0,0,0,0,0,0,1,0,0,1,0,0
1934801037,15.6526,15.3763,92.588,92.5964,0.0,49792.4,0.452407,1.09259,nan,4,3.84406,3.84406,3.84406,3.84406,0.0,0.0,0.0,0.0,0.0,0.0,0.0,0,0,0,0,0,0,0,1,0,0,1,0,0
1934810917,15.4356,15.3768,92.588,92.5962,0.0,49792.6,0.452633,1.09255,nan,4,3.84421,3.84421,3.84421,3.84421,0.0,0.0,0.0,0.0,0.0,0.0,0.0,0,0,0,0,0,0,0,1,0,0,1,0,0
1934821057,15.3462,15.3765,92.6466,92.5972,0.0,49792.9,0.452517,1.09257,nan,4,3.84414,3.84414,3.84414,3.84414,0.0,0.0,0.0,0.0,0.0,0.0,0.0,0,0,0,0,0,0,0,1,0,0,1,0,0
1934830649,15.525,15.378,92.588,92.597,0.0,49793.1,0.453082,1.09247,nan,4,3.8445,3.8445,3.8445,3.8445,0.0,0.0,0.0,0.0,0.0,0.0,0.0,0,0,0,0,0,0,0,1,0,0,1,0,0
1934841202,15.2696,15.3769,92.5587,92.5963,0.0,49793.4,0.452669,1.09255,nan,4,3.84423,3.84423,3.84423,3.84423,0.0,0.0,0.0,0.0,0.0,0.0,0.0,0,0,0,0,0,0,0,1,0,0,1,0,0
1934850750,15.2185,15.3754,92.588,92.5961,0.0,49793.6,0.452066,1.09266,nan,4,3.84384,3.84384,3.84384,3.84384,0.0,0.0,0.0,0.0,0.0,0.0,0.0,0,0,0,0,0,0,0,1,0,0,1,0,0
1934860709,15.4484,15.3761,92.6173,92.5965,0.0,49793.9,0.452344,1.09261,nan,4,3.84402,3.84402,3.84402,3.84402,0.0,0.0,0.0,0.0,0.0,0.0,0.0,0,0,0,0,0,0,0,1,0,0,1,0,0
1934870836,15.2824,15.3752,92.6173,92.5969,0.0,49794.2,0.451987,1.09267,nan,4,3.84379,3.84379,3.84379,3.84379,0.0,0.0,0.0,0.0,0.0,0.0,0.0,0,0,0,0,0,0,0,1,0,0,1,0,0
1934880822,15.3462,15.3749,92.6173,92.5973,0.0,49794.4,0.451877,1.09269,nan,4,3.84372,3.84372,3.84372,3.84372,0.0,0.0,0.0,0.0,0.0,0.0,0.0,0,0,0,0,0,0,0,1,0,0,1,0,0
1934890565,15.3845,15.375,92.6173,92.5977,0.0,49794.7,0.451914,1.09268,nan,4,3.84374,3.84374,3.84374,3.84374,0.0,0.0,0.0,0.0,0.0,0.0,0.0,0,0,0,0,0,0,0,1,0,0,1,0,0
1934900839,15.359,15.3748,92.588,92.5975,0.0,49794.9,0.451853,1.0927,nan,4,3.8437,3.8437,3.8437,3.8437,0.0,0.0,0.0,0.0,0.0,0.0,0.0,0,0,0,0,0,0,0,1,0,0,1,0,0
1934920979,15.2569,15.3747,92.5294,92.596,0.0,49795.5,0.451825,1.0927,nan,4,3.84369,3.84369,3.84369,3.84369,0.0,0.0,0.0,0.0,0.0,0.0,0.0,0,0,0,0,0,0,0,1,0,0,1,0,0
1934930940,15.2952,15.374,92.5294,92.5947,0.0,49795.7,0.451522,1.09276,nan,4,3.84349,3.84349,3.84349,3.84349,0.0,0.0,0.0,0.0,0.0,0.0,0.0,0,0,0,0,0,0,0,1,0,0,1,0,0
1934940593,15.4994,15.3752,92.6173,92.5952,0.0,49796.0,0.452,1.09267,nan,4,3.8438,3.8438,3.8438,3.8438,0.0,0.0,0.0,0.0,0.0,0.0,0.0,0,0,0,0,0,0,0,1,0,0,1,0,0
1934950711,15.1547,15.373,92.6466,92.5962,0.0,49796.2,0.451161,1.09282,nan,4,3.84325,3.84325,3.84325,3.84325,0.0,0.0,0.0,0.0,0.0,0.0,0.0,0,0,0,0,0,0,0,1,0,0,1,0,0
1934960712,15.5633,15.3749,92.6466,92.5972,0.0,49796.5,0.451885,1.09269,nan,4,3.84373,3.84373,3.84373,3.84373,0.0,0.0,0.0,0.0,0.0,0.0,0.0,0,0,0,0,0,0,0,1,0,0,1,0,0
1935270254,15.1547,15.3617,92.588,92.5917,0.0,49804.4,0.446795,1.09363,nan,4,3.84042,3.84042,3.84042,3.84042,0.0,0.0,0.0,0.0,0.0,0.0,0.0,0,0,0,0,0,0,0,1,0,0,1,0,0
1935280610,15.4228,15.3623,92.6466,92.5928,0.0,49804.7,0.447027,1.09359,nan,4,3.84057,3.84057,3.84057,3.84057,0.0,0.0,0.0,0.0,0.0,0.0,0.0,0,0,0,0,0,0,0,1,0,0,1,0,0
1935290316,15.5377,15.364,92.588,92.5927,0.0,49805.0,0.447696,1.09346,nan,4,3.841,3.841,3.841,3.841,0.0,0.0,0.0,0.0,0.0,0.0,0.0,0,0,0,0,0,0,0,1,0,0,1,0,0
1935300508,15.4101,15.3645,92.5587,92.592,0.0,49805.2,0.447871,1.09343,nan,4,3.84112,3.84112,3.84112,3.84112,0.0,0.0,0.0,0.0,0.0,0.0,0.0,0,0,0,0,0,0,0,1,0,0,1,0,0
1935310641,15.359,15.3644,92.6173,92.5925,0.0,49805.5,0.44785,1.09344,nan,4,3.8411,3.8411,3.8411,3.8411,0.0,0.0,0.0,0.0,0.0,0.0,0.0,0,0,0,0,0,0,0,1,0,0,1,0,0
1935320246,15.2696,15.3635,92.5294,92.5913,0.0,49805.7,0.447489,1.0935,nan,4,3.84087,3.84087,3.84087,3.84087,0.0,0.0,0.0,0.0,0.0,0.0,0.0,0,0,0,0,0,0,0,1,0,0,1,0,0
1935330391,15.4356,15.3642,92.6173,92.5918,0.0,49806.0,0.447764,1.09345,nan,4,3.84105,3.84105,3.84105,3.84105,0.0,0.0,0.0,0.0,0.0,0.0,0.0,0,0,0,0,0,0,0,1,0,0,1,0,0
1935340381,15.2824,15.3634,92.6173,92.5923,0.0,49806.2,0.447453,1.09351,nan,4,3.84084,3.84084,3.84084,3.84084,0.0,0.0,0.0,0.0,0.0,0.0,0.0,0,0,0,0,0,0,0,1,0,0,1,0,0
1935350315,15.3973,15.3637,92.5587,92.5917,0.0,49806.5,0.447581,1.09349,nan,4,3.84093,3.84093,3.84093,3.84093,0.0,0.0,0.0,0.0,0.0,0.0,0.0,0,0,0,0,0,0,0,1,0,0,1,0,0
1935360594,15.5505,15.3656,92.588,92.5916,0.0,49806.8,0.448293,1.09335,nan,4,3.84139,3.84139,3.84139,3.84139,0.0,0.0,0.0,0.0,0.0,0.0,0.0,0,0,0,0,0,0,0,1,0,0,1,0,0
1935410310,15.3335,15.3635,92.6173,92.5924,0.0,49808.0,0.447505,1.0935,nan,4,3.84088,3.84088,3.84088,3.84088,0.0,0.0,0.0,0.0,0.0,0.0,0.0,0,0,0,0,0,0,0,1,0,0,1,0,0
1935420821,15.359,15.3635,92.5587,92.5917,0.0,49808.3,0.447488,1.0935,nan,4,3.84087,3.84087,3.84087,3.84087,0.0,0.0,0.0,0.0,0.0,0.0,0.0,0,0,0,0,0,0,0,1,0,0,1,0,0
1935430281,15.2441,15.3623,92.6173,92.5922,0.0,49808.6,0.447033,1.09359,nan,4,3.84057,3.84057,3.84057,3.84057,0.0,0.0,0.0,0.0,0.0,0.0,0.0,0,0,0,0,0,0,0,1,0,0,1,0,0
1935440340,15.2824,15.3615,92.588,92.5921,0.0,49808.8,0.446729,1.09364,nan,4,3.84037,3.84037,3.84037,3.84037,0.0,0.0,0.0,0.0,0.0,0.0,0.0,0,0,0,0,0,0,0,1,0,0,1,0,0
1935450310,15.4739,15.3626,92.6173,92.5926,0.0,49809.1,0.447157,1.09356,nan,4,3.84065,3.84065,3.84065,3.84065,0.0,0.0,0.0,0.0,0.0,0.0,0.0,0,0,0,0,0,0,0,1,0,0,1,0,0
1935740313,15.2952,15.3644,92.6466,92.5926,0.0,49816.5,0.447835,1.09344,nan,4,3.84109,3.84109,3.84109,3.84109,0.0,0.0,0.0,0.0,0.0,0.0,0.0,0,0,0,0,0,0,0,1,0,0,1,0,0
1935750165,15.3845,15.3646,92.6173,92.5931,0.0,49816.8,0.447912,1.09342,nan,4,3.84114,3.84114,3.84114,3.84114,0.0,0.0,0.0,0.0,0.0,0.0,0.0,0,0,0,0,0,0,0,1,0,0,1,0,0
1935760233,15.3462,15.3644,92.6173,92.5936,0.0,49817.1,0.447843,1.09344,nan,4,3.8411,3.8411,3.8411,3.8411,0.0,0.0,0.0,0.0,0.0,0.0,0.0,0,0,0,0,0,0,0,1,0,0,1,0,0
1935770138,15.3335,15.3641,92.5587,92.5929,0.0,49817.3,0.447725,1.09346,nan,4,3.84102,3.84102,3.84102,3.84102,0.0,0.0,0.0,0.0,0.0,0.0,0.0,0,0,0,0,0,0,0,1,0,0,1,0,0
1935780218,15.2441,15.3629,92.6173,92.5933,0.0,49817.6,0.447268,1.09354,nan,4,3.84072,3.84072,3.84072,3.84072,0.0,0.0,0.0,0.0,0.0,0.0,0.0,0,0,0,0,0,0,0,1,0,0,1,0,0
1935790178,15.5633,15.3649,92.6173,92.5938,0.0,49817.8,0.448031,1.0934,nan,4,3.84122,3.84122,3.84122,3.84122,0.0,0.0,0.0,0.0,0.0,0.0,0.0,0,0,0,0,0,0,0,1,0,0,1,0,0
1935800107,15.3335,15.3646,92.588,92.5937,0.0,49818.1,0.447911,1.09342,nan,4,3.84114,3.84114,3.84114,3.84114,0.0,0.0,0.0,0.0,0.0,0.0,0.0,0,0,0,0,0,0,0,1,0,0,1,0,0
1935810116,15.5122,15.366,92.6466,92.5947,0.0,49818.3,0.448473,1.09332,nan,4,3.84151,3.84151,3.84151,3.84151,0.0,0.0,0.0,0.0,0.0,0.0,0.0,0,0,0,0,0,0,0,1,0,0,1,0,0
1935820103,15.3718,15.3661,92.5587,92.594,0.0,49818.6,0.448495,1.09332,nan,4,3.84152,3.84152,3.84152,3.84152,0.0,0.0,0.0,0.0,0.0,0.0,0.0,0,0,0,0,0,0,0,1,0,0,1,0,0
1935830203,15.3718,15.3661,92.6173,92.5945,0.0,49818.9,0.448517,1.09331,nan,4,3.84154,3.84154,3.84154,3.84154,0.0,0.0,0.0,0.0,0.0,0.0,0.0,0,0,0,0,0,0,0,1,0,0,1,0,0
1935860138,15.3207,15.3652,92.6466,92.5942,0.0,49819.6,0.448147,1.09338,nan,4,3.8413,3.8413,3.8413,3.8413,0.0,0.0,0.0,0.0,0.0,0.0,0.0,0,0,0,0,0,0,0,1,0,0,1,0,0
1935870140,15.359,15.3651,92.5294,92.5929,0.0,49819.9,0.448123,1.09339,nan,4,3.84128,3.84128,3.84128,3.84128,0.0,0.0,0.0,0.0,0.0,0.0,0.0,0,0,0,0,0,0,0,1,0,0,1,0,0
1935880147,15.3718,15.3652,92.588,92.5928,0.0,49820.1,0.448149,1.09338,nan,4,3.8413,3.8413,3.8413,3.8413,0.0,0.0,0.0,0.0,0.0,0.0,0.0,0,0,0,0,0,0,0,1,0,0,1,0,0
1935890130,15.3335,15.3649,92.6173,92.5933,0.0,49820.4,0.448028,1.0934,nan,4,3.84122,3.84122,3.84122,3.84122,0.0,0.0,0.0,0.0,0.0,0.0,0.0,0,0,0,0,0,0,0,1,0,0,1,0,0
1936180189,15.525,15.3726,92.588,92.5897,0.0,49827.9,0.45101,1.09285,nan,4,3.84316,3.84316,3.84316,3.84316,0.0,0.0,0.0,0.0,0.0,0.0,0.0,0,0,0,0,0,0,0,1,0,0,1,0,0
1936190146,15.6143,15.375,92.6173,92.5902,0.0,49828.1,0.451931,1.09268,nan,4,3.84375,3.84375,3.84375,3.84375,0.0,0.0,0.0,0.0,0.0,0.0,0.0,0,0,0,0,0,0,0,1,0,0,1,0,0
1936200147,15.5377,15.3766,92.6173,92.5907,0.0,49828.4,0.45255,1.09257,nan,4,3.84416,3.84416,3.84416,3.84416,0.0,0.0,0.0,0.0,0.0,0.0,0.0,0,0,0,0,0,0,0,1,0,0,1,0,0
1936210239,15.3335,15.3762,92.588,92.5907,0.0,49828.6,0.452386,1.0926,nan,4,3.84405,3.84405,3.84405,3.84405,0.0,0.0,0.0,0.0,0.0,0.0,0.0,0,0,0,0,0,0,0,1,0,0,1,0,0
1936220195,15.359,15.376,92.5587,92.5901,0.0,49828.9,0.45232,1.09261,nan,4,3.84401,3.84401,3.84401,3.84401,0.0,0.0,0.0,0.0,0.0,0.0,0.0,0,0,0,0,0,0,0,1,0,0,1,0,0
1936230149,15.3718,15.376,92.588,92.59,0.0,49829.2,0.452304,1.09261,nan,4,3.844,3.844,3.844,3.844,0.0,0.0,0.0,0.0,0.0,0.0,0.0,0,0,0,0,0,0,0,1,0,0,1,0,0
1936240169,15.2696,15.3749,92.6173,92.5906,0.0,49829.4,0.451899,1.09269,nan,4,3.84373,3.84373,3.84373,3.84373,0.0,0.0,0.0,0.0,0.0,0.0,0.0,0,0,0,0,0,0,0,1,0,0,1,0,0
1936250150,15.5633,15.3768,92.588,92.5905,0.0,49829.7,0.452616,1.09255,nan,4,3.8442,3.8442,3.8442,3.8442,0.0,0.0,0.0,0.0,0.0,0.0,0.0,0,0,0,0,0,0,0,1,0,0,1,0,0
1936260197,15.3335,15.3764,92.588,92.5905,0.0,49829.9,0.452451,1.09259,nan,4,3.84409,3.84409,3.84409,3.84409,0.0,0.0,0.0,0.0,0.0,0.0,0.0,0,0,0,0,0,0,0,1,0,0,1,0,0
1936270177,15.4101,15.3767,92.6466,92.5916,0.0,49830.2,0.452579,1.09256,nan,4,3.84418,3.84418,3.84418,3.84418,0.0,0.0,0.0,0.0,0.0,0.0,0.0,0,0,0,0,0,0,0,1,0,0,1,0,0
1936310156,15.3207,15.3758,92.5587,92.5913,0.0,49831.2,0.452215,1.09263,nan,4,3.84394,3.84394,3.84394,3.84394,0.0,0.0,0.0,0.0,0.0,0.0,0.0,0,0,0,0,0,0,0,1,0,0,1,0,0
1936320111,15.6143,15.3781,92.6173,92.5918,0.0,49831.5,0.453123,1.09246,nan,4,3.84453,3.84453,3.84453,3.84453,0.0,0.0,0.0,0.0,0.0,0.0,0.0,0,0,0,0,0,0,0,1,0,0,1,0,0
1936330101,15.3462,15.3778,92.5587,92.5911,0.0,49831.7,0.453001,1.09248,nan,4,3.84445,3.84445,3.84445,3.84445,0.0,0.0,0.0,0.0,0.0,0.0,0.0,0,0,0,0,0,0,0,1,0,0,1,0,0
1936340107,15.4994,15.379,92.588,92.5911,0.0,49832.0,0.453465,1.0924,nan,4,3.84475,3.84475,3.84475,3.84475,0.0,0.0,0.0,0.0,0.0,0.0,0.0,0,0,0,0,0,0,0,1,0,0,1,0,0
1936620109,15.3335,15.3697,92.6173,92.5946,0.0,49839.2,0.449899,1.09306,nan,4,3.84243,3.84243,3.84243,3.84243,0.0,0.0,0.0,0.0,0.0,0.0,0.0,0,0,0,0,0,0,0,1,0,0,1,0,0
1936630142,15.3207,15.3693,92.588,92.5945,0.0,49839.5,0.449712,1.09309,nan,4,3.84231,3.84231,3.84231,3.84231,0.0,0.0,0.0,0.0,0.0,0.0,0.0,0,0,0,0,0,0,0,1,0,0,1,0,0
1936640108,15.3718,15.3693,92.588,92.5943,0.0,49839.7,0.449721,1.09309,nan,4,3.84232,3.84232,3.84232,3.84232,0.0,0.0,0.0,0.0,0.0,0.0,0.0,0,0,0,0,0,0,0,1,0,0,1,0,0
1936650111,15.1419,15.367,92.6173,92.5948,0.0,49840.0,0.448856,1.09325,nan,4,3.84176,3.84176,3.84176,3.84176,0.0,0.0,0.0,0.0,0.0,0.0,0.0,0,0,0,0,0,0,0,1,0,0,1,0,0
1936660166,15.3845,15.3672,92.5587,92.5941,0.0,49840.2,0.448923,1.09324,nan,4,3.8418,3.8418,3.8418,3.8418,0.0,0.0,0.0,0.0,0.0,0.0,0.0,0,0,0,0,0,0,0,1,0,0,1,0,0
1936670111,15.359,15.3671,92.6173,92.5945,0.0,49840.5,0.448891,1.09324,nan,4,3.84178,3.84178,3.84178,3.84178,0.0,0.0,0.0,0.0,0.0,0.0,0.0,0,0,0,0,0,0,0,1,0,0,1,0,0
1936680100,15.5505,15.3689,92.588,92.5944,0.0,49840.8,0.44959,1.09311,nan,4,3.84223,3.84223,3.84223,3.84223,0.0,0.0,0.0,0.0,0.0,0.0,0.0,0,0,0,0,0,0,0,1,0,0,1,0,0
1936690100,15.5122,15.3704,92.588,92.5943,0.0,49841.0,0.450135,1.09301,nan,4,3.84259,3.84259,3.84259,3.84259,0.0,0.0,0.0,0.0,0.0,0.0,0.0,0,0,0,0,0,0,0,1,0,0,1,0,0
1936700116,15.2569,15.3692,92.588,92.5942,0.0,49841.3,0.449703,1.09309,nan,4,3.84231,3.84231,3.84231,3.84231,0.0,0.0,0.0,0.0,0.0,0.0,0.0,0,0,0,0,0,0,0,1,0,0,1,0,0
1936710111,15.4356,15.3699,92.588,92.594,0.0,49841.5,0.449956,1.09305,nan,4,3.84247,3.84247,3.84247,3.84247,0.0,0.0,0.0,0.0,0.0,0.0,0.0,0,0,0,0,0,0,0,1,0,0,1,0,0
1936720099,15.359,15.3698,92.6173,92.5945,0.0,49841.8,0.449914,1.09305,nan,4,3.84244,3.84244,3.84244,3.84244,0.0,0.0,0.0,0.0,0.0,0.0,0.0,0,0,0,0,0,0,0,1,0,0,1,0,0
1936780129,15.4484,15.3715,92.6173,92.5949,0.0,49843.3,0.450587,1.09293,nan,4,3.84288,3.84288,3.84288,3.84288,0.0,0.0,0.0,0.0,0.0,0.0,0.0,0,0,0,0,0,0,0,1,0,0,1,0,0
1936790099,15.3335,15.3711,92.588,92.5948,0.0,49843.6,0.450442,1.09296,nan,4,3.84279,3.84279,3.84279,3.84279,0.0,0.0,0.0,0.0,0.0,0.0,0.0,0,0,0,0,0,0,0,1,0,0,1,0,0
1936800104,15.3335,15.3708,92.588,92.5946,0.0,49843.8,0.450298,1.09298,nan,4,3.84269,3.84269,3.84269,3.84269,0.0,0.0,0.0,0.0,0.0,0.0,0.0,0,0,0,0,0,0,0,1,0,0,1,0,0
1936810130,15.3335,15.3704,92.6173,92.5951,0.0,49844.1,0.450156,1.09301,nan,4,3.8426,3.8426,3.8426,3.8426,0.0,0.0,0.0,0.0,0.0,0.0,0.0,0,0,0,0,0,0,0,1,0,0,1,0,0
1937130158,15.6016,15.3715,92.588,92.5978,0.0,49852.3,0.45059,1.09293,nan,4,3.84288,3.84288,3.84288,3.84288,0.0,0.0,0.0,0.0,0.0,0.0,0.0,0,0,0,0,0,0,0,1,0,0,1,0,0
1937140161,15.5377,15.3732,92.6173,92.5982,0.0,49852.6,0.451223,1.09281,nan,4,3.84329,3.84329,3.84329,3.84329,0.0,0.0,0.0,0.0,0.0,0.0,0.0,0,0,0,0,0,0,0,1,0,0,1,0,0
1937150202,15.3462,15.3729,92.588,92.598,0.0,49852.9,0.45112,1.09283,nan,4,3.84323,3.84323,3.84323,3.84323,0.0,0.0,0.0,0.0,0.0,0.0,0.0,0,0,0,0,0,0,0,1,0,0,1,0,0
1937160132,15.2952,15.3721,92.588,92.5978,0.0,49853.1,0.450824,1.09289,nan,4,3.84304,3.84304,3.84304,3.84304,0.0,0.0,0.0,0.0,0.0,0.0,0.0,0,0,0,0,0,0,0,1,0,0,1,0,0
1937170097,15.2441,15.3709,92.5587,92.597,0.0,49853.4,0.450336,1.09298,nan,4,3.84272,3.84272,3.84272,3.84272,0.0,0.0,0.0,0.0,0.0,0.0,0.0,0,0,0,0,0,0,0,1,0,0,1,0,0
1937180101,15.3207,15.3704,92.6173,92.5974,0.0,49853.6,0.450145,1.09301,nan,4,3.84259,3.84259,3.84259,3.84259,0.0,0.0,0.0,0.0,0.0,0.0,0.0,0,0,0,0,0,0,0,1,0,0,1,0,0
1937190103,15.3462,15.3701,92.588,92.5973,0.0,49853.9,0.450053,1.09303,nan,4,3.84253,3.84253,3.84253,3.84253,0.0,0.0,0.0,0.0,0.0,0.0,0.0,0,0,0,0,0,0,0,1,0,0,1,0,0
1937200219,15.3335,15.3698,92.588,92.5971,0.0,49854.1,0.449914,1.09305,nan,4,3.84244,3.84244,3.84244,3.84244,0.0,0.0,0.0,0.0,0.0,0.0,0.0,0,0,0,0,0,0,0,1,0,0,1,0,0
1937210097,15.3462,15.3695,92.6173,92.5975,0.0,49854.4,0.449824,1.09307,nan,4,3.84239,3.84239,3.84239,3.84239,0.0,0.0,0.0,0.0,0.0,0.0,0.0,0,0,0,0,0,0,0,1,0,0,1,0,0
1937220096,15.3335,15.3692,92.6466,92.5984,0.0,49854.7,0.449687,1.0931,nan,4,3.8423,3.8423,3.8423,3.8423,0.0,0.0,0.0,0.0,0.0,0.0,0.0,0,0,0,0,0,0,0,1,0,0,1,0,0
1937240174,15.3845,15.3686,92.588,92.5986,0.0,49855.2,0.449466,1.09314,nan,4,3.84215,3.84215,3.84215,3.84215,0.0,0.0,0.0,0.0,0.0,0.0,0.0,0,0,0,0,0,0,0,1,0,0,1,0,0
1937250097,15.3718,15.3686,92.6173,92.599,0.0,49855.4,0.449478,1.09313,nan,4,3.84216,3.84216,3.84216,3.84216,0.0,0.0,0.0,0.0,0.0,0.0,0.0,0,0,0,0,0,0,0,1,0,0,1,0,0
1937260102,15.3462,15.3684,92.6466,92.5999,0.0,49855.7,0.449392,1.09315,nan,4,3.8421,3.8421,3.8421,3.8421,0.0,0.0,0.0,0.0,0.0,0.0,0.0,0,0,0,0,0,0,0,1,0,0,1,0,0
1937270140,15.3462,15.3682,92.5587,92.5991,0.0,49855.9,0.449308,1.09317,nan,4,3.84205,3.84205,3.84205,3.84205,0.0,0.0,0.0,0.0,0.0,0.0,0.0,0,0,0,0,0,0,0,1,0,0,1,0,0
1937580105,15.3462,15.3764,92.6759,92.6056,0.0,49863.9,0.452466,1.09258,nan,4,3.8441,3.8441,3.8441,3.8441,0.0,0.0,0.0,0.0,0.0,0.0,0.0,0,0,0,0,0,0,0,1,0,0,1,0,0
1937590108,15.4867,15.3775,92.6466,92.6064,0.0,49864.2,0.452886,1.0925,nan,4,3.84438,3.84438,3.84438,3.84438,0.0,0.0,0.0,0.0,0.0,0.0,0.0,0,0,0,0,0,0,0,1,0,0,1,0,0
1937600099,15.3973,15.3777,92.6173,92.6066,0.0,49864.4,0.452961,1.09249,nan,4,3.84442,3.84442,3.84442,3.84442,0.0,0.0,0.0,0.0,0.0,0.0,0.0,0,0,0,0,0,0,0,1,0,0,1,0,0
1937610100,15.5505,15.3794,92.6466,92.6074,0.0,49864.7,0.453619,1.09237,nan,4,3.84485,3.84485,3.84485,3.84485,0.0,0.0,0.0,0.0,0.0,0.0,0.0,0,0,0,0,0,0,0,1,0,0,1,0,0
1937620181,15.2824,15.3784,92.6173,92.6076,0.0,49865.0,0.45325,1.09244,nan,4,3.84461,3.84461,3.84461,3.84461,0.0,0.0,0.0,0.0,0.0,0.0,0.0,0,0,0,0,0,0,0,1,0,0,1,0,0
1937630217,15.2058,15.3767,92.5587,92.6066,0.0,49865.2,0.452592,1.09256,nan,4,3.84418,3.84418,3.84418,3.84418,0.0,0.0,0.0,0.0,0.0,0.0,0.0,0,0,0,0,0,0,0,1,0,0,1,0,0
1937640178,15.2824,15.3758,92.6466,92.6074,0.0,49865.5,0.452233,1.09263,nan,4,3.84395,3.84395,3.84395,3.84395,0.0,0.0,0.0,0.0,0.0,0.0,0.0,0,0,0,0,0,0,0,1,0,0,1,0,0
1937650178,15.4994,15.377,92.588,92.607,0.0,49865.7,0.452704,1.09254,nan,4,3.84426,3.84426,3.84426,3.84426,0.0,0.0,0.0,0.0,0.0,0.0,0.0,0,0,0,0,0,0,0,1,0,0,1,0,0
1937660178,15.3973,15.3772,92.6173,92.6072,0.0,49866.0,0.452781,1.09252,nan,4,3.84431,3.84431,3.84431,3.84431,0.0,0.0,0.0,0.0,0.0,0.0,0.0,0,0,0,0,0,0,0,1,0,0,1,0,0
1937670295,15.4994,15.3784,92.6173,92.6074,0.0,49866.3,0.453246,1.09244,nan,4,3.84461,3.84461,3.84461,3.84461,0.0,0.0,0.0,0.0,0.0,0.0,0.0,0,0,0,0,0,0,0,1,0,0,1,0,0
1937700281,15.4867,15.3794,92.6466,92.6086,0.0,49867.0,0.453607,1.09237,nan,4,3.84484,3.84484,3.84484,3.84484,0.0,0.0,0.0,0.0,0.0,0.0,0.0,0,0,0,0,0,0,0,1,0,0,1,0,0
1937710337,15.2952,15.3785,92.5587,92.6076,0.0,49867.3,0.453286,1.09243,nan,4,3.84464,3.84464,3.84464,3.84464,0.0,0.0,0.0,0.0,0.0,0.0,0.0,0,0,0,0,0,0,0,1,0,0,1,0,0
1937720337,15.6909,15.3816,92.6173,92.6078,0.0,49867.5,0.454475,1.09221,nan,4,3.84541,3.84541,3.84541,3.84541,0.0,0.0,0.0,0.0,0.0,0.0,0.0,0,0,0,0,0,0,0,1,0,0,1,0,0
1937730282,15.7165,15.385,92.6466,92.6086,0.0,49867.8,0.45575,1.09198,nan,4,3.84624,3.84624,3.84624,3.84624,0.0,0.0,0.0,0.0,0.0,0.0,0.0,0,0,0,0,0,0,0,1,0,0,1,0,0
1938030098,15.4101,15.3833,92.5587,92.602,0.0,49875.5,0.455121,1.09209,nan,4,3.84583,3.84583,3.84583,3.84583,0.0,0.0,0.0,0.0,0.0,0.0,0.0,0,0,0,0,0,0,0,1,0,0,1,0,0
1938040106,15.3718,15.3832,92.588,92.6017,0.0,49875.8,0.455077,1.0921,nan,4,3.8458,3.8458,3.8458,3.8458,0.0,0.0,0.0,0.0,0.0,0.0,0.0,0,0,0,0,0,0,0,1,0,0,1,0,0
1938050099,15.525,15.3846,92.588,92.6015,0.0,49876.0,0.455617,1.092,nan,4,3.84615,3.84615,3.84615,3.84615,0.0,0.0,0.0,0.0,0.0,0.0,0.0,0,0,0,0,0,0,0,1,0,0,1,0,0
1938060102,15.5122,15.3859,92.588,92.6012,0.0,49876.3,0.456103,1.09191,nan,4,3.84647,3.84647,3.84647,3.84647,0.0,0.0,0.0,0.0,0.0,0.0,0.0,0,0,0,0,0,0,0,1,0,0,1,0,0
1938070107,15.359,15.3856,92.6173,92.6015,0.0,49876.6,0.456001,1.09193,nan,4,3.8464,3.8464,3.8464,3.8464,0.0,0.0,0.0,0.0,0.0,0.0,0.0,0,0,0,0,0,0,0,1,0,0,1,0,0
1938080131,15.4356,15.3861,92.588,92.6013,0.0,49876.8,0.456191,1.09189,nan,4,3.84652,3.84652,3.84652,3.84652,0.0,0.0,0.0,0.0,0.0,0.0,0.0,0,0,0,0,0,0,0,1,0,0,1,0,0
1938090099,15.2824,15.3851,92.5587,92.6004,0.0,49877.1,0.455796,1.09197,nan,4,3.84627,3.84627,3.84627,3.84627,0.0,0.0,0.0,0.0,0.0,0.0,0.0,0,0,0,0,0,0,0,1,0,0,1,0,0
1938100108,15.4611,15.3858,92.5587,92.5996,0.0,49877.3,0.456086,1.09191,nan,4,3.84646,3.84646,3.84646,3.84646,0.0,0.0,0.0,0.0,0.0,0.0,0.0,0,0,0,0,0,0,0,1,0,0,1,0,0
1938110111,15.525,15.3872,92.6173,92.6,0.0,49877.6,0.456616,1.09182,nan,4,3.8468,3.8468,3.8468,3.8468,0.0,0.0,0.0,0.0,0.0,0.0,0.0,0,0,0,0,0,0,0,1,0,0,1,0,0
1938120134,15.3335,15.3867,92.588,92.5997,0.0,49877.8,0.456411,1.09185,nan,4,3.84667,3.84667,3.84667,3.84667,0.0,0.0,0.0,0.0,0.0,0.0,0.0,0,0,0,0,0,0,0,1,0,0,1,0,0
